<?xml version="1.0" encoding="UTF-8"?>
<kml xmlns="http://www.opengis.net/kml/2.2" xmlns:gx="http://www.google.com/kml/ext/2.2" xmlns:kml="http://www.opengis.net/kml/2.2" xmlns:atom="http://www.w3.org/2005/Atom">
<Document>
<name>Terminals</name>
<Snippet maxLines="2">Created 04/08/2018 22:31:44</Snippet>
<Folder>
<name>Terminals</name>
<Placemark><name>GGRAF12</name><description>204212 P.REC
posicio de les: 04/08/2018 22:30:55</description><styleUrl>#w_grocP</styleUrl><Point><coordinates>2.97467708587646,42.0298612117767,0</coordinates></Point></Placemark>
<Placemark><name>OP05087</name><description>205287 OP.AAV
posicio de les: 04/08/2018 22:29:52</description><styleUrl>#w_verdP</styleUrl><Point><coordinates>1.15816712379456,41.147940158844,0</coordinates></Point></Placemark>
<Placemark><name>VIEL12</name><description>208012 P.PT VARAN
posicio de les: 04/08/2018 22:30:45</description><styleUrl>#w_grocP</styleUrl><Point><coordinates>0.796744823455811,42.7082133293152,0</coordinates></Point></Placemark>
<Placemark><name>VIEL17</name><description>208017 BASE CCA VARAN
posicio de les: 04/08/2018 22:29:54</description><styleUrl>#w_verd</styleUrl><Point><coordinates>0.796208381652832,42.7077412605286,0</coordinates></Point></Placemark>
<Placemark><name>BOSS01</name><description>208101 P.COMODIN VARAN
posicio de les: 04/08/2018 22:31:32</description><styleUrl>#w_verdP</styleUrl><Point><coordinates>0.69263219833374,42.7859115600586,0</coordinates></Point></Placemark>
<Placemark><name>E0REC</name><description>210012 P.Tec REGIÓ
posicio de les: 04/08/2018 22:30:37</description><styleUrl>#w_verdP</styleUrl><Point><coordinates>1.85160398483276,41.7415344715118,0</coordinates></Point></Placemark>
<Placemark><name>BER57</name><description>210357 PORT.COM BER (Centre)
posicio de les: 04/08/2018 22:29:54</description><styleUrl>#w_verdP</styleUrl><Point><coordinates>1.85786962509155,42.1031498908997,0</coordinates></Point></Placemark>
<Placemark><name>CAR07</name><description>210507 PORT CAR (Centre)
posicio de les: 04/08/2018 22:30:10</description><styleUrl>#w_grocP</styleUrl><Point><coordinates>1.86851263046265,41.625212430954,0</coordinates></Point></Placemark>
<Placemark><name>CAB56</name><description>210656 PORT.COM CAB (Centre)
posicio de les: 04/08/2018 22:30:54</description><styleUrl>#w_grocP</styleUrl><Point><coordinates>1.68522119522095,41.6657245159149,0</coordinates></Point></Placemark>
<Placemark><name>GUA56</name><description>210856 PORT.COM GUA (Centre)
posicio de les: 04/08/2018 22:30:57</description><styleUrl>#w_verdP</styleUrl><Point><coordinates>1.86970353126526,42.2195363044739,0</coordinates></Point></Placemark>
<Placemark><name>11040</name><description>211040 BUP MAN (Centre)
posicio de les: 04/08/2018 22:30:58</description><styleUrl>#w_grocC</styleUrl><Point><coordinates>1.86864137649536,41.6253089904785,0</coordinates></Point></Placemark>
<Placemark><name>MOI20</name><description>211120 PORT MOI (Centre)
posicio de les: 04/08/2018 22:30:53</description><styleUrl>#w_verdP</styleUrl><Point><coordinates>2.08653330802917,41.8118298053741,0</coordinates></Point></Placemark>
<Placemark><name>PRA07</name><description>211407 PORT PRA (Centre)
posicio de les: 04/08/2018 22:28:18</description><styleUrl>#w_verdP</styleUrl><Point><coordinates>2.03624725341797,42.0080387592316,0</coordinates></Point></Placemark>
<Placemark><name>PUIG01</name><description>211501 PORT PUIG (Centre)
posicio de les: 04/08/2018 22:28:52</description><styleUrl>#w_verdP</styleUrl><Point><coordinates>1.92152380943298,42.4205732345581,0</coordinates></Point></Placemark>
<Placemark><name>AMER57</name><description>220157 PORT.COM AMER (Girona)
posicio de les: 04/08/2018 22:31:20</description><styleUrl>#w_verdP</styleUrl><Point><coordinates>2.59381413459778,42.0116865634918,0</coordinates></Point></Placemark>
<Placemark><name>BANY07</name><description>220307 PORT BANY (Girona)
posicio de les: 04/08/2018 22:31:12</description><styleUrl>#w_verdP</styleUrl><Point><coordinates>2.78589248657227,42.1176981925964,0</coordinates></Point></Placemark>
<Placemark><name>20330</name><description>220330 BRP BANY (Girona)
posicio de les: 04/08/2018 22:31:44</description><styleUrl>#w_verdC</styleUrl><Point><coordinates>2.73424386978149,42.188572883606,0</coordinates></Point></Placemark>
<Placemark><name>20434</name><description>220434 BFP PERA (Girona)
posicio de les: 04/08/2018 22:27:18</description><styleUrl>#w_grocC</styleUrl><Point><coordinates>2.87150859832764,42.405971288681,0</coordinates></Point></Placemark>
<Placemark><name>CASS56</name><description>220856 PORT.COM CASS (Girona)
posicio de les: 04/08/2018 22:31:48</description><styleUrl>#w_grocP</styleUrl><Point><coordinates>2.88415789604187,41.8796467781067,0</coordinates></Point></Placemark>
<Placemark><name>FIGU 01</name><description>221001 PORT FIGU (Girona)
posicio de les: 04/08/2018 22:29:53</description><styleUrl>#w_verdP</styleUrl><Point><coordinates>2.87253856658936,42.4061965942383,0</coordinates></Point></Placemark>
<Placemark><name>21030</name><description>221030 BRP FIGU (Girona)
posicio de les: 04/08/2018 22:31:43</description><styleUrl>#w_verdC</styleUrl><Point><coordinates>2.98554539680481,42.2568511962891,0</coordinates></Point></Placemark>
<Placemark><name>21034</name><description>221034 BFP FIGU (Girona)
posicio de les: 04/08/2018 22:31:40</description><styleUrl>#w_grocC</styleUrl><Point><coordinates>2.87159442901611,42.4062931537628,0</coordinates></Point></Placemark>
<Placemark><name>21050</name><description>221050 FSV/FRQ/FER/FRM/FRA/FSA FIGU (Girona)
posicio de les: 04/08/2018 22:31:38</description><styleUrl>#w_verdC</styleUrl><Point><coordinates>2.9084587097168,42.2427535057068,0</coordinates></Point></Placemark>
<Placemark><name>FIGU56</name><description>221056 PORT.COM FIGU (Girona)
posicio de les: 04/08/2018 22:31:34</description><styleUrl>#w_verdP</styleUrl><Point><coordinates>2.98593163490295,42.2583210468292,0</coordinates></Point></Placemark>
<Placemark><name>GIRO08</name><description>221108 PORT GIRO (Girona)
posicio de les: 04/08/2018 22:31:07</description><styleUrl>#w_verdP</styleUrl><Point><coordinates>2.80636310577393,41.9598770141602,0</coordinates></Point></Placemark>
<Placemark><name>GIRO56</name><description>221156 PORT.COM GIRO (Girona)
posicio de les: 04/08/2018 22:29:44</description><styleUrl>#w_verdP</styleUrl><Point><coordinates>2.80657768249512,41.9599521160126,0</coordinates></Point></Placemark>
<Placemark><name>HOST02</name><description>221202 PORT HOST (Girona)
posicio de les: 04/08/2018 22:30:57</description><styleUrl>#w_grocP</styleUrl><Point><coordinates>2.62459516525269,41.7481112480164,0</coordinates></Point></Placemark>
<Placemark><name>HOST03</name><description>221203 PORT HOST (Girona)
posicio de les: 04/08/2018 22:30:30</description><styleUrl>#w_grocP</styleUrl><Point><coordinates>2.62444496154785,41.7481863498688,0</coordinates></Point></Placemark>
<Placemark><name>21230</name><description>221230 BRP HOST (Girona)
posicio de les: 04/08/2018 22:27:50</description><styleUrl>#w_grocC</styleUrl><Point><coordinates>2.62446641921997,41.7481756210327,0</coordinates></Point></Placemark>
<Placemark><name>HOST57</name><description>221257 PORT.COM HOST (Girona)
posicio de les: 04/08/2018 22:30:16</description><styleUrl>#w_verdP</styleUrl><Point><coordinates>2.62463808059692,41.7481005191803,0</coordinates></Point></Placemark>
<Placemark><name>JONQ03</name><description>221303 PORT JONQ (Girona)
posicio de les: 04/08/2018 22:30:22</description><styleUrl>#w_verdP</styleUrl><Point><coordinates>2.8764545917511,42.4118936061859,0</coordinates></Point></Placemark>
<Placemark><name>JONQ56</name><description>221356 PORT.COM JONQ (Girona)
posicio de les: 04/08/2018 22:27:14</description><styleUrl>#w_verdP</styleUrl><Point><coordinates>2.87397623062134,42.4060034751892,0</coordinates></Point></Placemark>
<Placemark><name>21434</name><description>221434 BFP LLAN (Girona)
posicio de les: 04/08/2018 22:31:21</description><styleUrl>#w_grocC</styleUrl><Point><coordinates>2.87153005599976,42.4060356616974,0</coordinates></Point></Placemark>
<Placemark><name>LLAN57</name><description>221457 PORT.COM LLAN (Girona)
posicio de les: 04/08/2018 22:28:46</description><styleUrl>#w_verdP</styleUrl><Point><coordinates>3.15260410308838,42.3576271533966,0</coordinates></Point></Placemark>
<Placemark><name>LLOR05</name><description>221505 PORT LLOR (Girona)
posicio de les: 04/08/2018 22:29:57</description><styleUrl>#w_verdP</styleUrl><Point><coordinates>2.83633947372437,41.6994774341583,0</coordinates></Point></Placemark>
<Placemark><name>21530</name><description>221530 BRP LLOR (Girona)
posicio de les: 04/08/2018 22:31:38</description><styleUrl>#w_verdC</styleUrl><Point><coordinates>2.83467650413513,41.6991019248962,0</coordinates></Point></Placemark>
<Placemark><name>221557</name><description>221557 PORT.COM LLOR (Girona)
posicio de les: 04/08/2018 22:31:16</description><styleUrl>#w_verdP</styleUrl><Point><coordinates>2.83308863639832,41.6981899738312,0</coordinates></Point></Placemark>
<Placemark><name>221560</name><description>221560 AEA/AES/ABA LLOR (Girona)
posicio de les: 04/08/2018 22:31:36</description><styleUrl>#w_verdC</styleUrl><Point><coordinates>2.83400058746338,41.6988551616669,0</coordinates></Point></Placemark>
<Placemark><name>21630</name><description>221630 BRP MACA (Girona)
posicio de les: 04/08/2018 22:28:45</description><styleUrl>#w_grocC</styleUrl><Point><coordinates>2.75314807891846,41.7794501781464,0</coordinates></Point></Placemark>
<Placemark><name>ORRI03</name><description>221711 PORT OLOT (Girona)
posicio de les: 04/08/2018 22:31:14</description><styleUrl>#w_verdP</styleUrl><Point><coordinates>2.87368655204773,42.4055099487305,0</coordinates></Point></Placemark>
<Placemark><name>OLOT56</name><description>221756 PORT.COM OLOT (Girona)
posicio de les: 04/08/2018 22:31:11</description><styleUrl>#w_verdP</styleUrl><Point><coordinates>2.47509956359863,42.1897745132446,0</coordinates></Point></Placemark>
<Placemark><name>PALA56</name><description>221856 PORT.COM PALA (Girona)
posicio de les: 04/08/2018 22:30:53</description><styleUrl>#w_grocP</styleUrl><Point><coordinates>3.15641283988953,41.9257056713104,0</coordinates></Point></Placemark>
<Placemark><name>PALA57</name><description>221857 PORT.COM PALA (Girona)
posicio de les: 04/08/2018 22:28:23</description><styleUrl>#w_verdP</styleUrl><Point><coordinates>3.15608024597168,41.9258236885071,0</coordinates></Point></Placemark>
<Placemark><name>RIPO03</name><description>222103 PORT RIPO (Girona)
posicio de les: 04/08/2018 22:31:46</description><styleUrl>#w_grocP</styleUrl><Point><coordinates>2.16825485229492,42.2149658203125,0</coordinates></Point></Placemark>
<Placemark><name>22130</name><description>222130 BRP RIPO (Girona)
posicio de les: 04/08/2018 22:27:32</description><styleUrl>#w_verdC</styleUrl><Point><coordinates>2.16771841049194,42.2150409221649,0</coordinates></Point></Placemark>
<Placemark><name>RIPO56</name><description>222156 PORT.COM RIPO (Girona)
posicio de les: 04/08/2018 22:30:21</description><styleUrl>#w_verdP</styleUrl><Point><coordinates>2.16869473457336,42.2145903110504,0</coordinates></Point></Placemark>
<Placemark><name>ROSE56</name><description>222256 PORT.COM ROSE (Girona)
posicio de les: 04/08/2018 22:28:16</description><styleUrl>#w_verdP</styleUrl><Point><coordinates>3.16090822219849,42.2763133049011,0</coordinates></Point></Placemark>
<Placemark><name>VALL07</name><description>222807 PORT VALL (Girona)
posicio de les: 04/08/2018 22:31:03</description><styleUrl>#w_grocP</styleUrl><Point><coordinates>3.0317223072052,41.8086755275726,0</coordinates></Point></Placemark>
<Placemark><name>VALL57</name><description>222857 PORT.COM VALL (Girona)
posicio de les: 04/08/2018 22:31:15</description><styleUrl>#w_verdP</styleUrl><Point><coordinates>3.03169012069702,41.8088150024414,0</coordinates></Point></Placemark>
<Placemark><name>I308</name><description>227308 P.GUAITA GUAITA
posicio de les: 04/08/2018 22:30:46</description><styleUrl>#w_verdP</styleUrl><Point><coordinates>3.15597295761108,41.925995349884,0</coordinates></Point></Placemark>
<Placemark><name>D9REG</name><description>228049  SERVEIS REGIÓ
posicio de les: 04/08/2018 22:31:23</description><styleUrl>#w_verd</styleUrl><Point><coordinates>2.80649185180664,41.9601881504059,0</coordinates></Point></Placemark>
<Placemark><name>D0REL</name><description>230010 P.CG REGIÓ
posicio de les: 04/08/2018 22:30:43</description><styleUrl>#w_verdP</styleUrl><Point><coordinates>0.604795217514038,41.6236352920532,0</coordinates></Point></Placemark>
<Placemark><name>FTREMP1</name><description>230073  REGIÓ
posicio de les: 04/08/2018 22:30:28</description><styleUrl>#w_verd</styleUrl><Point><coordinates>0.604645013809204,41.6236782073975,0</coordinates></Point></Placemark>
<Placemark><name>30091</name><description>230091  REGIÓ
posicio de les: 04/08/2018 22:31:11</description><styleUrl>#w_groc</styleUrl><Point><coordinates>0.605438947677612,41.6241180896759,0</coordinates></Point></Placemark>
<Placemark><name>30092</name><description>230092  REGIÓ
posicio de les: 04/08/2018 22:29:34</description><styleUrl>#w_verd</styleUrl><Point><coordinates>0.605342388153076,41.6233777999878,0</coordinates></Point></Placemark>
<Placemark><name>ALMA01</name><description>230301 PORT ALMA (Lleida)
posicio de les: 04/08/2018 22:30:02</description><styleUrl>#w_grocP</styleUrl><Point><coordinates>0.490500926971436,41.6982758045197,0</coordinates></Point></Placemark>
<Placemark><name>ALMA02</name><description>230302 PORT ALMA (Lleida)
posicio de les: 04/08/2018 22:30:27</description><styleUrl>#w_grocP</styleUrl><Point><coordinates>0.433681011199951,41.7318999767303,0</coordinates></Point></Placemark>
<Placemark><name>30330</name><description>230330 BRP ALMA (Lleida)
posicio de les: 04/08/2018 22:29:17</description><styleUrl>#w_grocC</styleUrl><Point><coordinates>0.490543842315674,41.6982221603394,0</coordinates></Point></Placemark>
<Placemark><name>230356</name><description>230356 PORT.COM ALMA (Lleida)
posicio de les: 04/08/2018 22:30:17</description><styleUrl>#w_grocP</styleUrl><Point><coordinates>0.490565299987793,41.6982221603394,0</coordinates></Point></Placemark>
<Placemark><name>ALME01</name><description>230401 PORT ALME (Lleida)
posicio de les: 04/08/2018 22:31:21</description><styleUrl>#w_grocP</styleUrl><Point><coordinates>0.569229125976563,41.7923891544342,0</coordinates></Point></Placemark>
<Placemark><name>BORG05</name><description>230705 PORT BORG (Lleida)
posicio de les: 04/08/2018 22:30:45</description><styleUrl>#w_grocP</styleUrl><Point><coordinates>0.844831466674805,41.5074634552002,0</coordinates></Point></Placemark>
<Placemark><name>BORG06</name><description>230706 PORT BORG (Lleida)
posicio de les: 04/08/2018 22:30:03</description><styleUrl>#w_grocP</styleUrl><Point><coordinates>0.844917297363281,41.5072703361511,0</coordinates></Point></Placemark>
<Placemark><name>GUIS05</name><description>231405 PORT GUIS (Lleida)
posicio de les: 04/08/2018 22:31:27</description><styleUrl>#w_grocP</styleUrl><Point><coordinates>1.28307223320007,41.7823898792267,0</coordinates></Point></Placemark>
<Placemark><name>31430</name><description>231430 BRP GUIS (Lleida)
posicio de les: 04/08/2018 22:27:11</description><styleUrl>#w_grocC</styleUrl><Point><coordinates>1.28306150436401,41.7821538448334,0</coordinates></Point></Placemark>
<Placemark><name>LLEI13</name><description>231913 PORT LLEI (Lleida)
posicio de les: 04/08/2018 22:29:46</description><styleUrl>#w_verdP</styleUrl><Point><coordinates>0.606318712234497,41.6237854957581,0</coordinates></Point></Placemark>
<Placemark><name>MOLL07</name><description>232007 PORT MOLL (Lleida)
posicio de les: 04/08/2018 22:30:20</description><styleUrl>#w_verdP</styleUrl><Point><coordinates>0.898325443267822,41.6369712352753,0</coordinates></Point></Placemark>
<Placemark><name>MOLL56</name><description>232056 PORT.COM MOLL (Lleida)
posicio de les: 04/08/2018 22:30:20</description><styleUrl>#w_verdP</styleUrl><Point><coordinates>0.898475646972656,41.6364240646362,0</coordinates></Point></Placemark>
<Placemark><name>32090</name><description>232090 UPC MOLL (Lleida)
posicio de les: 04/08/2018 22:28:18</description><styleUrl>#w_groc</styleUrl><Point><coordinates>0.898261070251465,41.6364991664886,0</coordinates></Point></Placemark>
<Placemark><name>OLIA01</name><description>232201 PORT OLIA (Lleida)
posicio de les: 04/08/2018 22:30:58</description><styleUrl>#w_grocP</styleUrl><Point><coordinates>1.30789875984192,42.07475066185,0</coordinates></Point></Placemark>
<Placemark><name>32230</name><description>232230 BRP OLIA (Lleida)
posicio de les: 04/08/2018 22:27:38</description><styleUrl>#w_verdC</styleUrl><Point><coordinates>1.30809187889099,42.0748579502106,0</coordinates></Point></Placemark>
<Placemark><name>OLIA56</name><description>232256 PORT.COM OLIA (Lleida)
posicio de les: 04/08/2018 22:31:40</description><styleUrl>#w_grocP</styleUrl><Point><coordinates>1.31577372550964,42.0694935321808,0</coordinates></Point></Placemark>
<Placemark><name>POBL01</name><description>232401 PORT POBL (Lleida)
posicio de les: 04/08/2018 22:29:11</description><styleUrl>#w_verdP</styleUrl><Point><coordinates>0.963835716247559,42.2392559051514,0</coordinates></Point></Placemark>
<Placemark><name>PONT56</name><description>232556 PORT.COM PONT (Lleida)
posicio de les: 04/08/2018 22:30:31</description><styleUrl>#w_grocP</styleUrl><Point><coordinates>0.739774703979492,42.4104988574982,0</coordinates></Point></Placemark>
<Placemark><name>32630</name><description>232630 BRP PONS (Lleida)
posicio de les: 04/08/2018 22:28:23</description><styleUrl>#w_grocC</styleUrl><Point><coordinates>1.1754298210144,41.8751084804535,0</coordinates></Point></Placemark>
<Placemark><name>PONS56</name><description>232656 PORT.COM PONS (Lleida)
posicio de les: 04/08/2018 22:29:36</description><styleUrl>#w_grocP</styleUrl><Point><coordinates>1.17488265037537,41.8755483627319,0</coordinates></Point></Placemark>
<Placemark><name>SEU09</name><description>232909 PORT SEU (Lleida)
posicio de les: 04/08/2018 22:30:30</description><styleUrl>#w_verdP</styleUrl><Point><coordinates>1.47186756134033,42.3605453968048,0</coordinates></Point></Placemark>
<Placemark><name>TREM10</name><description>233310 PORT TREM (Lleida)
posicio de les: 04/08/2018 22:30:22</description><styleUrl>#w_grocP</styleUrl><Point><coordinates>0.889216661453247,42.1646475791931,0</coordinates></Point></Placemark>
<Placemark><name>REMN11</name><description>240011 P.Tec REGIÓ
posicio de les: 04/08/2018 22:30:34</description><styleUrl>#w_grocP</styleUrl><Point><coordinates>2.11100578308105,41.5028178691864,0</coordinates></Point></Placemark>
<Placemark><name>D00REMN</name><description>240018 P.Tec REGIÓ
posicio de les: 04/08/2018 22:30:59</description><styleUrl>#w_grocP</styleUrl><Point><coordinates>2.11127400398254,41.5030753612518,0</coordinates></Point></Placemark>
<Placemark><name>40081</name><description>240081  REGIÓ
posicio de les: 04/08/2018 22:26:53</description><styleUrl>#w_groc</styleUrl><Point><coordinates>2.11263656616211,41.5023994445801,0</coordinates></Point></Placemark>
<Placemark><name>40091</name><description>240091  REGIÓ
posicio de les: 04/08/2018 22:27:27</description><styleUrl>#w_groc</styleUrl><Point><coordinates>2.11289405822754,41.5040624141693,0</coordinates></Point></Placemark>
<Placemark><name>40290</name><description>240290 UPC BAD (Metro. Nord)
posicio de les: 04/08/2018 22:31:04</description><styleUrl>#w_groc</styleUrl><Point><coordinates>2.034991979599,41.4735817909241,0</coordinates></Point></Placemark>
<Placemark><name>CER03</name><description>240503 PORT CER (Metro. Nord)
posicio de les: 04/08/2018 22:30:36</description><styleUrl>#w_verdP</styleUrl><Point><coordinates>2.11017966270447,41.5026247501373,0</coordinates></Point></Placemark>
<Placemark><name>GRA05</name><description>240605 PORT GRA (Metro. Nord)
posicio de les: 04/08/2018 22:28:18</description><styleUrl>#w_verdP</styleUrl><Point><coordinates>2.27522134780884,41.5905261039734,0</coordinates></Point></Placemark>
<Placemark><name>GRA07</name><description>240607 PORT GRA (Metro. Nord)
posicio de les: 04/08/2018 22:28:56</description><styleUrl>#w_verdP</styleUrl><Point><coordinates>2.2745668888092,41.5908372402191,0</coordinates></Point></Placemark>
<Placemark><name>CMGRA15</name><description>240615 PORT GRA (Metro. Nord)
posicio de les: 04/08/2018 22:30:54</description><styleUrl>#w_verdP</styleUrl><Point><coordinates>2.27524280548096,41.5900218486786,0</coordinates></Point></Placemark>
<Placemark><name>40690</name><description>240690 UPC GRA (Metro. Nord)
posicio de les: 04/08/2018 22:31:36</description><styleUrl>#w_verd</styleUrl><Point><coordinates>2.28438377380371,41.5906655788422,0</coordinates></Point></Placemark>
<Placemark><name>MOL03</name><description>241003 PORT MOL (Metro. Nord)
posicio de les: 04/08/2018 22:30:09</description><styleUrl>#w_verdP</styleUrl><Point><coordinates>2.20123529434204,41.5370428562164,0</coordinates></Point></Placemark>
<Placemark><name>MOL04</name><description>241004 PORT MOL (Metro. Nord)
posicio de les: 04/08/2018 22:28:25</description><styleUrl>#w_verdP</styleUrl><Point><coordinates>2.20161080360413,41.5365278720856,0</coordinates></Point></Placemark>
<Placemark><name>41034</name><description>241034 BFP MOL (Metro. Nord)
posicio de les: 04/08/2018 22:30:48</description><styleUrl>#w_verdC</styleUrl><Point><coordinates>2.20241546630859,41.5370321273804,0</coordinates></Point></Placemark>
<Placemark><name>241040</name><description>241040 BUP MOL (Metro. Nord)
posicio de les: 04/08/2018 22:27:45</description><styleUrl>#w_grocC</styleUrl><Point><coordinates>2.20198631286621,41.5373432636261,0</coordinates></Point></Placemark>
<Placemark><name>241048</name><description>241048 BUL MOL (Metro. Nord)
posicio de les: 04/08/2018 22:31:25</description><styleUrl>#w_grocC</styleUrl><Point><coordinates>2.20206141471863,41.5368497371674,0</coordinates></Point></Placemark>
<Placemark><name>MFI01</name><description>241101 PORT MFI (Metro. Nord)
posicio de les: 04/08/2018 22:30:49</description><styleUrl>#w_verdP</styleUrl><Point><coordinates>2.27169156074524,41.7162144184113,0</coordinates></Point></Placemark>
<Placemark><name>SAB01</name><description>241401 PORT SAB (Metro. Nord)
posicio de les: 04/08/2018 22:30:52</description><styleUrl>#w_verdP</styleUrl><Point><coordinates>2.10404276847839,41.5423214435577,0</coordinates></Point></Placemark>
<Placemark><name>SAB06</name><description>241406 PORT SAB (Metro. Nord)
posicio de les: 04/08/2018 22:25:52</description><styleUrl>#w_verdP</styleUrl><Point><coordinates>2.10428953170776,41.5423214435577,0</coordinates></Point></Placemark>
<Placemark><name>41448</name><description>241448 BUL SAB (Metro. Nord)
posicio de les: 04/08/2018 22:30:21</description><styleUrl>#w_verdC</styleUrl><Point><coordinates>2.10474014282227,41.541645526886,0</coordinates></Point></Placemark>
<Placemark><name>SAB56</name><description>241456 PORT.COM SAB (Metro. Nord)
posicio de les: 04/08/2018 22:27:16</description><styleUrl>#w_verdP</styleUrl><Point><coordinates>2.10439682006836,41.5424180030823,0</coordinates></Point></Placemark>
<Placemark><name>SCE07</name><description>241607 PORT SCE (Metro. Nord)
posicio de les: 04/08/2018 22:30:14</description><styleUrl>#w_grocP</styleUrl><Point><coordinates>2.50711441040039,41.6952073574066,0</coordinates></Point></Placemark>
<Placemark><name>SCE08</name><description>241608 PORT SCE (Metro. Nord)
posicio de les: 04/08/2018 22:30:05</description><styleUrl>#w_grocP</styleUrl><Point><coordinates>2.50715732574463,41.6947889328003,0</coordinates></Point></Placemark>
<Placemark><name>SCG07</name><description>241807 PORT SCG (Metro. Nord)
posicio de les: 04/08/2018 22:28:25</description><styleUrl>#w_verdP</styleUrl><Point><coordinates>2.20942139625549,41.4631748199463,0</coordinates></Point></Placemark>
<Placemark><name>TER11</name><description>242011 PORT TER (Metro. Nord)
posicio de les: 04/08/2018 22:30:39</description><styleUrl>#w_verdP</styleUrl><Point><coordinates>2.02661275863647,41.5681779384613,0</coordinates></Point></Placemark>
<Placemark><name>TER56</name><description>242056 PORT.COM TER (Metro. Nord)
posicio de les: 04/08/2018 22:30:06</description><styleUrl>#w_verdP</styleUrl><Point><coordinates>2.02638745307922,41.5682744979858,0</coordinates></Point></Placemark>
<Placemark><name>50093</name><description>250093  REGIÓ
posicio de les: 04/08/2018 22:30:39</description><styleUrl>#w_verd</styleUrl><Point><coordinates>2.10003018379211,41.38028383255,0</coordinates></Point></Placemark>
<Placemark><name>50430</name><description>250430 BRP COR (Metro. Sud)
posicio de les: 04/08/2018 22:28:35</description><styleUrl>#w_verdC</styleUrl><Point><coordinates>2.0705258846283,41.3604998588562,0</coordinates></Point></Placemark>
<Placemark><name>COR56</name><description>250456 PORT.COM COR (Metro. Sud)
posicio de les: 04/08/2018 22:29:02</description><styleUrl>#w_verdP</styleUrl><Point><coordinates>2.07056879997253,41.3600277900696,0</coordinates></Point></Placemark>
<Placemark><name>50490</name><description>250490 UPC COR (Metro. Sud)
posicio de les: 04/08/2018 22:27:45</description><styleUrl>#w_groc</styleUrl><Point><coordinates>2.07025766372681,41.3625812530518,0</coordinates></Point></Placemark>
<Placemark><name>GAV02</name><description>250502 PORT GAV (Metro. Sud)
posicio de les: 04/08/2018 22:31:34</description><styleUrl>#w_verdP</styleUrl><Point><coordinates>1.99702262878418,41.2936055660248,0</coordinates></Point></Placemark>
<Placemark><name>50530</name><description>250530 BRP GAV (Metro. Sud)
posicio de les: 04/08/2018 22:31:41</description><styleUrl>#w_verdC</styleUrl><Point><coordinates>1.99807405471802,41.2943351268768,0</coordinates></Point></Placemark>
<Placemark><name>GAV56</name><description>250556 PORT.COM GAV (Metro. Sud)
posicio de les: 04/08/2018 22:31:19</description><styleUrl>#w_verdP</styleUrl><Point><coordinates>1.99046730995178,41.3003861904144,0</coordinates></Point></Placemark>
<Placemark><name>HOS02</name><description>250702 PORT HOS (Metro. Sud)
posicio de les: 04/08/2018 22:27:01</description><styleUrl>#w_verdP</styleUrl><Point><coordinates>2.10271239280701,41.3695764541626,0</coordinates></Point></Placemark>
<Placemark><name>HOS06</name><description>250706 PORT HOS (Metro. Sud)
posicio de les: 04/08/2018 22:31:01</description><styleUrl>#w_grocP</styleUrl><Point><coordinates>2.10599541664124,41.3698661327362,0</coordinates></Point></Placemark>
<Placemark><name>HOS14</name><description>250714 PORT HOS (Metro. Sud)
posicio de les: 04/08/2018 22:30:45</description><styleUrl>#w_verdP</styleUrl><Point><coordinates>2.10603833198547,41.3699841499329,0</coordinates></Point></Placemark>
<Placemark><name>250748</name><description>250748 BUL HOS (Metro. Sud)
posicio de les: 04/08/2018 22:28:30</description><styleUrl>#w_verdC</styleUrl><Point><coordinates>2.10673570632935,41.3699734210968,0</coordinates></Point></Placemark>
<Placemark><name>HOS56</name><description>250756 PORT.COM HOS (Metro. Sud)
posicio de les: 04/08/2018 22:31:06</description><styleUrl>#w_verdP</styleUrl><Point><coordinates>2.10631728172302,41.370005607605,0</coordinates></Point></Placemark>
<Placemark><name>50790</name><description>250790 UPC HOS (Metro. Sud)
posicio de les: 04/08/2018 22:29:42</description><styleUrl>#w_groc</styleUrl><Point><coordinates>2.10554480552673,41.3699734210968,0</coordinates></Point></Placemark>
<Placemark><name>IGU07</name><description>250807 PORT IGU (Metro. Sud)
posicio de les: 04/08/2018 22:31:37</description><styleUrl>#w_verdP</styleUrl><Point><coordinates>1.61066651344299,41.588648557663,0</coordinates></Point></Placemark>
<Placemark><name>MAR57</name><description>251057 PORT.COM MAR (Metro. Sud)
posicio de les: 04/08/2018 22:29:51</description><styleUrl>#w_verdP</styleUrl><Point><coordinates>1.90797328948975,41.4985907077789,0</coordinates></Point></Placemark>
<Placemark><name>PLL06</name><description>251206 PORT PLL (Metro. Sud)
posicio de les: 04/08/2018 22:30:21</description><styleUrl>#w_verdP</styleUrl><Point><coordinates>2.08138346672058,41.3175415992737,0</coordinates></Point></Placemark>
<Placemark><name>SBOI57</name><description>251357 PORT.COM SBOI (Metro. Sud)
posicio de les: 04/08/2018 22:29:51</description><styleUrl>#w_verdP</styleUrl><Point><coordinates>2.03431606292725,41.3229060173035,0</coordinates></Point></Placemark>
<Placemark><name>SFE02</name><description>251502 PORT SFE (Metro. Sud)
posicio de les: 04/08/2018 22:26:44</description><styleUrl>#w_verdP</styleUrl><Point><coordinates>2.04282402992249,41.3887596130371,0</coordinates></Point></Placemark>
<Placemark><name>SFE57</name><description>251557 PORT.COM SFE (Metro. Sud)
posicio de les: 04/08/2018 22:29:51</description><styleUrl>#w_grocP</styleUrl><Point><coordinates>2.04308152198792,41.3884592056274,0</coordinates></Point></Placemark>
<Placemark><name>VIF09</name><description>251809 PORT VIF (Metro. Sud)
posicio de les: 04/08/2018 22:31:35</description><styleUrl>#w_verdP</styleUrl><Point><coordinates>1.70393228530884,41.3550710678101,0</coordinates></Point></Placemark>
<Placemark><name>251840</name><description>251840 BUP VIF (Metro. Sud)
posicio de les: 04/08/2018 22:31:48</description><styleUrl>#w_verdC</styleUrl><Point><coordinates>1.71708583831787,41.3513481616974,0</coordinates></Point></Placemark>
<Placemark><name>51948</name><description>251948 BUL VIL (Metro. Sud)
posicio de les: 04/08/2018 22:26:50</description><styleUrl>#w_verdC</styleUrl><Point><coordinates>1.73169851303101,41.2241148948669,0</coordinates></Point></Placemark>
<Placemark><name>D2REMS</name><description>258042  SERVEIS REGIÓ
posicio de les: 04/08/2018 22:30:52</description><styleUrl>#w_verd</styleUrl><Point><coordinates>2.03434824943542,41.3223159313202,0</coordinates></Point></Placemark>
<Placemark><name>RET12</name><description>260012 P.Tec REGIÓ
posicio de les: 04/08/2018 22:29:17</description><styleUrl>#w_verdP</styleUrl><Point><coordinates>1.18539690971375,41.134260892868,0</coordinates></Point></Placemark>
<Placemark><name>GE0RET</name><description>260013 P.Tec REGIÓ
posicio de les: 04/08/2018 22:28:54</description><styleUrl>#w_verdP</styleUrl><Point><coordinates>1.18479609489441,41.1345827579498,0</coordinates></Point></Placemark>
<Placemark><name>GE600</name><description>260017 P.Tec REGIÓ
posicio de les: 04/08/2018 22:30:37</description><styleUrl>#w_verdP</styleUrl><Point><coordinates>1.18602991104126,41.1343145370483,0</coordinates></Point></Placemark>
<Placemark><name>CAMB06</name><description>260206 PORT CAMB (Tarragona)
posicio de les: 04/08/2018 22:30:06</description><styleUrl>#w_grocP</styleUrl><Point><coordinates>1.04057908058167,41.0767114162445,0</coordinates></Point></Placemark>
<Placemark><name>60240</name><description>260240 BUP CAMB (Tarragona)
posicio de les: 04/08/2018 22:31:49</description><styleUrl>#w_verdC</styleUrl><Point><coordinates>1.05971932411194,41.0850262641907,0</coordinates></Point></Placemark>
<Placemark><name>FALS06</name><description>260406 PORT FALS (Tarragona)
posicio de les: 04/08/2018 22:29:07</description><styleUrl>#w_verdP</styleUrl><Point><coordinates>0.823706388473511,41.1475002765656,0</coordinates></Point></Placemark>
<Placemark><name>260508</name><description>260508 PORT HOSP (Tarragona)
posicio de les: 04/08/2018 22:30:50</description><styleUrl>#w_verdP</styleUrl><Point><coordinates>0.919954776763916,40.9937989711761,0</coordinates></Point></Placemark>
<Placemark><name>REUS03</name><description>260803 PORT REUS (Tarragona)
posicio de les: 04/08/2018 22:31:50</description><styleUrl>#w_verdP</styleUrl><Point><coordinates>1.11827731132507,41.1512982845306,0</coordinates></Point></Placemark>
<Placemark><name>REUS12</name><description>260812 PORT REUS (Tarragona)
posicio de les: 04/08/2018 22:31:34</description><styleUrl>#w_verdP</styleUrl><Point><coordinates>1.11856698989868,41.1503648757935,0</coordinates></Point></Placemark>
<Placemark><name>60840</name><description>260840 BUP REUS (Tarragona)
posicio de les: 04/08/2018 22:31:44</description><styleUrl>#w_verdC</styleUrl><Point><coordinates>1.12231135368347,41.1279737949371,0</coordinates></Point></Placemark>
<Placemark><name>REUS56</name><description>260856 PORT.COM REUS (Tarragona)
posicio de les: 04/08/2018 22:28:53</description><styleUrl>#w_verdP</styleUrl><Point><coordinates>1.11814856529236,41.1514484882355,0</coordinates></Point></Placemark>
<Placemark><name>60890</name><description>260890 UPC REUS (Tarragona)
posicio de les: 04/08/2018 22:26:49</description><styleUrl>#w_verd</styleUrl><Point><coordinates>1.11833095550537,41.1512446403503,0</coordinates></Point></Placemark>
<Placemark><name>61230</name><description>261230 BRP TARR (Tarragona)
posicio de les: 04/08/2018 22:30:58</description><styleUrl>#w_verdC</styleUrl><Point><coordinates>1.13590478897095,41.1470067501068,0</coordinates></Point></Placemark>
<Placemark><name>VEND03</name><description>261403 PORT VEND (Tarragona)
posicio de les: 04/08/2018 22:28:14</description><styleUrl>#w_verdP</styleUrl><Point><coordinates>1.54135823249817,41.2218081951141,0</coordinates></Point></Placemark>
<Placemark><name>VEND10</name><description>261410 PORT VEND (Tarragona)
posicio de les: 04/08/2018 22:30:48</description><styleUrl>#w_verdP</styleUrl><Point><coordinates>1.5411114692688,41.2228810787201,0</coordinates></Point></Placemark>
<Placemark><name>61434</name><description>261434 BFP VEND (Tarragona)
posicio de les: 04/08/2018 22:27:50</description><styleUrl>#w_verdC</styleUrl><Point><coordinates>1.54143333435059,41.2229132652283,0</coordinates></Point></Placemark>
<Placemark><name>E00RETE</name><description>270014 P.Tec REGIÓ
posicio de les: 04/08/2018 22:28:09</description><styleUrl>#w_verdP</styleUrl><Point><coordinates>0.513460636138916,40.8196592330933,0</coordinates></Point></Placemark>
<Placemark><name>AMET06</name><description>272006 PORT AMET (Terres de l'Ebre)
posicio de les: 04/08/2018 22:28:46</description><styleUrl>#w_verdP</styleUrl><Point><coordinates>0.797603130340576,40.890394449234,0</coordinates></Point></Placemark>
<Placemark><name>AMPO56</name><description>272156 PORT.COM AMPO (Terres de l'Ebre)
posicio de les: 04/08/2018 22:30:58</description><styleUrl>#w_verdP</styleUrl><Point><coordinates>0.579314231872559,40.6896150112152,0</coordinates></Point></Placemark>
<Placemark><name>ASCO56</name><description>272256 PORT.COM ASCO (Terres de l'Ebre)
posicio de les: 04/08/2018 22:28:58</description><styleUrl>#w_verdP</styleUrl><Point><coordinates>0.569003820419312,41.1879694461823,0</coordinates></Point></Placemark>
<Placemark><name>72630</name><description>272630 BRP GAND (Terres de l'Ebre)
posicio de les: 04/08/2018 22:26:48</description><styleUrl>#w_verdC</styleUrl><Point><coordinates>0.440000295639038,41.058075428009,0</coordinates></Point></Placemark>
<Placemark><name>MORA57</name><description>272857 PORT.COM MORA (Terres de l'Ebre)
posicio de les: 04/08/2018 22:31:10</description><styleUrl>#w_verdP</styleUrl><Point><coordinates>0.629578828811646,41.0864317417145,0</coordinates></Point></Placemark>
<Placemark><name>TORT05</name><description>273005 PORT TORT (Terres de l'Ebre)
posicio de les: 04/08/2018 22:30:57</description><styleUrl>#w_grocP</styleUrl><Point><coordinates>0.513643026351929,40.819605588913,0</coordinates></Point></Placemark>
<Placemark><name>ULLD08</name><description>273108 PORT ULLD (Terres de l'Ebre)
posicio de les: 04/08/2018 22:30:20</description><styleUrl>#w_grocP</styleUrl><Point><coordinates>0.358461141586304,40.6086230278015,0</coordinates></Point></Placemark>
</Folder>
<Folder>
<name>Descarregues</name>
</Folder>
<Style id="w_verdP_n"><IconStyle><color>ff00ff00</color><scale>1.0</scale><Icon><href>http://maps.google.com/mapfiles/kml/shapes/man.png</href></Icon><hotSpot x="0.5" y="0" xunits="fraction" yunits="fraction"/></IconStyle><LabelStyle><scale>0.7</scale></LabelStyle></Style>
<Style id="w_verdP_s"><IconStyle><color>ff00ff00</color><scale>1.4</scale><Icon><href>http://maps.google.com/mapfiles/kml/shapes/man.png</href></Icon><hotSpot x="0.5" y="0" xunits="fraction" yunits="fraction"/></IconStyle><LabelStyle><scale>0.7</scale></LabelStyle></Style>
<StyleMap id="w_verdP"><Pair><key>normal</key><styleUrl>#w_verdP_n</styleUrl></Pair><Pair><key>highlight</key><styleUrl>#w_verdP_s</styleUrl></Pair></StyleMap>
<Style id="w_verd_n"><IconStyle><color>ff00ff00</color><scale>0.7</scale><Icon><href>http://maps.google.com/mapfiles/kml/shapes/cabs.png</href></Icon><hotSpot x="0.5" y="0" xunits="fraction" yunits="fraction"/></IconStyle><LabelStyle><scale>0.7</scale></LabelStyle></Style>
<Style id="w_verd_s"><IconStyle><color>ff00ff00</color><scale>1.0</scale><Icon><href>http://maps.google.com/mapfiles/kml/shapes/cabs.png</href></Icon><hotSpot x="0.5" y="0" xunits="fraction" yunits="fraction"/></IconStyle><LabelStyle><scale>0.7</scale></LabelStyle></Style>
<StyleMap id="w_verd"><Pair><key>normal</key><styleUrl>#w_verd_n</styleUrl></Pair><Pair><key>highlight</key><styleUrl>#w_verd_s</styleUrl></Pair></StyleMap>
<Style id="w_verdC_n"><IconStyle><color>ff00ff00</color><scale>1.0</scale><Icon><href>http://maps.google.com/mapfiles/kml/shapes/truck.png</href></Icon><hotSpot x="0.5" y="0" xunits="fraction" yunits="fraction"/></IconStyle><LabelStyle><scale>0.7</scale></LabelStyle></Style>
<Style id="w_verdC_s"><IconStyle><color>ff00ff00</color><scale>1.4</scale><Icon><href>http://maps.google.com/mapfiles/kml/shapes/truck.png</href></Icon><hotSpot x="0.5" y="0" xunits="fraction" yunits="fraction"/></IconStyle><LabelStyle><scale>0.7</scale></LabelStyle></Style>
<StyleMap id="w_verdC"><Pair><key>normal</key><styleUrl>#w_verdC_n</styleUrl></Pair><Pair><key>highlight</key><styleUrl>#w_verdC_s</styleUrl></Pair></StyleMap>
<Style id="w_verdH_n"><IconStyle><color>ff0000ff</color><scale>1.2</scale><Icon><href>http://maps.google.com/mapfiles/kml/shapes/heliport.png</href></Icon><hotSpot x="0.5" y="0" xunits="fraction" yunits="fraction"/></IconStyle><LabelStyle><scale>0.7</scale></LabelStyle></Style>
<Style id="w_verdH_s"><IconStyle><color>ff0000ff</color><scale>1.4</scale><Icon><href>http://maps.google.com/mapfiles/kml/shapes/heliport.png</href></Icon><hotSpot x="0.5" y="0" xunits="fraction" yunits="fraction"/></IconStyle><LabelStyle><scale>0.7</scale></LabelStyle></Style>
<StyleMap id="w_verdH"><Pair><key>normal</key><styleUrl>#w_verdH_n</styleUrl></Pair><Pair><key>highlight</key><styleUrl>#w_verdH_s</styleUrl></Pair></StyleMap>
<Style id="w_verdA_n"><IconStyle><color>ff0000ff</color><scale>1.2</scale><Icon><href>http://maps.google.com/mapfiles/kml/shapes/airports.png</href></Icon><hotSpot x="0.5" y="0" xunits="fraction" yunits="fraction"/></IconStyle><LabelStyle><scale>0.7</scale></LabelStyle></Style>
<Style id="w_verdA_s"><IconStyle><color>ff0000ff</color><scale>1.4</scale><Icon><href>http://maps.google.com/mapfiles/kml/shapes/airports.png</href></Icon><hotSpot x="0.5" y="0" xunits="fraction" yunits="fraction"/></IconStyle><LabelStyle><scale>0.7</scale></LabelStyle></Style>
<StyleMap id="w_verdA"><Pair><key>normal</key><styleUrl>#w_verdA_n</styleUrl></Pair><Pair><key>highlight</key><styleUrl>#w_verdA_s</styleUrl></Pair></StyleMap>
<Style id="w_verdB_n"><IconStyle><color>ff00ff00</color><scale>1.0</scale><Icon><href>http://maps.google.com/mapfiles/kml/shapes/sailing.png</href></Icon><hotSpot x="0.5" y="0" xunits="fraction" yunits="fraction"/></IconStyle><LabelStyle><scale>0.7</scale></LabelStyle></Style>
<Style id="w_verdB_s"><IconStyle><color>ff00ff00</color><scale>1.4</scale><Icon><href>http://maps.google.com/mapfiles/kml/shapes/sailing.png</href></Icon><hotSpot x="0.5" y="0" xunits="fraction" yunits="fraction"/></IconStyle><LabelStyle><scale>0.7</scale></LabelStyle></Style>
<StyleMap id="w_verdB"><Pair><key>normal</key><styleUrl>#w_verdBAR_n</styleUrl></Pair><Pair><key>highlight</key><styleUrl>#w_verdBAR_s</styleUrl></Pair></StyleMap>
<Style id="w_grocP_n"><IconStyle><color>ff00ffff</color><scale>1.0</scale><Icon><href>http://maps.google.com/mapfiles/kml/shapes/man.png</href></Icon><hotSpot x="0.5" y="0" xunits="fraction" yunits="fraction"/></IconStyle><LabelStyle><scale>0.7</scale></LabelStyle></Style>
<Style id="w_grocP_s"><IconStyle><color>ff00ffff</color><scale>1.4</scale><Icon><href>http://maps.google.com/mapfiles/kml/shapes/man.png</href></Icon><hotSpot x="0.5" y="0" xunits="fraction" yunits="fraction"/></IconStyle><LabelStyle><scale>0.7</scale></LabelStyle></Style>
<StyleMap id="w_grocP"><Pair><key>normal</key><styleUrl>#w_grocP_n</styleUrl></Pair><Pair><key>highlight</key><styleUrl>#w_grocP_s</styleUrl></Pair></StyleMap>
<Style id="w_groc_n"><IconStyle><color>ff00ffff</color><scale>0.7</scale><Icon><href>http://maps.google.com/mapfiles/kml/shapes/cabs.png</href></Icon><hotSpot x="0.5" y="0" xunits="fraction" yunits="fraction"/></IconStyle><LabelStyle><scale>0.7</scale></LabelStyle></Style>
<Style id="w_groc_s"><IconStyle><color>ff00ffff</color><scale>1.0</scale><Icon><href>http://maps.google.com/mapfiles/kml/shapes/cabs.png</href></Icon><hotSpot x="0.5" y="0" xunits="fraction" yunits="fraction"/></IconStyle><LabelStyle><scale>0.7</scale></LabelStyle></Style>
<StyleMap id="w_groc"><Pair><key>normal</key><styleUrl>#w_groc_n</styleUrl></Pair><Pair><key>highlight</key><styleUrl>#w_groc_s</styleUrl></Pair></StyleMap>
<Style id="w_grocC_n"><IconStyle><color>ff00ffff</color><scale>1.0</scale><Icon><href>http://maps.google.com/mapfiles/kml/shapes/truck.png</href></Icon><hotSpot x="0.5" y="0" xunits="fraction" yunits="fraction"/></IconStyle><LabelStyle><scale>0.7</scale></LabelStyle></Style>
<Style id="w_grocC_s"><IconStyle><color>ff00ffff</color><scale>1.4</scale><Icon><href>http://maps.google.com/mapfiles/kml/shapes/truck.png</href></Icon><hotSpot x="0.5" y="0" xunits="fraction" yunits="fraction"/></IconStyle><LabelStyle><scale>0.7</scale></LabelStyle></Style>
<StyleMap id="w_grocC"><Pair><key>normal</key><styleUrl>#w_grocC_n</styleUrl></Pair><Pair><key>highlight</key><styleUrl>#w_grocC_s</styleUrl></Pair></StyleMap>
<Style id="w_grocH_n"><IconStyle><color>ff0000ff</color><scale>1.2</scale><Icon><href>http://maps.google.com/mapfiles/kml/shapes/heliport.png</href></Icon><hotSpot x="0.5" y="0" xunits="fraction" yunits="fraction"/></IconStyle><LabelStyle><scale>0.7</scale></LabelStyle></Style>
<Style id="w_grocH_s"><IconStyle><color>ff0000ff</color><scale>1.4</scale><Icon><href>http://maps.google.com/mapfiles/kml/shapes/heliport.png</href></Icon><hotSpot x="0.5" y="0" xunits="fraction" yunits="fraction"/></IconStyle><LabelStyle><scale>0.7</scale></LabelStyle></Style>
<StyleMap id="w_grocH"><Pair><key>normal</key><styleUrl>#w_grocH_n</styleUrl></Pair><Pair><key>highlight</key><styleUrl>#w_grocH_s</styleUrl></Pair></StyleMap>
<Style id="w_grocA_n"><IconStyle><color>ff0000ff</color><scale>1.2</scale><Icon><href>http://maps.google.com/mapfiles/kml/shapes/airports.png</href></Icon><hotSpot x="0.5" y="0" xunits="fraction" yunits="fraction"/></IconStyle><LabelStyle><scale>0.7</scale></LabelStyle></Style>
<Style id="w_grocA_s"><IconStyle><color>ff0000ff</color><scale>1.4</scale><Icon><href>http://maps.google.com/mapfiles/kml/shapes/airports.png</href></Icon><hotSpot x="0.5" y="0" xunits="fraction" yunits="fraction"/></IconStyle><LabelStyle><scale>0.7</scale></LabelStyle></Style>
<StyleMap id="w_grocA"><Pair><key>normal</key><styleUrl>#w_grocA_n</styleUrl></Pair><Pair><key>highlight</key><styleUrl>#w_grocA_s</styleUrl></Pair></StyleMap>
<Style id="w_grocB_n"><IconStyle><color>ff00ffff</color><scale>1.0</scale><Icon><href>http://maps.google.com/mapfiles/kml/shapes/sailing.png</href></Icon><hotSpot x="0.5" y="0" xunits="fraction" yunits="fraction"/></IconStyle><LabelStyle><scale>0.7</scale></LabelStyle></Style>
<Style id="w_grocB_s"><IconStyle><color>ff00ffff</color><scale>1.4</scale><Icon><href>http://maps.google.com/mapfiles/kml/shapes/sailing.png</href></Icon><hotSpot x="0.5" y="0" xunits="fraction" yunits="fraction"/></IconStyle><LabelStyle><scale>0.7</scale></LabelStyle></Style>
<StyleMap id="w_grocB"><Pair><key>normal</key><styleUrl>#w_grocBAR_n</styleUrl></Pair><Pair><key>highlight</key><styleUrl>#w_grocBAR_s</styleUrl></Pair></StyleMap>
<Style id="w_vermellP_n"><IconStyle><color>ff0000ff</color><scale>1.0</scale><Icon><href>http://maps.google.com/mapfiles/kml/shapes/man.png</href></Icon><hotSpot x="0.5" y="0" xunits="fraction" yunits="fraction"/></IconStyle><LabelStyle><scale>0.7</scale></LabelStyle></Style>
<Style id="w_vermellP_s"><IconStyle><color>ff0000ff</color><scale>1.4</scale><Icon><href>http://maps.google.com/mapfiles/kml/shapes/man.png</href></Icon><hotSpot x="0.5" y="0" xunits="fraction" yunits="fraction"/></IconStyle><LabelStyle><scale>0.7</scale></LabelStyle></Style>
<StyleMap id="w_vermellP"><Pair><key>normal</key><styleUrl>#w_vermellP_n</styleUrl></Pair><Pair><key>highlight</key><styleUrl>#w_vermellP_s</styleUrl></Pair></StyleMap>
<Style id="w_vermell_n"><IconStyle><color>ff0000ff</color><scale>0.7</scale><Icon><href>http://maps.google.com/mapfiles/kml/shapes/cabs.png</href></Icon><hotSpot x="0.5" y="0" xunits="fraction" yunits="fraction"/></IconStyle><LabelStyle><scale>0.7</scale></LabelStyle></Style>
<Style id="w_vermell_s"><IconStyle><color>ff0000ff</color><scale>1.0</scale><Icon><href>http://maps.google.com/mapfiles/kml/shapes/cabs.png</href></Icon><hotSpot x="0.5" y="0" xunits="fraction" yunits="fraction"/></IconStyle><LabelStyle><scale>0.7</scale></LabelStyle></Style>
<StyleMap id="w_vermell"><Pair><key>normal</key><styleUrl>#w_vermell_n</styleUrl></Pair><Pair><key>highlight</key><styleUrl>#w_vermell_s</styleUrl></Pair></StyleMap>
<Style id="w_vermellC_n"><IconStyle><color>ff0000ff</color><scale>1.0</scale><Icon><href>http://maps.google.com/mapfiles/kml/shapes/truck.png</href></Icon><hotSpot x="0.5" y="0" xunits="fraction" yunits="fraction"/></IconStyle><LabelStyle><scale>0.7</scale></LabelStyle></Style>
<Style id="w_vermellC_s"><IconStyle><color>ff0000ff</color><scale>1.4</scale><Icon><href>http://maps.google.com/mapfiles/kml/shapes/truck.png</href></Icon><hotSpot x="0.5" y="0" xunits="fraction" yunits="fraction"/></IconStyle><LabelStyle><scale>0.7</scale></LabelStyle></Style>
<StyleMap id="w_vermellC"><Pair><key>normal</key><styleUrl>#w_vermellC_n</styleUrl></Pair><Pair><key>highlight</key><styleUrl>#w_vermellC_s</styleUrl></Pair></StyleMap>
<Style id="w_vermellH_n"><IconStyle><color>ff0000ff</color><scale>1.2</scale><Icon><href>http://maps.google.com/mapfiles/kml/shapes/heliport.png</href></Icon><hotSpot x="0.5" y="0" xunits="fraction" yunits="fraction"/></IconStyle><LabelStyle><scale>0.7</scale></LabelStyle></Style>
<Style id="w_vermellH_s"><IconStyle><color>ff0000ff</color><scale>1.4</scale><Icon><href>http://maps.google.com/mapfiles/kml/shapes/heliport.png</href></Icon><hotSpot x="0.5" y="0" xunits="fraction" yunits="fraction"/></IconStyle><LabelStyle><scale>0.7</scale></LabelStyle></Style>
<StyleMap id="w_vermellH"><Pair><key>normal</key><styleUrl>#w_vermellH_n</styleUrl></Pair><Pair><key>highlight</key><styleUrl>#w_vermellH_s</styleUrl></Pair></StyleMap>
<Style id="w_vermellA_n"><IconStyle><color>ff0000ff</color><scale>1.2</scale><Icon><href>http://maps.google.com/mapfiles/kml/shapes/airports.png</href></Icon><hotSpot x="0.5" y="0" xunits="fraction" yunits="fraction"/></IconStyle><LabelStyle><scale>0.7</scale></LabelStyle></Style>
<Style id="w_vermellA_s"><IconStyle><color>ff0000ff</color><scale>1.4</scale><Icon><href>http://maps.google.com/mapfiles/kml/shapes/airports.png</href></Icon><hotSpot x="0.5" y="0" xunits="fraction" yunits="fraction"/></IconStyle><LabelStyle><scale>0.7</scale></LabelStyle></Style>
<StyleMap id="w_vermellA"><Pair><key>normal</key><styleUrl>#w_vermellA_n</styleUrl></Pair><Pair><key>highlight</key><styleUrl>#w_vermellA_s</styleUrl></Pair></StyleMap>
<Style id="w_vermellB_n"><IconStyle><color>ff0000ff</color><scale>1.0</scale><Icon><href>http://maps.google.com/mapfiles/kml/shapes/sailing.png</href></Icon><hotSpot x="0.5" y="0" xunits="fraction" yunits="fraction"/></IconStyle><LabelStyle><scale>0.7</scale></LabelStyle></Style>
<Style id="w_vermellB_s"><IconStyle><color>ff0000ff</color><scale>1.4</scale><Icon><href>http://maps.google.com/mapfiles/kml/shapes/sailing.png</href></Icon><hotSpot x="0.5" y="0" xunits="fraction" yunits="fraction"/></IconStyle><LabelStyle><scale>0.7</scale></LabelStyle></Style>
<StyleMap id="w_vermellB"><Pair><key>normal</key><styleUrl>#w_vermellBAR_n</styleUrl></Pair><Pair><key>highlight</key><styleUrl>#w_vermellBAR_s</styleUrl></Pair></StyleMap>
<Style id="w_descarrega"><IconStyle><color>ff00ffff</color><scale>0.5</scale><Icon><href>http://maps.google.com/mapfiles/kml/shapes/road_shield3.png</href></Icon></IconStyle><LabelStyle><scale>0.7</scale></LabelStyle></Style><Style id="actuacio"><IconStyle><color>ff00ffff</color><scale>0.8</scale><Icon><href>http://maps.google.com/mapfiles/kml/shapes/caution.png</href></Icon></IconStyle><LabelStyle><scale>0.7</scale></LabelStyle></Style></Document></kml>