<?xml version="1.0" encoding="UTF-8"?>
<kml xmlns="http://www.opengis.net/kml/2.2" xmlns:gx="http://www.google.com/kml/ext/2.2" xmlns:kml="http://www.opengis.net/kml/2.2" xmlns:atom="http://www.w3.org/2005/Atom">
<Document>
<name>Terminals</name>
<Snippet maxLines="2">Created 06/08/2018 01:05:24</Snippet>
<Folder>
<name>Terminals</name>
<Placemark><name>A0204</name><description>200204 PORT Dept.
posicio de les: 06/08/2018 01:04:32</description><styleUrl>#w_grocP</styleUrl><Point><coordinates>0.797667503356934,42.7022051811218,0</coordinates></Point></Placemark>
<Placemark><name>02063</name><description>202063 GEM
posicio de les: 06/08/2018 01:01:41</description><styleUrl>#w_groc</styleUrl><Point><coordinates>2.11163878440857,41.5025067329407,0</coordinates></Point></Placemark>
<Placemark><name>GRAEUT3</name><description>203003 GRAE
posicio de les: 06/08/2018 01:04:29</description><styleUrl>#w_verdP</styleUrl><Point><coordinates>1.85111045837402,41.7414593696594,0</coordinates></Point></Placemark>
<Placemark><name>LGRAF02</name><description>204302 P.UT
posicio de les: 06/08/2018 01:04:32</description><styleUrl>#w_grocP</styleUrl><Point><coordinates>0.889356136322021,42.1648836135864,0</coordinates></Point></Placemark>
<Placemark><name>BGRAF08</name><description>204408 P.UT
posicio de les: 06/08/2018 01:04:02</description><styleUrl>#w_verdP</styleUrl><Point><coordinates>1.8526017665863,41.7414271831512,0</coordinates></Point></Placemark>
<Placemark><name>VIEL17</name><description>208017 BASE CCA VARAN
posicio de les: 06/08/2018 01:05:22</description><styleUrl>#w_verd</styleUrl><Point><coordinates>0.796723365783691,42.7082133293152,0</coordinates></Point></Placemark>
<Placemark><name>BER57</name><description>210357 PORT.COM BER (Centre)
posicio de les: 06/08/2018 01:02:40</description><styleUrl>#w_verdP</styleUrl><Point><coordinates>1.85796618461609,42.1038258075714,0</coordinates></Point></Placemark>
<Placemark><name>10430</name><description>210430 BRP CAF (Centre)
posicio de les: 06/08/2018 01:05:14</description><styleUrl>#w_verdC</styleUrl><Point><coordinates>1.21478319168091,41.6667544841766,0</coordinates></Point></Placemark>
<Placemark><name>CAB56</name><description>210656 PORT.COM CAB (Centre)
posicio de les: 06/08/2018 01:04:14</description><styleUrl>#w_grocP</styleUrl><Point><coordinates>1.68511390686035,41.6657996177673,0</coordinates></Point></Placemark>
<Placemark><name>GUA56</name><description>210856 PORT.COM GUA (Centre)
posicio de les: 06/08/2018 01:02:29</description><styleUrl>#w_verdP</styleUrl><Point><coordinates>1.87145233154297,42.2201585769653,0</coordinates></Point></Placemark>
<Placemark><name>PRA07</name><description>211407 PORT PRA (Centre)
posicio de les: 06/08/2018 01:04:53</description><styleUrl>#w_verdP</styleUrl><Point><coordinates>2.03597903251648,42.0079743862152,0</coordinates></Point></Placemark>
<Placemark><name>TOR02</name><description>212002 PORT TOR (Centre)
posicio de les: 06/08/2018 01:03:01</description><styleUrl>#w_verdP</styleUrl><Point><coordinates>2.26703524589539,42.0488512516022,0</coordinates></Point></Placemark>
<Placemark><name>20130</name><description>220130 BRP AMER (Girona)
posicio de les: 06/08/2018 01:05:18</description><styleUrl>#w_verdC</styleUrl><Point><coordinates>2.63327479362488,41.9596517086029,0</coordinates></Point></Placemark>
<Placemark><name>20134</name><description>220134 BFP AMER (Girona)
posicio de les: 06/08/2018 01:01:56</description><styleUrl>#w_grocC</styleUrl><Point><coordinates>3.15737843513489,42.3844707012177,0</coordinates></Point></Placemark>
<Placemark><name>AMER56</name><description>220156 PORT.COM AMER (Girona)
posicio de les: 06/08/2018 00:59:49</description><styleUrl>#w_verdP</styleUrl><Point><coordinates>2.69032001495361,41.9734382629395,0</coordinates></Point></Placemark>
<Placemark><name>AMER57</name><description>220157 PORT.COM AMER (Girona)
posicio de les: 06/08/2018 01:04:09</description><styleUrl>#w_verdP</styleUrl><Point><coordinates>2.59572386741638,42.0117080211639,0</coordinates></Point></Placemark>
<Placemark><name>20330</name><description>220330 BRP BANY (Girona)
posicio de les: 06/08/2018 01:03:11</description><styleUrl>#w_verdC</styleUrl><Point><coordinates>2.78456211090088,42.116185426712,0</coordinates></Point></Placemark>
<Placemark><name>BANY56</name><description>220356 PORT.COM BANY (Girona)
posicio de les: 06/08/2018 01:03:41</description><styleUrl>#w_verdP</styleUrl><Point><coordinates>2.78581738471985,42.1177840232849,0</coordinates></Point></Placemark>
<Placemark><name>PERA02</name><description>220402 PORT PERA (Girona)
posicio de les: 06/08/2018 01:04:47</description><styleUrl>#w_grocP</styleUrl><Point><coordinates>2.9577898979187,42.0471453666687,0</coordinates></Point></Placemark>
<Placemark><name>PERA03</name><description>220403 PORT PERA (Girona)
posicio de les: 06/08/2018 01:03:26</description><styleUrl>#w_verdP</styleUrl><Point><coordinates>2.97498822212219,42.0299255847931,0</coordinates></Point></Placemark>
<Placemark><name>PERA04</name><description>220404 PORT PERA (Girona)
posicio de les: 06/08/2018 01:01:59</description><styleUrl>#w_verdP</styleUrl><Point><coordinates>2.97507405281067,42.0293784141541,0</coordinates></Point></Placemark>
<Placemark><name>20430</name><description>220430 BRP PERA (Girona)
posicio de les: 06/08/2018 01:00:37</description><styleUrl>#w_grocC</styleUrl><Point><coordinates>2.95759677886963,42.0473599433899,0</coordinates></Point></Placemark>
<Placemark><name>20434</name><description>220434 BFP PERA (Girona)
posicio de les: 06/08/2018 01:01:11</description><styleUrl>#w_grocC</styleUrl><Point><coordinates>2.97502040863037,42.0298504829407,0</coordinates></Point></Placemark>
<Placemark><name>20830</name><description>220830 BRP CASS (Girona)
posicio de les: 06/08/2018 01:04:50</description><styleUrl>#w_verdC</styleUrl><Point><coordinates>2.88378238677979,41.8798291683197,0</coordinates></Point></Placemark>
<Placemark><name>CASS56</name><description>220856 PORT.COM CASS (Girona)
posicio de les: 06/08/2018 01:05:15</description><styleUrl>#w_verdP</styleUrl><Point><coordinates>2.88400769233704,41.8799149990082,0</coordinates></Point></Placemark>
<Placemark><name>FIGU56</name><description>221056 PORT.COM FIGU (Girona)
posicio de les: 06/08/2018 01:02:59</description><styleUrl>#w_grocP</styleUrl><Point><coordinates>2.97027826309204,42.2722578048706,0</coordinates></Point></Placemark>
<Placemark><name>HOST05</name><description>221205 PORT HOST (Girona)
posicio de les: 06/08/2018 01:03:31</description><styleUrl>#w_verdP</styleUrl><Point><coordinates>2.62446641921997,41.7480254173279,0</coordinates></Point></Placemark>
<Placemark><name>221244</name><description>221244 BNP HOST (Girona)
posicio de les: 06/08/2018 01:05:16</description><styleUrl>#w_verdC</styleUrl><Point><coordinates>2.7007269859314,41.7494523525238,0</coordinates></Point></Placemark>
<Placemark><name>HOST57</name><description>221257 PORT.COM HOST (Girona)
posicio de les: 06/08/2018 01:05:20</description><styleUrl>#w_verdP</styleUrl><Point><coordinates>2.62468099594116,41.7482507228851,0</coordinates></Point></Placemark>
<Placemark><name>JONQ56</name><description>221356 PORT.COM JONQ (Girona)
posicio de les: 06/08/2018 01:04:47</description><styleUrl>#w_verdP</styleUrl><Point><coordinates>2.87642240524292,42.4117970466614,0</coordinates></Point></Placemark>
<Placemark><name>LLAN57</name><description>221457 PORT.COM LLAN (Girona)
posicio de les: 06/08/2018 01:04:01</description><styleUrl>#w_verdP</styleUrl><Point><coordinates>3.15790414810181,42.3838698863983,0</coordinates></Point></Placemark>
<Placemark><name>LLOR56</name><description>221556 PORT.COM LLOR (Girona)
posicio de les: 06/08/2018 01:03:48</description><styleUrl>#w_verdP</styleUrl><Point><coordinates>2.83610343933105,41.6998636722565,0</coordinates></Point></Placemark>
<Placemark><name>MAÇA57</name><description>221657 PORT.COM MACA (Girona)
posicio de les: 06/08/2018 01:03:43</description><styleUrl>#w_verdP</styleUrl><Point><coordinates>2.75290131568909,41.7793428897858,0</coordinates></Point></Placemark>
<Placemark><name>OLOT56</name><description>221756 PORT.COM OLOT (Girona)
posicio de les: 06/08/2018 01:01:50</description><styleUrl>#w_verdP</styleUrl><Point><coordinates>2.47488498687744,42.1902787685394,0</coordinates></Point></Placemark>
<Placemark><name>OLOT57</name><description>221757 PORT.COM OLOT (Girona)
posicio de les: 06/08/2018 01:01:53</description><styleUrl>#w_verdP</styleUrl><Point><coordinates>2.47475624084473,42.1902251243591,0</coordinates></Point></Placemark>
<Placemark><name>PALA06</name><description>221806 PORT PALA (Girona)
posicio de les: 06/08/2018 01:05:13</description><styleUrl>#w_verdP</styleUrl><Point><coordinates>3.1555438041687,41.9255447387695,0</coordinates></Point></Placemark>
<Placemark><name>PALA56</name><description>221856 PORT.COM PALA (Girona)
posicio de les: 06/08/2018 01:03:18</description><styleUrl>#w_grocP</styleUrl><Point><coordinates>3.1559944152832,41.9255447387695,0</coordinates></Point></Placemark>
<Placemark><name>PALA57</name><description>221857 PORT.COM PALA (Girona)
posicio de les: 06/08/2018 01:04:55</description><styleUrl>#w_grocP</styleUrl><Point><coordinates>3.15603733062744,41.9257164001465,0</coordinates></Point></Placemark>
<Placemark><name>RIPO56</name><description>222156 PORT.COM RIPO (Girona)
posicio de les: 06/08/2018 01:01:40</description><styleUrl>#w_verdP</styleUrl><Point><coordinates>2.16845870018005,42.2149014472961,0</coordinates></Point></Placemark>
<Placemark><name>RIPO57</name><description>222157 PORT.COM RIPO (Girona)
posicio de les: 06/08/2018 01:00:05</description><styleUrl>#w_verdP</styleUrl><Point><coordinates>2.16805100440979,42.2148585319519,0</coordinates></Point></Placemark>
<Placemark><name>ROSE01</name><description>222201 PORT ROSE (Girona)
posicio de les: 06/08/2018 01:05:16</description><styleUrl>#w_verdP</styleUrl><Point><coordinates>3.16094040870667,42.2765278816223,0</coordinates></Point></Placemark>
<Placemark><name>ROSE56</name><description>222256 PORT.COM ROSE (Girona)
posicio de les: 06/08/2018 01:03:38</description><styleUrl>#w_grocP</styleUrl><Point><coordinates>3.16079020500183,42.2764205932617,0</coordinates></Point></Placemark>
<Placemark><name>TORR56</name><description>222656 PORT.COM TORR (Girona)
posicio de les: 06/08/2018 01:05:01</description><styleUrl>#w_verdP</styleUrl><Point><coordinates>3.16765666007996,42.0477569103241,0</coordinates></Point></Placemark>
<Placemark><name>VALL56</name><description>222856 PORT.COM VALL (Girona)
posicio de les: 06/08/2018 01:04:16</description><styleUrl>#w_verdP</styleUrl><Point><coordinates>3.03157210350037,41.8091583251953,0</coordinates></Point></Placemark>
<Placemark><name>D7REG</name><description>228047  SERVEIS REGIÓ
posicio de les: 06/08/2018 01:04:26</description><styleUrl>#w_verd</styleUrl><Point><coordinates>2.80628800392151,41.9598662853241,0</coordinates></Point></Placemark>
<Placemark><name>FTREMP1</name><description>230073  REGIÓ
posicio de les: 06/08/2018 01:03:02</description><styleUrl>#w_groc</styleUrl><Point><coordinates>0.631617307662964,41.616929769516,0</coordinates></Point></Placemark>
<Placemark><name>30083</name><description>230083  REGIÓ
posicio de les: 06/08/2018 01:01:00</description><styleUrl>#w_groc</styleUrl><Point><coordinates>0.630651712417603,41.6162109375,0</coordinates></Point></Placemark>
<Placemark><name>30091</name><description>230091  REGIÓ
posicio de les: 06/08/2018 01:02:06</description><styleUrl>#w_groc</styleUrl><Point><coordinates>0.63072681427002,41.6162538528442,0</coordinates></Point></Placemark>
<Placemark><name>30092</name><description>230092  REGIÓ
posicio de les: 06/08/2018 01:02:52</description><styleUrl>#w_groc</styleUrl><Point><coordinates>0.631434917449951,41.6165006160736,0</coordinates></Point></Placemark>
<Placemark><name>30095</name><description>230095  REGIÓ
posicio de les: 06/08/2018 01:04:39</description><styleUrl>#w_verd</styleUrl><Point><coordinates>0.61374306678772,41.6261029243469,0</coordinates></Point></Placemark>
<Placemark><name>30098</name><description>230098  REGIÓ
posicio de les: 06/08/2018 01:00:55</description><styleUrl>#w_groc</styleUrl><Point><coordinates>0.630769729614258,41.6162967681885,0</coordinates></Point></Placemark>
<Placemark><name>LLEI04</name><description>231904 PORT LLEI (Lleida)
posicio de les: 06/08/2018 01:01:27</description><styleUrl>#w_verdP</styleUrl><Point><coordinates>0.630297660827637,41.616393327713,0</coordinates></Point></Placemark>
<Placemark><name>LLEI05</name><description>231905 PORT LLEI (Lleida)
posicio de les: 06/08/2018 01:03:46</description><styleUrl>#w_grocP</styleUrl><Point><coordinates>0.630651712417603,41.6162431240082,0</coordinates></Point></Placemark>
<Placemark><name>LLEI13</name><description>231913 PORT LLEI (Lleida)
posicio de les: 06/08/2018 01:04:14</description><styleUrl>#w_verdP</styleUrl><Point><coordinates>0.604441165924072,41.6247510910034,0</coordinates></Point></Placemark>
<Placemark><name>31940</name><description>231940 BUP LLEI (Lleida)
posicio de les: 06/08/2018 01:01:56</description><styleUrl>#w_grocC</styleUrl><Point><coordinates>0.630522966384888,41.6162431240082,0</coordinates></Point></Placemark>
<Placemark><name>31948</name><description>231948 BUL LLEI (Lleida)
posicio de les: 06/08/2018 01:01:37</description><styleUrl>#w_grocC</styleUrl><Point><coordinates>0.631295442581177,41.6168653964996,0</coordinates></Point></Placemark>
<Placemark><name>31960</name><description>231960 AEA/AES/ABA LLEI (Lleida)
posicio de les: 06/08/2018 01:01:57</description><styleUrl>#w_grocC</styleUrl><Point><coordinates>0.630276203155518,41.6163289546967,0</coordinates></Point></Placemark>
<Placemark><name>32031</name><description>232031 BRP MOLL (Lleida)
posicio de les: 06/08/2018 01:02:01</description><styleUrl>#w_grocC</styleUrl><Point><coordinates>0.631617307662964,41.6165328025818,0</coordinates></Point></Placemark>
<Placemark><name>MOLL56</name><description>232056 PORT.COM MOLL (Lleida)
posicio de les: 06/08/2018 01:05:05</description><styleUrl>#w_grocP</styleUrl><Point><coordinates>0.631231069564819,41.6162216663361,0</coordinates></Point></Placemark>
<Placemark><name>32090</name><description>232090 UPC MOLL (Lleida)
posicio de les: 06/08/2018 01:02:06</description><styleUrl>#w_groc</styleUrl><Point><coordinates>0.630995035171509,41.616393327713,0</coordinates></Point></Placemark>
<Placemark><name>OLIA01</name><description>232201 PORT OLIA (Lleida)
posicio de les: 06/08/2018 01:05:17</description><styleUrl>#w_grocP</styleUrl><Point><coordinates>0.630608797073364,41.6161787509918,0</coordinates></Point></Placemark>
<Placemark><name>OLIA56</name><description>232256 PORT.COM OLIA (Lleida)
posicio de les: 06/08/2018 01:05:05</description><styleUrl>#w_grocP</styleUrl><Point><coordinates>0.630877017974854,41.6155457496643,0</coordinates></Point></Placemark>
<Placemark><name>32290</name><description>232290 UPC OLIA (Lleida)
posicio de les: 06/08/2018 01:02:00</description><styleUrl>#w_groc</styleUrl><Point><coordinates>0.630651712417603,41.6162753105164,0</coordinates></Point></Placemark>
<Placemark><name>POBL01</name><description>232401 PORT POBL (Lleida)
posicio de les: 06/08/2018 01:04:52</description><styleUrl>#w_verdP</styleUrl><Point><coordinates>0.964393615722656,42.2390842437744,0</coordinates></Point></Placemark>
<Placemark><name>PONT05</name><description>232505 PORT PONT (Lleida)
posicio de les: 06/08/2018 01:04:35</description><styleUrl>#w_verdP</styleUrl><Point><coordinates>0.739635229110718,42.4104773998261,0</coordinates></Point></Placemark>
<Placemark><name>33131</name><description>233131 BRP TAR (Lleida)
posicio de les: 06/08/2018 01:01:25</description><styleUrl>#w_grocC</styleUrl><Point><coordinates>0.631746053695679,41.6165971755981,0</coordinates></Point></Placemark>
<Placemark><name>TREM05</name><description>233305 PORT TREM (Lleida)
posicio de les: 06/08/2018 01:04:05</description><styleUrl>#w_verdP</styleUrl><Point><coordinates>0.888572931289673,42.1644008159637,0</coordinates></Point></Placemark>
<Placemark><name>TREM07</name><description>233307 PORT TREM (Lleida)
posicio de les: 06/08/2018 01:05:10</description><styleUrl>#w_verdP</styleUrl><Point><coordinates>0.88988184928894,42.1650767326355,0</coordinates></Point></Placemark>
<Placemark><name>TREM56</name><description>233356 PORT.COM TREM (Lleida)
posicio de les: 06/08/2018 01:04:14</description><styleUrl>#w_verdP</styleUrl><Point><coordinates>0.889313220977783,42.1647977828979,0</coordinates></Point></Placemark>
<Placemark><name>FMOLL2</name><description>234508 PORT Parc X
posicio de les: 06/08/2018 01:04:18</description><styleUrl>#w_grocP</styleUrl><Point><coordinates>0.898175239562988,41.6365313529968,0</coordinates></Point></Placemark>
<Placemark><name>FTAR1</name><description>234513 PORT Parc X
posicio de les: 06/08/2018 01:04:18</description><styleUrl>#w_verdP</styleUrl><Point><coordinates>1.14940166473389,41.6508007049561,0</coordinates></Point></Placemark>
<Placemark><name>FTREM59</name><description>234559 BSAL Parc X
posicio de les: 06/08/2018 01:05:12</description><styleUrl>#w_grocB</styleUrl><Point><coordinates>0.630565881729126,41.6161251068115,0</coordinates></Point></Placemark>
<Placemark><name>I407</name><description>237407 P.GUAITA GUAITA
posicio de les: 06/08/2018 01:04:55</description><styleUrl>#w_verdP</styleUrl><Point><coordinates>0.963181257247925,42.2556495666504,0</coordinates></Point></Placemark>
<Placemark><name>REMN11</name><description>240011 P.Tec REGIÓ
posicio de les: 06/08/2018 01:04:27</description><styleUrl>#w_verdP</styleUrl><Point><coordinates>2.11163878440857,41.5018844604492,0</coordinates></Point></Placemark>
<Placemark><name>E0REMN</name><description>240012 P.Tec REGIÓ
posicio de les: 06/08/2018 01:01:06</description><styleUrl>#w_grocP</styleUrl><Point><coordinates>2.27488875389099,41.5904188156128,0</coordinates></Point></Placemark>
<Placemark><name>REMN14</name><description>240014 P.Tec REGIÓ
posicio de les: 06/08/2018 01:05:20</description><styleUrl>#w_verdP</styleUrl><Point><coordinates>2.02597975730896,41.5677809715271,0</coordinates></Point></Placemark>
<Placemark><name>40091</name><description>240091  REGIÓ
posicio de les: 06/08/2018 01:00:52</description><styleUrl>#w_groc</styleUrl><Point><coordinates>2.11196064949036,41.5022599697113,0</coordinates></Point></Placemark>
<Placemark><name>BAD02</name><description>240202 PORT BAD (Metro. Nord)
posicio de les: 06/08/2018 01:03:00</description><styleUrl>#w_grocP</styleUrl><Point><coordinates>2.23765969276428,41.4649772644043,0</coordinates></Point></Placemark>
<Placemark><name>40290</name><description>240290 UPC BAD (Metro. Nord)
posicio de les: 06/08/2018 01:05:13</description><styleUrl>#w_groc</styleUrl><Point><coordinates>2.0258617401123,41.5681564807892,0</coordinates></Point></Placemark>
<Placemark><name>CER03</name><description>240503 PORT CER (Metro. Nord)
posicio de les: 06/08/2018 01:04:02</description><styleUrl>#w_grocP</styleUrl><Point><coordinates>2.11122035980225,41.5023994445801,0</coordinates></Point></Placemark>
<Placemark><name>GRA01</name><description>240601 PORT GRA (Metro. Nord)
posicio de les: 06/08/2018 01:04:53</description><styleUrl>#w_verdP</styleUrl><Point><coordinates>2.27449178695679,41.5911376476288,0</coordinates></Point></Placemark>
<Placemark><name>GRA13</name><description>240613 PORT GRA (Metro. Nord)
posicio de les: 06/08/2018 01:01:31</description><styleUrl>#w_verdP</styleUrl><Point><coordinates>2.27492094039917,41.590461730957,0</coordinates></Point></Placemark>
<Placemark><name>MAT01</name><description>240901 PORT MAT (Metro. Nord)
posicio de les: 06/08/2018 01:04:15</description><styleUrl>#w_verdP</styleUrl><Point><coordinates>2.4225926399231,41.532289981842,0</coordinates></Point></Placemark>
<Placemark><name>MOL03</name><description>241003 PORT MOL (Metro. Nord)
posicio de les: 06/08/2018 01:05:04</description><styleUrl>#w_verdP</styleUrl><Point><coordinates>2.20210433006287,41.5373432636261,0</coordinates></Point></Placemark>
<Placemark><name>SAB06</name><description>241406 PORT SAB (Metro. Nord)
posicio de les: 06/08/2018 01:01:42</description><styleUrl>#w_verdP</styleUrl><Point><coordinates>2.10413932800293,41.5421068668365,0</coordinates></Point></Placemark>
<Placemark><name>CMSAB20</name><description>241420 PORT SAB (Metro. Nord)
posicio de les: 06/08/2018 01:02:49</description><styleUrl>#w_grocP</styleUrl><Point><coordinates>2.10428953170776,41.5421068668365,0</coordinates></Point></Placemark>
<Placemark><name>241440</name><description>241440 BUP SAB (Metro. Nord)
posicio de les: 06/08/2018 01:01:39</description><styleUrl>#w_grocC</styleUrl><Point><coordinates>2.10378527641296,41.5427398681641,0</coordinates></Point></Placemark>
<Placemark><name>SCG09</name><description>241809 PORT SCG (Metro. Nord)
posicio de les: 06/08/2018 01:04:18</description><styleUrl>#w_verdP</styleUrl><Point><coordinates>2.20935702323914,41.4631426334381,0</coordinates></Point></Placemark>
<Placemark><name>241858</name><description>241858 BSAL SCG (Metro. Nord)
posicio de les: 06/08/2018 01:04:34</description><styleUrl>#w_verdB</styleUrl><Point><coordinates>2.20934629440308,41.4631748199463,0</coordinates></Point></Placemark>
<Placemark><name>TER01</name><description>242001 PORT TER (Metro. Nord)
posicio de les: 06/08/2018 01:03:38</description><styleUrl>#w_verdP</styleUrl><Point><coordinates>2.02593684196472,41.5687251091003,0</coordinates></Point></Placemark>
<Placemark><name>TER07</name><description>242007 PORT TER (Metro. Nord)
posicio de les: 06/08/2018 01:02:04</description><styleUrl>#w_verdP</styleUrl><Point><coordinates>2.02610850334167,41.5681028366089,0</coordinates></Point></Placemark>
<Placemark><name>TOD56</name><description>242156 PORT.COM TOD (Metro. Nord)
posicio de les: 06/08/2018 01:04:13</description><styleUrl>#w_grocP</styleUrl><Point><coordinates>2.71638035774231,41.6915917396545,0</coordinates></Point></Placemark>
<Placemark><name>D9REMN</name><description>248049  SERVEIS REGIÓ
posicio de les: 06/08/2018 01:00:25</description><styleUrl>#w_verd</styleUrl><Point><coordinates>2.11221814155579,41.5023458003998,0</coordinates></Point></Placemark>
<Placemark><name>50092</name><description>250092  REGIÓ
posicio de les: 06/08/2018 01:01:15</description><styleUrl>#w_verd</styleUrl><Point><coordinates>1.70457601547241,41.3546741008759,0</coordinates></Point></Placemark>
<Placemark><name>COR05</name><description>250405 PORT COR (Metro. Sud)
posicio de les: 06/08/2018 01:04:41</description><styleUrl>#w_grocP</styleUrl><Point><coordinates>2.06662058830261,41.3570666313171,0</coordinates></Point></Placemark>
<Placemark><name>50430</name><description>250430 BRP COR (Metro. Sud)
posicio de les: 06/08/2018 01:01:59</description><styleUrl>#w_grocC</styleUrl><Point><coordinates>2.06737160682678,41.3567233085632,0</coordinates></Point></Placemark>
<Placemark><name>GAV01</name><description>250501 PORT GAV (Metro. Sud)
posicio de les: 06/08/2018 01:03:17</description><styleUrl>#w_verdP</styleUrl><Point><coordinates>1.99022054672241,41.3001394271851,0</coordinates></Point></Placemark>
<Placemark><name>GAV56</name><description>250556 PORT.COM GAV (Metro. Sud)
posicio de les: 06/08/2018 01:03:34</description><styleUrl>#w_verdP</styleUrl><Point><coordinates>1.99042439460754,41.3000750541687,0</coordinates></Point></Placemark>
<Placemark><name>HOS02</name><description>250702 PORT HOS (Metro. Sud)
posicio de les: 06/08/2018 01:04:21</description><styleUrl>#w_verdP</styleUrl><Point><coordinates>2.1052873134613,41.3711750507355,0</coordinates></Point></Placemark>
<Placemark><name>LLA03</name><description>250903 PORT LLA (Metro. Sud)
posicio de les: 06/08/2018 01:05:21</description><styleUrl>#w_grocP</styleUrl><Point><coordinates>1.53031826019287,41.4732921123505,0</coordinates></Point></Placemark>
<Placemark><name>MAR57</name><description>251057 PORT.COM MAR (Metro. Sud)
posicio de les: 06/08/2018 01:05:17</description><styleUrl>#w_grocP</styleUrl><Point><coordinates>1.90788745880127,41.4989984035492,0</coordinates></Point></Placemark>
<Placemark><name>SFE57</name><description>251557 PORT.COM SFE (Metro. Sud)
posicio de les: 06/08/2018 01:03:20</description><styleUrl>#w_verdP</styleUrl><Point><coordinates>2.04296350479126,41.3890600204468,0</coordinates></Point></Placemark>
<Placemark><name>CMS15</name><description>254515 PORT Parc X
posicio de les: 06/08/2018 01:05:03</description><styleUrl>#w_grocP</styleUrl><Point><coordinates>1.70406103134155,41.3548672199249,0</coordinates></Point></Placemark>
<Placemark><name>I215</name><description>257215 P.GUAITA GUAITA
posicio de les: 06/08/2018 01:04:58</description><styleUrl>#w_grocP</styleUrl><Point><coordinates>1.66396737098694,41.4990949630737,0</coordinates></Point></Placemark>
<Placemark><name>D1REMS</name><description>258041  SERVEIS REGIÓ
posicio de les: 06/08/2018 01:04:22</description><styleUrl>#w_verd</styleUrl><Point><coordinates>2.03405857086182,41.3220798969269,0</coordinates></Point></Placemark>
<Placemark><name>260508</name><description>260508 PORT HOSP (Tarragona)
posicio de les: 06/08/2018 01:04:59</description><styleUrl>#w_verdP</styleUrl><Point><coordinates>0.91985821723938,40.9937024116516,0</coordinates></Point></Placemark>
<Placemark><name>60844</name><description>260844 BNP REUS (Tarragona)
posicio de les: 06/08/2018 01:01:39</description><styleUrl>#w_grocC</styleUrl><Point><coordinates>1.11810564994812,41.1509335041046,0</coordinates></Point></Placemark>
<Placemark><name>60890</name><description>260890 UPC REUS (Tarragona)
posicio de les: 06/08/2018 01:04:59</description><styleUrl>#w_verd</styleUrl><Point><coordinates>1.11796617507935,41.1506330966949,0</coordinates></Point></Placemark>
<Placemark><name>61234</name><description>261234 BFP TARR (Tarragona)
posicio de les: 06/08/2018 01:01:20</description><styleUrl>#w_grocC</styleUrl><Point><coordinates>1.22124195098877,41.113897562027,0</coordinates></Point></Placemark>
<Placemark><name>VALS56</name><description>261356 PORT.COM VALS (Tarragona)
posicio de les: 06/08/2018 01:04:09</description><styleUrl>#w_verdP</styleUrl><Point><coordinates>1.2598979473114,41.3068234920502,0</coordinates></Point></Placemark>
<Placemark><name>61390</name><description>261390 UPC VALS (Tarragona)
posicio de les: 06/08/2018 01:05:02</description><styleUrl>#w_groc</styleUrl><Point><coordinates>1.25921130180359,41.3072848320007,0</coordinates></Point></Placemark>
<Placemark><name>VEND09</name><description>261409 PORT VEND (Tarragona)
posicio de les: 06/08/2018 01:03:36</description><styleUrl>#w_verdP</styleUrl><Point><coordinates>1.54103636741638,41.2217974662781,0</coordinates></Point></Placemark>
<Placemark><name>VEND10</name><description>261410 PORT VEND (Tarragona)
posicio de les: 06/08/2018 01:04:32</description><styleUrl>#w_verdP</styleUrl><Point><coordinates>1.54067158699036,41.2223553657532,0</coordinates></Point></Placemark>
<Placemark><name>61434</name><description>261434 BFP VEND (Tarragona)
posicio de les: 06/08/2018 01:02:25</description><styleUrl>#w_verdC</styleUrl><Point><coordinates>1.44190192222595,41.2187826633453,0</coordinates></Point></Placemark>
<Placemark><name>E00RETE</name><description>270014 P.Tec REGIÓ
posicio de les: 06/08/2018 01:01:35</description><styleUrl>#w_verdP</styleUrl><Point><coordinates>0.513846874237061,40.8195412158966,0</coordinates></Point></Placemark>
<Placemark><name>GAND56</name><description>272656 PORT.COM GAND (Terres de l'Ebre)
posicio de les: 06/08/2018 01:03:28</description><styleUrl>#w_verdP</styleUrl><Point><coordinates>0.439066886901855,41.058794260025,0</coordinates></Point></Placemark>
<Placemark><name>MORA56</name><description>272856 PORT.COM MORA (Terres de l'Ebre)
posicio de les: 06/08/2018 01:05:07</description><styleUrl>#w_verdP</styleUrl><Point><coordinates>0.629600286483765,41.0863566398621,0</coordinates></Point></Placemark>
<Placemark><name>E_93</name><description>278031  SERVEIS REGIÓ
posicio de les: 06/08/2018 01:01:32</description><styleUrl>#w_verd</styleUrl><Point><coordinates>0.513181686401367,40.8193051815033,0</coordinates></Point></Placemark>
</Folder>
<Folder>
<name>Descarregues</name>
</Folder>
<Style id="w_verdP_n"><IconStyle><color>ff00ff00</color><scale>1.0</scale><Icon><href>http://maps.google.com/mapfiles/kml/shapes/man.png</href></Icon><hotSpot x="0.5" y="0" xunits="fraction" yunits="fraction"/></IconStyle><LabelStyle><scale>0.7</scale></LabelStyle></Style>
<Style id="w_verdP_s"><IconStyle><color>ff00ff00</color><scale>1.4</scale><Icon><href>http://maps.google.com/mapfiles/kml/shapes/man.png</href></Icon><hotSpot x="0.5" y="0" xunits="fraction" yunits="fraction"/></IconStyle><LabelStyle><scale>0.7</scale></LabelStyle></Style>
<StyleMap id="w_verdP"><Pair><key>normal</key><styleUrl>#w_verdP_n</styleUrl></Pair><Pair><key>highlight</key><styleUrl>#w_verdP_s</styleUrl></Pair></StyleMap>
<Style id="w_verd_n"><IconStyle><color>ff00ff00</color><scale>0.7</scale><Icon><href>http://maps.google.com/mapfiles/kml/shapes/cabs.png</href></Icon><hotSpot x="0.5" y="0" xunits="fraction" yunits="fraction"/></IconStyle><LabelStyle><scale>0.7</scale></LabelStyle></Style>
<Style id="w_verd_s"><IconStyle><color>ff00ff00</color><scale>1.0</scale><Icon><href>http://maps.google.com/mapfiles/kml/shapes/cabs.png</href></Icon><hotSpot x="0.5" y="0" xunits="fraction" yunits="fraction"/></IconStyle><LabelStyle><scale>0.7</scale></LabelStyle></Style>
<StyleMap id="w_verd"><Pair><key>normal</key><styleUrl>#w_verd_n</styleUrl></Pair><Pair><key>highlight</key><styleUrl>#w_verd_s</styleUrl></Pair></StyleMap>
<Style id="w_verdC_n"><IconStyle><color>ff00ff00</color><scale>1.0</scale><Icon><href>http://maps.google.com/mapfiles/kml/shapes/truck.png</href></Icon><hotSpot x="0.5" y="0" xunits="fraction" yunits="fraction"/></IconStyle><LabelStyle><scale>0.7</scale></LabelStyle></Style>
<Style id="w_verdC_s"><IconStyle><color>ff00ff00</color><scale>1.4</scale><Icon><href>http://maps.google.com/mapfiles/kml/shapes/truck.png</href></Icon><hotSpot x="0.5" y="0" xunits="fraction" yunits="fraction"/></IconStyle><LabelStyle><scale>0.7</scale></LabelStyle></Style>
<StyleMap id="w_verdC"><Pair><key>normal</key><styleUrl>#w_verdC_n</styleUrl></Pair><Pair><key>highlight</key><styleUrl>#w_verdC_s</styleUrl></Pair></StyleMap>
<Style id="w_verdH_n"><IconStyle><color>ff0000ff</color><scale>1.2</scale><Icon><href>http://maps.google.com/mapfiles/kml/shapes/heliport.png</href></Icon><hotSpot x="0.5" y="0" xunits="fraction" yunits="fraction"/></IconStyle><LabelStyle><scale>0.7</scale></LabelStyle></Style>
<Style id="w_verdH_s"><IconStyle><color>ff0000ff</color><scale>1.4</scale><Icon><href>http://maps.google.com/mapfiles/kml/shapes/heliport.png</href></Icon><hotSpot x="0.5" y="0" xunits="fraction" yunits="fraction"/></IconStyle><LabelStyle><scale>0.7</scale></LabelStyle></Style>
<StyleMap id="w_verdH"><Pair><key>normal</key><styleUrl>#w_verdH_n</styleUrl></Pair><Pair><key>highlight</key><styleUrl>#w_verdH_s</styleUrl></Pair></StyleMap>
<Style id="w_verdA_n"><IconStyle><color>ff0000ff</color><scale>1.2</scale><Icon><href>http://maps.google.com/mapfiles/kml/shapes/airports.png</href></Icon><hotSpot x="0.5" y="0" xunits="fraction" yunits="fraction"/></IconStyle><LabelStyle><scale>0.7</scale></LabelStyle></Style>
<Style id="w_verdA_s"><IconStyle><color>ff0000ff</color><scale>1.4</scale><Icon><href>http://maps.google.com/mapfiles/kml/shapes/airports.png</href></Icon><hotSpot x="0.5" y="0" xunits="fraction" yunits="fraction"/></IconStyle><LabelStyle><scale>0.7</scale></LabelStyle></Style>
<StyleMap id="w_verdA"><Pair><key>normal</key><styleUrl>#w_verdA_n</styleUrl></Pair><Pair><key>highlight</key><styleUrl>#w_verdA_s</styleUrl></Pair></StyleMap>
<Style id="w_verdB_n"><IconStyle><color>ff00ff00</color><scale>1.0</scale><Icon><href>http://maps.google.com/mapfiles/kml/shapes/sailing.png</href></Icon><hotSpot x="0.5" y="0" xunits="fraction" yunits="fraction"/></IconStyle><LabelStyle><scale>0.7</scale></LabelStyle></Style>
<Style id="w_verdB_s"><IconStyle><color>ff00ff00</color><scale>1.4</scale><Icon><href>http://maps.google.com/mapfiles/kml/shapes/sailing.png</href></Icon><hotSpot x="0.5" y="0" xunits="fraction" yunits="fraction"/></IconStyle><LabelStyle><scale>0.7</scale></LabelStyle></Style>
<StyleMap id="w_verdB"><Pair><key>normal</key><styleUrl>#w_verdBAR_n</styleUrl></Pair><Pair><key>highlight</key><styleUrl>#w_verdBAR_s</styleUrl></Pair></StyleMap>
<Style id="w_grocP_n"><IconStyle><color>ff00ffff</color><scale>1.0</scale><Icon><href>http://maps.google.com/mapfiles/kml/shapes/man.png</href></Icon><hotSpot x="0.5" y="0" xunits="fraction" yunits="fraction"/></IconStyle><LabelStyle><scale>0.7</scale></LabelStyle></Style>
<Style id="w_grocP_s"><IconStyle><color>ff00ffff</color><scale>1.4</scale><Icon><href>http://maps.google.com/mapfiles/kml/shapes/man.png</href></Icon><hotSpot x="0.5" y="0" xunits="fraction" yunits="fraction"/></IconStyle><LabelStyle><scale>0.7</scale></LabelStyle></Style>
<StyleMap id="w_grocP"><Pair><key>normal</key><styleUrl>#w_grocP_n</styleUrl></Pair><Pair><key>highlight</key><styleUrl>#w_grocP_s</styleUrl></Pair></StyleMap>
<Style id="w_groc_n"><IconStyle><color>ff00ffff</color><scale>0.7</scale><Icon><href>http://maps.google.com/mapfiles/kml/shapes/cabs.png</href></Icon><hotSpot x="0.5" y="0" xunits="fraction" yunits="fraction"/></IconStyle><LabelStyle><scale>0.7</scale></LabelStyle></Style>
<Style id="w_groc_s"><IconStyle><color>ff00ffff</color><scale>1.0</scale><Icon><href>http://maps.google.com/mapfiles/kml/shapes/cabs.png</href></Icon><hotSpot x="0.5" y="0" xunits="fraction" yunits="fraction"/></IconStyle><LabelStyle><scale>0.7</scale></LabelStyle></Style>
<StyleMap id="w_groc"><Pair><key>normal</key><styleUrl>#w_groc_n</styleUrl></Pair><Pair><key>highlight</key><styleUrl>#w_groc_s</styleUrl></Pair></StyleMap>
<Style id="w_grocC_n"><IconStyle><color>ff00ffff</color><scale>1.0</scale><Icon><href>http://maps.google.com/mapfiles/kml/shapes/truck.png</href></Icon><hotSpot x="0.5" y="0" xunits="fraction" yunits="fraction"/></IconStyle><LabelStyle><scale>0.7</scale></LabelStyle></Style>
<Style id="w_grocC_s"><IconStyle><color>ff00ffff</color><scale>1.4</scale><Icon><href>http://maps.google.com/mapfiles/kml/shapes/truck.png</href></Icon><hotSpot x="0.5" y="0" xunits="fraction" yunits="fraction"/></IconStyle><LabelStyle><scale>0.7</scale></LabelStyle></Style>
<StyleMap id="w_grocC"><Pair><key>normal</key><styleUrl>#w_grocC_n</styleUrl></Pair><Pair><key>highlight</key><styleUrl>#w_grocC_s</styleUrl></Pair></StyleMap>
<Style id="w_grocH_n"><IconStyle><color>ff0000ff</color><scale>1.2</scale><Icon><href>http://maps.google.com/mapfiles/kml/shapes/heliport.png</href></Icon><hotSpot x="0.5" y="0" xunits="fraction" yunits="fraction"/></IconStyle><LabelStyle><scale>0.7</scale></LabelStyle></Style>
<Style id="w_grocH_s"><IconStyle><color>ff0000ff</color><scale>1.4</scale><Icon><href>http://maps.google.com/mapfiles/kml/shapes/heliport.png</href></Icon><hotSpot x="0.5" y="0" xunits="fraction" yunits="fraction"/></IconStyle><LabelStyle><scale>0.7</scale></LabelStyle></Style>
<StyleMap id="w_grocH"><Pair><key>normal</key><styleUrl>#w_grocH_n</styleUrl></Pair><Pair><key>highlight</key><styleUrl>#w_grocH_s</styleUrl></Pair></StyleMap>
<Style id="w_grocA_n"><IconStyle><color>ff0000ff</color><scale>1.2</scale><Icon><href>http://maps.google.com/mapfiles/kml/shapes/airports.png</href></Icon><hotSpot x="0.5" y="0" xunits="fraction" yunits="fraction"/></IconStyle><LabelStyle><scale>0.7</scale></LabelStyle></Style>
<Style id="w_grocA_s"><IconStyle><color>ff0000ff</color><scale>1.4</scale><Icon><href>http://maps.google.com/mapfiles/kml/shapes/airports.png</href></Icon><hotSpot x="0.5" y="0" xunits="fraction" yunits="fraction"/></IconStyle><LabelStyle><scale>0.7</scale></LabelStyle></Style>
<StyleMap id="w_grocA"><Pair><key>normal</key><styleUrl>#w_grocA_n</styleUrl></Pair><Pair><key>highlight</key><styleUrl>#w_grocA_s</styleUrl></Pair></StyleMap>
<Style id="w_grocB_n"><IconStyle><color>ff00ffff</color><scale>1.0</scale><Icon><href>http://maps.google.com/mapfiles/kml/shapes/sailing.png</href></Icon><hotSpot x="0.5" y="0" xunits="fraction" yunits="fraction"/></IconStyle><LabelStyle><scale>0.7</scale></LabelStyle></Style>
<Style id="w_grocB_s"><IconStyle><color>ff00ffff</color><scale>1.4</scale><Icon><href>http://maps.google.com/mapfiles/kml/shapes/sailing.png</href></Icon><hotSpot x="0.5" y="0" xunits="fraction" yunits="fraction"/></IconStyle><LabelStyle><scale>0.7</scale></LabelStyle></Style>
<StyleMap id="w_grocB"><Pair><key>normal</key><styleUrl>#w_grocBAR_n</styleUrl></Pair><Pair><key>highlight</key><styleUrl>#w_grocBAR_s</styleUrl></Pair></StyleMap>
<Style id="w_vermellP_n"><IconStyle><color>ff0000ff</color><scale>1.0</scale><Icon><href>http://maps.google.com/mapfiles/kml/shapes/man.png</href></Icon><hotSpot x="0.5" y="0" xunits="fraction" yunits="fraction"/></IconStyle><LabelStyle><scale>0.7</scale></LabelStyle></Style>
<Style id="w_vermellP_s"><IconStyle><color>ff0000ff</color><scale>1.4</scale><Icon><href>http://maps.google.com/mapfiles/kml/shapes/man.png</href></Icon><hotSpot x="0.5" y="0" xunits="fraction" yunits="fraction"/></IconStyle><LabelStyle><scale>0.7</scale></LabelStyle></Style>
<StyleMap id="w_vermellP"><Pair><key>normal</key><styleUrl>#w_vermellP_n</styleUrl></Pair><Pair><key>highlight</key><styleUrl>#w_vermellP_s</styleUrl></Pair></StyleMap>
<Style id="w_vermell_n"><IconStyle><color>ff0000ff</color><scale>0.7</scale><Icon><href>http://maps.google.com/mapfiles/kml/shapes/cabs.png</href></Icon><hotSpot x="0.5" y="0" xunits="fraction" yunits="fraction"/></IconStyle><LabelStyle><scale>0.7</scale></LabelStyle></Style>
<Style id="w_vermell_s"><IconStyle><color>ff0000ff</color><scale>1.0</scale><Icon><href>http://maps.google.com/mapfiles/kml/shapes/cabs.png</href></Icon><hotSpot x="0.5" y="0" xunits="fraction" yunits="fraction"/></IconStyle><LabelStyle><scale>0.7</scale></LabelStyle></Style>
<StyleMap id="w_vermell"><Pair><key>normal</key><styleUrl>#w_vermell_n</styleUrl></Pair><Pair><key>highlight</key><styleUrl>#w_vermell_s</styleUrl></Pair></StyleMap>
<Style id="w_vermellC_n"><IconStyle><color>ff0000ff</color><scale>1.0</scale><Icon><href>http://maps.google.com/mapfiles/kml/shapes/truck.png</href></Icon><hotSpot x="0.5" y="0" xunits="fraction" yunits="fraction"/></IconStyle><LabelStyle><scale>0.7</scale></LabelStyle></Style>
<Style id="w_vermellC_s"><IconStyle><color>ff0000ff</color><scale>1.4</scale><Icon><href>http://maps.google.com/mapfiles/kml/shapes/truck.png</href></Icon><hotSpot x="0.5" y="0" xunits="fraction" yunits="fraction"/></IconStyle><LabelStyle><scale>0.7</scale></LabelStyle></Style>
<StyleMap id="w_vermellC"><Pair><key>normal</key><styleUrl>#w_vermellC_n</styleUrl></Pair><Pair><key>highlight</key><styleUrl>#w_vermellC_s</styleUrl></Pair></StyleMap>
<Style id="w_vermellH_n"><IconStyle><color>ff0000ff</color><scale>1.2</scale><Icon><href>http://maps.google.com/mapfiles/kml/shapes/heliport.png</href></Icon><hotSpot x="0.5" y="0" xunits="fraction" yunits="fraction"/></IconStyle><LabelStyle><scale>0.7</scale></LabelStyle></Style>
<Style id="w_vermellH_s"><IconStyle><color>ff0000ff</color><scale>1.4</scale><Icon><href>http://maps.google.com/mapfiles/kml/shapes/heliport.png</href></Icon><hotSpot x="0.5" y="0" xunits="fraction" yunits="fraction"/></IconStyle><LabelStyle><scale>0.7</scale></LabelStyle></Style>
<StyleMap id="w_vermellH"><Pair><key>normal</key><styleUrl>#w_vermellH_n</styleUrl></Pair><Pair><key>highlight</key><styleUrl>#w_vermellH_s</styleUrl></Pair></StyleMap>
<Style id="w_vermellA_n"><IconStyle><color>ff0000ff</color><scale>1.2</scale><Icon><href>http://maps.google.com/mapfiles/kml/shapes/airports.png</href></Icon><hotSpot x="0.5" y="0" xunits="fraction" yunits="fraction"/></IconStyle><LabelStyle><scale>0.7</scale></LabelStyle></Style>
<Style id="w_vermellA_s"><IconStyle><color>ff0000ff</color><scale>1.4</scale><Icon><href>http://maps.google.com/mapfiles/kml/shapes/airports.png</href></Icon><hotSpot x="0.5" y="0" xunits="fraction" yunits="fraction"/></IconStyle><LabelStyle><scale>0.7</scale></LabelStyle></Style>
<StyleMap id="w_vermellA"><Pair><key>normal</key><styleUrl>#w_vermellA_n</styleUrl></Pair><Pair><key>highlight</key><styleUrl>#w_vermellA_s</styleUrl></Pair></StyleMap>
<Style id="w_vermellB_n"><IconStyle><color>ff0000ff</color><scale>1.0</scale><Icon><href>http://maps.google.com/mapfiles/kml/shapes/sailing.png</href></Icon><hotSpot x="0.5" y="0" xunits="fraction" yunits="fraction"/></IconStyle><LabelStyle><scale>0.7</scale></LabelStyle></Style>
<Style id="w_vermellB_s"><IconStyle><color>ff0000ff</color><scale>1.4</scale><Icon><href>http://maps.google.com/mapfiles/kml/shapes/sailing.png</href></Icon><hotSpot x="0.5" y="0" xunits="fraction" yunits="fraction"/></IconStyle><LabelStyle><scale>0.7</scale></LabelStyle></Style>
<StyleMap id="w_vermellB"><Pair><key>normal</key><styleUrl>#w_vermellBAR_n</styleUrl></Pair><Pair><key>highlight</key><styleUrl>#w_vermellBAR_s</styleUrl></Pair></StyleMap>
<Style id="w_descarrega"><IconStyle><color>ff00ffff</color><scale>0.5</scale><Icon><href>http://maps.google.com/mapfiles/kml/shapes/road_shield3.png</href></Icon></IconStyle><LabelStyle><scale>0.7</scale></LabelStyle></Style><Style id="actuacio"><IconStyle><color>ff00ffff</color><scale>0.8</scale><Icon><href>http://maps.google.com/mapfiles/kml/shapes/caution.png</href></Icon></IconStyle><LabelStyle><scale>0.7</scale></LabelStyle></Style></Document></kml>