<?xml version="1.0" encoding="UTF-8"?>
<kml xmlns="http://www.opengis.net/kml/2.2" xmlns:gx="http://www.google.com/kml/ext/2.2" xmlns:kml="http://www.opengis.net/kml/2.2" xmlns:atom="http://www.w3.org/2005/Atom">
<Document>
<name>Terminals</name>
<Snippet maxLines="2">Created 04/08/2018 01:21:30</Snippet>
<Folder>
<name>Terminals</name>
<Placemark><name>OP05081</name><description>205281 OP.AAV
posicio de les: 04/08/2018 01:19:01</description><styleUrl>#w_verdP</styleUrl><Point><coordinates>2.10718631744385,41.5170657634735,0</coordinates></Point></Placemark>
<Placemark><name>VIEL12</name><description>208012 P.PT VARAN
posicio de les: 04/08/2018 01:20:50</description><styleUrl>#w_grocP</styleUrl><Point><coordinates>0.801100730895996,42.6994585990906,0</coordinates></Point></Placemark>
<Placemark><name>VIEL17</name><description>208017 BASE CCA VARAN
posicio de les: 04/08/2018 01:20:02</description><styleUrl>#w_verd</styleUrl><Point><coordinates>0.796637535095215,42.7083742618561,0</coordinates></Point></Placemark>
<Placemark><name>GE100</name><description>210017 P.Tec REGIÓ
posicio de les: 04/08/2018 01:19:33</description><styleUrl>#w_verdP</styleUrl><Point><coordinates>1.85172200202942,41.7407727241516,0</coordinates></Point></Placemark>
<Placemark><name>10071</name><description>210071  REGIÓ
posicio de les: 04/08/2018 01:20:37</description><styleUrl>#w_verd</styleUrl><Point><coordinates>1.85397505760193,41.7425858974457,0</coordinates></Point></Placemark>
<Placemark><name>BER57</name><description>210357 PORT.COM BER (Centre)
posicio de les: 04/08/2018 01:21:10</description><styleUrl>#w_verdP</styleUrl><Point><coordinates>1.85771942138672,42.103933095932,0</coordinates></Point></Placemark>
<Placemark><name>10831</name><description>210831 BRP GUA (Centre)
posicio de les: 04/08/2018 01:21:31</description><styleUrl>#w_verdC</styleUrl><Point><coordinates>1.75153613090515,42.2262847423553,0</coordinates></Point></Placemark>
<Placemark><name>211130</name><description>211130 BRP MOI (Centre)
posicio de les: 04/08/2018 01:19:29</description><styleUrl>#w_grocC</styleUrl><Point><coordinates>2.08638310432434,41.8114972114563,0</coordinates></Point></Placemark>
<Placemark><name>PRA07</name><description>211407 PORT PRA (Centre)
posicio de les: 04/08/2018 01:20:43</description><styleUrl>#w_grocP</styleUrl><Point><coordinates>2.03610777854919,42.0081031322479,0</coordinates></Point></Placemark>
<Placemark><name>PUIG08</name><description>211508 PORT PUIG (Centre)
posicio de les: 04/08/2018 01:18:53</description><styleUrl>#w_verdP</styleUrl><Point><coordinates>1.90292000770569,42.4301648139954,0</coordinates></Point></Placemark>
<Placemark><name>SOLS05</name><description>211905 PORT SOLS (Centre)
posicio de les: 04/08/2018 01:20:40</description><styleUrl>#w_grocP</styleUrl><Point><coordinates>1.51259422302246,41.9895851612091,0</coordinates></Point></Placemark>
<Placemark><name>VIC04</name><description>212104 PORT VIC (Centre)
posicio de les: 04/08/2018 01:20:49</description><styleUrl>#w_verdP</styleUrl><Point><coordinates>2.26939558982849,41.9417238235474,0</coordinates></Point></Placemark>
<Placemark><name>20091</name><description>220091  REGIÓ
posicio de les: 04/08/2018 01:19:56</description><styleUrl>#w_groc</styleUrl><Point><coordinates>2.8059983253479,41.9601881504059,0</coordinates></Point></Placemark>
<Placemark><name>20134</name><description>220134 BFP AMER (Girona)
posicio de les: 04/08/2018 01:17:55</description><styleUrl>#w_grocC</styleUrl><Point><coordinates>3.1535267829895,42.3580992221832,0</coordinates></Point></Placemark>
<Placemark><name>BANY56</name><description>220356 PORT.COM BANY (Girona)
posicio de les: 04/08/2018 01:19:59</description><styleUrl>#w_verdP</styleUrl><Point><coordinates>2.78544187545776,42.1173119544983,0</coordinates></Point></Placemark>
<Placemark><name>220656</name><description>220656 PORT.COM CALO (Girona)
posicio de les: 04/08/2018 01:18:57</description><styleUrl>#w_verdP</styleUrl><Point><coordinates>3.07492733001709,41.8525779247284,0</coordinates></Point></Placemark>
<Placemark><name>CASS04</name><description>220804 PORT CASS (Girona)
posicio de les: 04/08/2018 01:19:14</description><styleUrl>#w_verdP</styleUrl><Point><coordinates>2.88347125053406,41.8799257278442,0</coordinates></Point></Placemark>
<Placemark><name>20830</name><description>220830 BRP CASS (Girona)
posicio de les: 04/08/2018 01:20:34</description><styleUrl>#w_verdC</styleUrl><Point><coordinates>2.88322448730469,41.8796360492706,0</coordinates></Point></Placemark>
<Placemark><name>CASS56</name><description>220856 PORT.COM CASS (Girona)
posicio de les: 04/08/2018 01:19:54</description><styleUrl>#w_verdP</styleUrl><Point><coordinates>2.88431882858276,41.8792927265167,0</coordinates></Point></Placemark>
<Placemark><name>GIRO06</name><description>221106 PORT GIRO (Girona)
posicio de les: 04/08/2018 01:21:01</description><styleUrl>#w_verdP</styleUrl><Point><coordinates>2.80598759651184,41.9602203369141,0</coordinates></Point></Placemark>
<Placemark><name>JONQ56</name><description>221356 PORT.COM JONQ (Girona)
posicio de les: 04/08/2018 01:21:17</description><styleUrl>#w_grocP</styleUrl><Point><coordinates>2.87643313407898,42.4121081829071,0</coordinates></Point></Placemark>
<Placemark><name>LLAN57</name><description>221457 PORT.COM LLAN (Girona)
posicio de les: 04/08/2018 01:18:38</description><styleUrl>#w_verdP</styleUrl><Point><coordinates>3.15293669700623,42.3580348491669,0</coordinates></Point></Placemark>
<Placemark><name>LLOR56</name><description>221556 PORT.COM LLOR (Girona)
posicio de les: 04/08/2018 01:15:35</description><styleUrl>#w_verdP</styleUrl><Point><coordinates>2.83606052398682,41.6996383666992,0</coordinates></Point></Placemark>
<Placemark><name>MAÇA57</name><description>221657 PORT.COM MACA (Girona)
posicio de les: 04/08/2018 01:19:26</description><styleUrl>#w_grocP</styleUrl><Point><coordinates>2.75290131568909,41.7792892456055,0</coordinates></Point></Placemark>
<Placemark><name>OLOT01</name><description>221701 PORT OLOT (Girona)
posicio de les: 04/08/2018 01:19:51</description><styleUrl>#w_verdP</styleUrl><Point><coordinates>3.16082239151001,42.2764205932617,0</coordinates></Point></Placemark>
<Placemark><name>OLOT56</name><description>221756 PORT.COM OLOT (Girona)
posicio de les: 04/08/2018 01:19:17</description><styleUrl>#w_verdP</styleUrl><Point><coordinates>2.47454166412354,42.1901500225067,0</coordinates></Point></Placemark>
<Placemark><name>OLOT57</name><description>221757 PORT.COM OLOT (Girona)
posicio de les: 04/08/2018 01:19:40</description><styleUrl>#w_verdP</styleUrl><Point><coordinates>2.47447729110718,42.1902787685394,0</coordinates></Point></Placemark>
<Placemark><name>PALA56</name><description>221856 PORT.COM PALA (Girona)
posicio de les: 04/08/2018 01:20:35</description><styleUrl>#w_grocP</styleUrl><Point><coordinates>3.15617680549622,41.9256734848022,0</coordinates></Point></Placemark>
<Placemark><name>RIPO56</name><description>222156 PORT.COM RIPO (Girona)
posicio de les: 04/08/2018 01:18:48</description><styleUrl>#w_grocP</styleUrl><Point><coordinates>2.16810464859009,42.2153842449188,0</coordinates></Point></Placemark>
<Placemark><name>ROSE57</name><description>222257 PORT.COM ROSE (Girona)
posicio de les: 04/08/2018 01:19:36</description><styleUrl>#w_grocP</styleUrl><Point><coordinates>3.16082239151001,42.2761738300323,0</coordinates></Point></Placemark>
<Placemark><name>22430</name><description>222430 BRP SHIL (Girona)
posicio de les: 04/08/2018 01:19:36</description><styleUrl>#w_grocC</styleUrl><Point><coordinates>3.03160429000854,41.809093952179,0</coordinates></Point></Placemark>
<Placemark><name>22890</name><description>222890 UPC VALL (Girona)
posicio de les: 04/08/2018 01:21:12</description><styleUrl>#w_verd</styleUrl><Point><coordinates>3.03415775299072,41.8095982074738,0</coordinates></Point></Placemark>
<Placemark><name>D6REG</name><description>228046  SERVEIS REGIÓ
posicio de les: 04/08/2018 01:20:09</description><styleUrl>#w_verd</styleUrl><Point><coordinates>2.8066098690033,41.9604671001434,0</coordinates></Point></Placemark>
<Placemark><name>D0REL</name><description>230010 P.CG REGIÓ
posicio de les: 04/08/2018 01:20:13</description><styleUrl>#w_verdP</styleUrl><Point><coordinates>0.604784488677979,41.6232168674469,0</coordinates></Point></Placemark>
<Placemark><name>30082</name><description>230082  REGIÓ
posicio de les: 04/08/2018 01:20:44</description><styleUrl>#w_groc</styleUrl><Point><coordinates>0.805606842041016,41.7992877960205,0</coordinates></Point></Placemark>
<Placemark><name>BALA57</name><description>230657 PORT.COM BALA (Lleida)
posicio de les: 04/08/2018 01:20:41</description><styleUrl>#w_verdP</styleUrl><Point><coordinates>0.805531740188599,41.7991697788239,0</coordinates></Point></Placemark>
<Placemark><name>BORG01</name><description>230701 PORT BORG (Lleida)
posicio de les: 04/08/2018 01:19:23</description><styleUrl>#w_verdP</styleUrl><Point><coordinates>0.844895839691162,41.5070450305939,0</coordinates></Point></Placemark>
<Placemark><name>BORG02</name><description>230702 PORT BORG (Lleida)
posicio de les: 04/08/2018 01:19:28</description><styleUrl>#w_verdP</styleUrl><Point><coordinates>0.879507064819336,41.6393530368805,0</coordinates></Point></Placemark>
<Placemark><name>BORG06</name><description>230706 PORT BORG (Lleida)
posicio de les: 04/08/2018 01:19:50</description><styleUrl>#w_verdP</styleUrl><Point><coordinates>0.879271030426025,41.6399002075195,0</coordinates></Point></Placemark>
<Placemark><name>BORG07</name><description>230707 PORT BORG (Lleida)
posicio de les: 04/08/2018 01:21:04</description><styleUrl>#w_grocP</styleUrl><Point><coordinates>0.879142284393311,41.6397285461426,0</coordinates></Point></Placemark>
<Placemark><name>30730</name><description>230730 BRP BORG (Lleida)
posicio de les: 04/08/2018 01:18:44</description><styleUrl>#w_grocC</styleUrl><Point><coordinates>0.879249572753906,41.6397500038147,0</coordinates></Point></Placemark>
<Placemark><name>30748</name><description>230748 BUL BORG (Lleida)
posicio de les: 04/08/2018 01:18:38</description><styleUrl>#w_grocC</styleUrl><Point><coordinates>0.879099369049072,41.6397607326508,0</coordinates></Point></Placemark>
<Placemark><name>BORG56</name><description>230756 PORT.COM BORG (Lleida)
posicio de les: 04/08/2018 01:20:55</description><styleUrl>#w_verdP</styleUrl><Point><coordinates>0.844681262969971,41.5071415901184,0</coordinates></Point></Placemark>
<Placemark><name>CERV08</name><description>230908 PORT CERV (Lleida)
posicio de les: 04/08/2018 01:20:42</description><styleUrl>#w_verdP</styleUrl><Point><coordinates>1.26513361930847,41.6712605953217,0</coordinates></Point></Placemark>
<Placemark><name>ISON56</name><description>231556 PORT.COM ISON (Lleida)
posicio de les: 04/08/2018 01:19:37</description><styleUrl>#w_verdP</styleUrl><Point><coordinates>1.04889392852783,42.1170330047607,0</coordinates></Point></Placemark>
<Placemark><name>LLEI13</name><description>231913 PORT LLEI (Lleida)
posicio de les: 04/08/2018 01:18:21</description><styleUrl>#w_verdP</styleUrl><Point><coordinates>0.603883266448975,41.6237425804138,0</coordinates></Point></Placemark>
<Placemark><name>31948</name><description>231948 BUL LLEI (Lleida)
posicio de les: 04/08/2018 01:21:24</description><styleUrl>#w_grocC</styleUrl><Point><coordinates>0.607670545578003,41.6119730472565,0</coordinates></Point></Placemark>
<Placemark><name>31990</name><description>231990 UPC LLEI (Lleida)
posicio de les: 04/08/2018 01:20:41</description><styleUrl>#w_groc</styleUrl><Point><coordinates>0.607852935791016,41.6120588779449,0</coordinates></Point></Placemark>
<Placemark><name>MOLL07</name><description>232007 PORT MOLL (Lleida)
posicio de les: 04/08/2018 01:20:46</description><styleUrl>#w_grocP</styleUrl><Point><coordinates>0.898250341415405,41.6364669799805,0</coordinates></Point></Placemark>
<Placemark><name>32031</name><description>232031 BRP MOLL (Lleida)
posicio de les: 04/08/2018 01:19:52</description><styleUrl>#w_grocC</styleUrl><Point><coordinates>0.898185968399048,41.6363918781281,0</coordinates></Point></Placemark>
<Placemark><name>POBL01</name><description>232401 PORT POBL (Lleida)
posicio de les: 04/08/2018 01:18:22</description><styleUrl>#w_verdP</styleUrl><Point><coordinates>0.964457988739014,42.2389876842499,0</coordinates></Point></Placemark>
<Placemark><name>REMN11</name><description>240011 P.Tec REGIÓ
posicio de les: 04/08/2018 01:21:00</description><styleUrl>#w_grocP</styleUrl><Point><coordinates>2.11147785186768,41.5020024776459,0</coordinates></Point></Placemark>
<Placemark><name>40081</name><description>240081  REGIÓ
posicio de les: 04/08/2018 01:16:53</description><styleUrl>#w_groc</styleUrl><Point><coordinates>2.11236834526062,41.5022492408752,0</coordinates></Point></Placemark>
<Placemark><name>40091</name><description>240091  REGIÓ
posicio de les: 04/08/2018 01:17:58</description><styleUrl>#w_groc</styleUrl><Point><coordinates>2.11191773414612,41.5023243427277,0</coordinates></Point></Placemark>
<Placemark><name>40148</name><description>240148 BUL ARE (Metro. Nord)
posicio de les: 04/08/2018 01:18:35</description><styleUrl>#w_grocC</styleUrl><Point><coordinates>2.58814930915833,41.5999352931976,0</coordinates></Point></Placemark>
<Placemark><name>ARE56</name><description>240156 PORT.COM ARE (Metro. Nord)
posicio de les: 04/08/2018 01:20:38</description><styleUrl>#w_grocP</styleUrl><Point><coordinates>2.58797764778137,41.5999245643616,0</coordinates></Point></Placemark>
<Placemark><name>40290</name><description>240290 UPC BAD (Metro. Nord)
posicio de les: 04/08/2018 01:17:26</description><styleUrl>#w_groc</styleUrl><Point><coordinates>2.20923900604248,41.4632821083069,0</coordinates></Point></Placemark>
<Placemark><name>CER06</name><description>240506 PORT CER (Metro. Nord)
posicio de les: 04/08/2018 01:18:23</description><styleUrl>#w_verdP</styleUrl><Point><coordinates>2.11160659790039,41.5022814273834,0</coordinates></Point></Placemark>
<Placemark><name>40690</name><description>240690 UPC GRA (Metro. Nord)
posicio de les: 04/08/2018 01:18:11</description><styleUrl>#w_groc</styleUrl><Point><coordinates>2.42278575897217,41.5316998958588,0</coordinates></Point></Placemark>
<Placemark><name>MAT07</name><description>240907 PORT MAT (Metro. Nord)
posicio de les: 04/08/2018 01:19:57</description><styleUrl>#w_verdP</styleUrl><Point><coordinates>2.58820295333862,41.5999031066895,0</coordinates></Point></Placemark>
<Placemark><name>240950</name><description>240950 FSV/FRQ/FER/FRM/FRA/FSA MAT (Metro. Nord)
posicio de les: 04/08/2018 01:20:46</description><styleUrl>#w_grocC</styleUrl><Point><coordinates>2.58768796920776,41.5997636318207,0</coordinates></Point></Placemark>
<Placemark><name>MOL03</name><description>241003 PORT MOL (Metro. Nord)
posicio de les: 04/08/2018 01:19:02</description><styleUrl>#w_verdP</styleUrl><Point><coordinates>2.20136404037476,41.5368711948395,0</coordinates></Point></Placemark>
<Placemark><name>241048</name><description>241048 BUL MOL (Metro. Nord)
posicio de les: 04/08/2018 01:19:01</description><styleUrl>#w_verdC</styleUrl><Point><coordinates>2.20199704170227,41.5367424488068,0</coordinates></Point></Placemark>
<Placemark><name>MOL56</name><description>241056 PORT.COM MOL (Metro. Nord)
posicio de les: 04/08/2018 01:18:57</description><styleUrl>#w_verdP</styleUrl><Point><coordinates>2.20199704170227,41.5367960929871,0</coordinates></Point></Placemark>
<Placemark><name>RUB01</name><description>241301 PORT RUB (Metro. Nord)
posicio de les: 04/08/2018 01:19:22</description><styleUrl>#w_verdP</styleUrl><Point><coordinates>2.03509926795959,41.4738285541534,0</coordinates></Point></Placemark>
<Placemark><name>241440</name><description>241440 BUP SAB (Metro. Nord)
posicio de les: 04/08/2018 01:17:35</description><styleUrl>#w_grocC</styleUrl><Point><coordinates>2.10372090339661,41.5427505970001,0</coordinates></Point></Placemark>
<Placemark><name>241858</name><description>241858 BSAL SCG (Metro. Nord)
posicio de les: 04/08/2018 01:21:07</description><styleUrl>#w_verdB</styleUrl><Point><coordinates>2.20929265022278,41.4630782604218,0</coordinates></Point></Placemark>
<Placemark><name>242040</name><description>242040 BUP TER (Metro. Nord)
posicio de les: 04/08/2018 01:17:40</description><styleUrl>#w_verdC</styleUrl><Point><coordinates>2.02645182609558,41.5677165985107,0</coordinates></Point></Placemark>
<Placemark><name>242048</name><description>242048 BUL TER (Metro. Nord)
posicio de les: 04/08/2018 01:21:31</description><styleUrl>#w_verdC</styleUrl><Point><coordinates>2.03219175338745,41.5659248828888,0</coordinates></Point></Placemark>
<Placemark><name>TER57</name><description>242057 PORT.COM TER (Metro. Nord)
posicio de les: 04/08/2018 01:18:50</description><styleUrl>#w_verdP</styleUrl><Point><coordinates>2.03439116477966,41.561107635498,0</coordinates></Point></Placemark>
<Placemark><name>42060</name><description>242060 AEA/AES/ABA TER (Metro. Nord)
posicio de les: 04/08/2018 01:21:03</description><styleUrl>#w_grocC</styleUrl><Point><coordinates>2.03462719917297,41.5604102611542,0</coordinates></Point></Placemark>
<Placemark><name>D3REMN</name><description>248043  SERVEIS REGIÓ
posicio de les: 04/08/2018 01:19:48</description><styleUrl>#w_verd</styleUrl><Point><coordinates>2.1124541759491,41.5022277832031,0</coordinates></Point></Placemark>
<Placemark><name>REMS14</name><description>250014 P.Tec REGIÓ
posicio de les: 04/08/2018 01:19:44</description><styleUrl>#w_verdP</styleUrl><Point><coordinates>2.03418731689453,41.3224768638611,0</coordinates></Point></Placemark>
<Placemark><name>50092</name><description>250092  REGIÓ
posicio de les: 04/08/2018 01:17:24</description><styleUrl>#w_verd</styleUrl><Point><coordinates>1.71384572982788,41.2196087837219,0</coordinates></Point></Placemark>
<Placemark><name>50093</name><description>250093  REGIÓ
posicio de les: 04/08/2018 01:20:24</description><styleUrl>#w_verd</styleUrl><Point><coordinates>2.03428387641907,41.3228631019592,0</coordinates></Point></Placemark>
<Placemark><name>COR07</name><description>250407 PORT COR (Metro. Sud)
posicio de les: 04/08/2018 01:18:06</description><styleUrl>#w_verdP</styleUrl><Point><coordinates>2.07106232643127,41.3604784011841,0</coordinates></Point></Placemark>
<Placemark><name>COR56</name><description>250456 PORT.COM COR (Metro. Sud)
posicio de les: 04/08/2018 01:21:12</description><styleUrl>#w_verdP</styleUrl><Point><coordinates>2.07051515579224,41.3607251644135,0</coordinates></Point></Placemark>
<Placemark><name>GAV09</name><description>250509 PORT GAV (Metro. Sud)
posicio de les: 04/08/2018 01:19:56</description><styleUrl>#w_verdP</styleUrl><Point><coordinates>1.99068188667297,41.299946308136,0</coordinates></Point></Placemark>
<Placemark><name>GAV57</name><description>250557 PORT.COM GAV (Metro. Sud)
posicio de les: 04/08/2018 01:20:12</description><styleUrl>#w_grocP</styleUrl><Point><coordinates>1.99013471603394,41.299957036972,0</coordinates></Point></Placemark>
<Placemark><name>250806</name><description>250806 PORT IGU (Metro. Sud)
posicio de les: 04/08/2018 01:15:47</description><styleUrl>#w_verdP</styleUrl><Point><coordinates>1.61021590232849,41.5894746780396,0</coordinates></Point></Placemark>
<Placemark><name>IGU20E</name><description>250820 PORT IGU (Metro. Sud)
posicio de les: 04/08/2018 01:19:51</description><styleUrl>#w_grocP</styleUrl><Point><coordinates>1.61011934280396,41.5892922878265,0</coordinates></Point></Placemark>
<Placemark><name>MAR01</name><description>251001 PORT MAR (Metro. Sud)
posicio de les: 04/08/2018 01:19:43</description><styleUrl>#w_verdP</styleUrl><Point><coordinates>1.90779089927673,41.4985048770905,0</coordinates></Point></Placemark>
<Placemark><name>MAR10</name><description>251010 PORT MAR (Metro. Sud)
posicio de les: 04/08/2018 01:20:28</description><styleUrl>#w_verdP</styleUrl><Point><coordinates>1.90771579742432,41.4986872673035,0</coordinates></Point></Placemark>
<Placemark><name>MAR11</name><description>251011 PORT MAR (Metro. Sud)
posicio de les: 04/08/2018 01:21:24</description><styleUrl>#w_verdP</styleUrl><Point><coordinates>1.90784454345703,41.4987087249756,0</coordinates></Point></Placemark>
<Placemark><name>MAR56</name><description>251056 PORT.COM MAR (Metro. Sud)
posicio de les: 04/08/2018 01:19:40</description><styleUrl>#w_verdP</styleUrl><Point><coordinates>1.90785527229309,41.4990198612213,0</coordinates></Point></Placemark>
<Placemark><name>PLL03</name><description>251203 PORT PLL (Metro. Sud)
posicio de les: 04/08/2018 01:20:45</description><styleUrl>#w_verdP</styleUrl><Point><coordinates>2.08174824714661,41.3173484802246,0</coordinates></Point></Placemark>
<Placemark><name>SBOI02</name><description>251302 PORT SBOI (Metro. Sud)
posicio de les: 04/08/2018 01:21:30</description><styleUrl>#w_grocP</styleUrl><Point><coordinates>2.03410148620605,41.3228952884674,0</coordinates></Point></Placemark>
<Placemark><name>SFE03</name><description>251503 PORT SFE (Metro. Sud)
posicio de les: 04/08/2018 01:19:54</description><styleUrl>#w_grocP</styleUrl><Point><coordinates>2.04286694526672,41.3886415958405,0</coordinates></Point></Placemark>
<Placemark><name>VIF03</name><description>251803 PORT VIF (Metro. Sud)
posicio de les: 04/08/2018 01:19:43</description><styleUrl>#w_grocP</styleUrl><Point><coordinates>1.70397520065308,41.3546419143677,0</coordinates></Point></Placemark>
<Placemark><name>51860</name><description>251860 AEA/AES/ABA VIF (Metro. Sud)
posicio de les: 04/08/2018 01:16:35</description><styleUrl>#w_grocC</styleUrl><Point><coordinates>1.70467257499695,41.3547492027283,0</coordinates></Point></Placemark>
<Placemark><name>51930</name><description>251930 BRP VIL (Metro. Sud)
posicio de les: 04/08/2018 01:20:36</description><styleUrl>#w_verdC</styleUrl><Point><coordinates>1.72970294952393,41.234039068222,0</coordinates></Point></Placemark>
<Placemark><name>260508</name><description>260508 PORT HOSP (Tarragona)
posicio de les: 04/08/2018 01:21:14</description><styleUrl>#w_verdP</styleUrl><Point><coordinates>0.919836759567261,40.9936165809631,0</coordinates></Point></Placemark>
<Placemark><name>TARR01</name><description>261201 PORT TARR (Tarragona)
posicio de les: 04/08/2018 01:21:30</description><styleUrl>#w_verdP</styleUrl><Point><coordinates>1.18465662002563,41.1351084709167,0</coordinates></Point></Placemark>
<Placemark><name>TARR04</name><description>261204 PORT TARR (Tarragona)
posicio de les: 04/08/2018 01:20:39</description><styleUrl>#w_verdP</styleUrl><Point><coordinates>1.22213244438171,41.1140692234039,0</coordinates></Point></Placemark>
<Placemark><name>SCRET</name><description>268001 P.COMODIN SERVEIS REGIÓ
posicio de les: 04/08/2018 01:19:51</description><styleUrl>#w_verdP</styleUrl><Point><coordinates>1.18520379066467,41.1349260807037,0</coordinates></Point></Placemark>
<Placemark><name>E00RETE</name><description>270014 P.Tec REGIÓ
posicio de les: 04/08/2018 01:20:29</description><styleUrl>#w_grocP</styleUrl><Point><coordinates>0.513417720794678,40.8191120624542,0</coordinates></Point></Placemark>
<Placemark><name>AMPO57</name><description>272157 PORT.COM AMPO (Terres de l'Ebre)
posicio de les: 04/08/2018 01:19:00</description><styleUrl>#w_grocP</styleUrl><Point><coordinates>0.579625368118286,40.6893253326416,0</coordinates></Point></Placemark>
<Placemark><name>ASCO56</name><description>272256 PORT.COM ASCO (Terres de l'Ebre)
posicio de les: 04/08/2018 01:20:36</description><styleUrl>#w_grocP</styleUrl><Point><coordinates>0.56878924369812,41.1876690387726,0</coordinates></Point></Placemark>
<Placemark><name>MORA06</name><description>272806 PORT MORA (Terres de l'Ebre)
posicio de les: 04/08/2018 01:19:50</description><styleUrl>#w_verdP</styleUrl><Point><coordinates>0.629771947860718,41.0863995552063,0</coordinates></Point></Placemark>
<Placemark><name>ULLD08</name><description>273108 PORT ULLD (Terres de l'Ebre)
posicio de les: 04/08/2018 01:20:04</description><styleUrl>#w_grocP</styleUrl><Point><coordinates>0.358289480209351,40.6083118915558,0</coordinates></Point></Placemark>
</Folder>
<Folder>
<name>Descarregues</name>
</Folder>
<Style id="w_verdP_n"><IconStyle><color>ff00ff00</color><scale>1.0</scale><Icon><href>http://maps.google.com/mapfiles/kml/shapes/man.png</href></Icon><hotSpot x="0.5" y="0" xunits="fraction" yunits="fraction"/></IconStyle><LabelStyle><scale>0.7</scale></LabelStyle></Style>
<Style id="w_verdP_s"><IconStyle><color>ff00ff00</color><scale>1.4</scale><Icon><href>http://maps.google.com/mapfiles/kml/shapes/man.png</href></Icon><hotSpot x="0.5" y="0" xunits="fraction" yunits="fraction"/></IconStyle><LabelStyle><scale>0.7</scale></LabelStyle></Style>
<StyleMap id="w_verdP"><Pair><key>normal</key><styleUrl>#w_verdP_n</styleUrl></Pair><Pair><key>highlight</key><styleUrl>#w_verdP_s</styleUrl></Pair></StyleMap>
<Style id="w_verd_n"><IconStyle><color>ff00ff00</color><scale>0.7</scale><Icon><href>http://maps.google.com/mapfiles/kml/shapes/cabs.png</href></Icon><hotSpot x="0.5" y="0" xunits="fraction" yunits="fraction"/></IconStyle><LabelStyle><scale>0.7</scale></LabelStyle></Style>
<Style id="w_verd_s"><IconStyle><color>ff00ff00</color><scale>1.0</scale><Icon><href>http://maps.google.com/mapfiles/kml/shapes/cabs.png</href></Icon><hotSpot x="0.5" y="0" xunits="fraction" yunits="fraction"/></IconStyle><LabelStyle><scale>0.7</scale></LabelStyle></Style>
<StyleMap id="w_verd"><Pair><key>normal</key><styleUrl>#w_verd_n</styleUrl></Pair><Pair><key>highlight</key><styleUrl>#w_verd_s</styleUrl></Pair></StyleMap>
<Style id="w_verdC_n"><IconStyle><color>ff00ff00</color><scale>1.0</scale><Icon><href>http://maps.google.com/mapfiles/kml/shapes/truck.png</href></Icon><hotSpot x="0.5" y="0" xunits="fraction" yunits="fraction"/></IconStyle><LabelStyle><scale>0.7</scale></LabelStyle></Style>
<Style id="w_verdC_s"><IconStyle><color>ff00ff00</color><scale>1.4</scale><Icon><href>http://maps.google.com/mapfiles/kml/shapes/truck.png</href></Icon><hotSpot x="0.5" y="0" xunits="fraction" yunits="fraction"/></IconStyle><LabelStyle><scale>0.7</scale></LabelStyle></Style>
<StyleMap id="w_verdC"><Pair><key>normal</key><styleUrl>#w_verdC_n</styleUrl></Pair><Pair><key>highlight</key><styleUrl>#w_verdC_s</styleUrl></Pair></StyleMap>
<Style id="w_verdH_n"><IconStyle><color>ff0000ff</color><scale>1.2</scale><Icon><href>http://maps.google.com/mapfiles/kml/shapes/heliport.png</href></Icon><hotSpot x="0.5" y="0" xunits="fraction" yunits="fraction"/></IconStyle><LabelStyle><scale>0.7</scale></LabelStyle></Style>
<Style id="w_verdH_s"><IconStyle><color>ff0000ff</color><scale>1.4</scale><Icon><href>http://maps.google.com/mapfiles/kml/shapes/heliport.png</href></Icon><hotSpot x="0.5" y="0" xunits="fraction" yunits="fraction"/></IconStyle><LabelStyle><scale>0.7</scale></LabelStyle></Style>
<StyleMap id="w_verdH"><Pair><key>normal</key><styleUrl>#w_verdH_n</styleUrl></Pair><Pair><key>highlight</key><styleUrl>#w_verdH_s</styleUrl></Pair></StyleMap>
<Style id="w_verdA_n"><IconStyle><color>ff0000ff</color><scale>1.2</scale><Icon><href>http://maps.google.com/mapfiles/kml/shapes/airports.png</href></Icon><hotSpot x="0.5" y="0" xunits="fraction" yunits="fraction"/></IconStyle><LabelStyle><scale>0.7</scale></LabelStyle></Style>
<Style id="w_verdA_s"><IconStyle><color>ff0000ff</color><scale>1.4</scale><Icon><href>http://maps.google.com/mapfiles/kml/shapes/airports.png</href></Icon><hotSpot x="0.5" y="0" xunits="fraction" yunits="fraction"/></IconStyle><LabelStyle><scale>0.7</scale></LabelStyle></Style>
<StyleMap id="w_verdA"><Pair><key>normal</key><styleUrl>#w_verdA_n</styleUrl></Pair><Pair><key>highlight</key><styleUrl>#w_verdA_s</styleUrl></Pair></StyleMap>
<Style id="w_verdB_n"><IconStyle><color>ff00ff00</color><scale>1.0</scale><Icon><href>http://maps.google.com/mapfiles/kml/shapes/sailing.png</href></Icon><hotSpot x="0.5" y="0" xunits="fraction" yunits="fraction"/></IconStyle><LabelStyle><scale>0.7</scale></LabelStyle></Style>
<Style id="w_verdB_s"><IconStyle><color>ff00ff00</color><scale>1.4</scale><Icon><href>http://maps.google.com/mapfiles/kml/shapes/sailing.png</href></Icon><hotSpot x="0.5" y="0" xunits="fraction" yunits="fraction"/></IconStyle><LabelStyle><scale>0.7</scale></LabelStyle></Style>
<StyleMap id="w_verdB"><Pair><key>normal</key><styleUrl>#w_verdBAR_n</styleUrl></Pair><Pair><key>highlight</key><styleUrl>#w_verdBAR_s</styleUrl></Pair></StyleMap>
<Style id="w_grocP_n"><IconStyle><color>ff00ffff</color><scale>1.0</scale><Icon><href>http://maps.google.com/mapfiles/kml/shapes/man.png</href></Icon><hotSpot x="0.5" y="0" xunits="fraction" yunits="fraction"/></IconStyle><LabelStyle><scale>0.7</scale></LabelStyle></Style>
<Style id="w_grocP_s"><IconStyle><color>ff00ffff</color><scale>1.4</scale><Icon><href>http://maps.google.com/mapfiles/kml/shapes/man.png</href></Icon><hotSpot x="0.5" y="0" xunits="fraction" yunits="fraction"/></IconStyle><LabelStyle><scale>0.7</scale></LabelStyle></Style>
<StyleMap id="w_grocP"><Pair><key>normal</key><styleUrl>#w_grocP_n</styleUrl></Pair><Pair><key>highlight</key><styleUrl>#w_grocP_s</styleUrl></Pair></StyleMap>
<Style id="w_groc_n"><IconStyle><color>ff00ffff</color><scale>0.7</scale><Icon><href>http://maps.google.com/mapfiles/kml/shapes/cabs.png</href></Icon><hotSpot x="0.5" y="0" xunits="fraction" yunits="fraction"/></IconStyle><LabelStyle><scale>0.7</scale></LabelStyle></Style>
<Style id="w_groc_s"><IconStyle><color>ff00ffff</color><scale>1.0</scale><Icon><href>http://maps.google.com/mapfiles/kml/shapes/cabs.png</href></Icon><hotSpot x="0.5" y="0" xunits="fraction" yunits="fraction"/></IconStyle><LabelStyle><scale>0.7</scale></LabelStyle></Style>
<StyleMap id="w_groc"><Pair><key>normal</key><styleUrl>#w_groc_n</styleUrl></Pair><Pair><key>highlight</key><styleUrl>#w_groc_s</styleUrl></Pair></StyleMap>
<Style id="w_grocC_n"><IconStyle><color>ff00ffff</color><scale>1.0</scale><Icon><href>http://maps.google.com/mapfiles/kml/shapes/truck.png</href></Icon><hotSpot x="0.5" y="0" xunits="fraction" yunits="fraction"/></IconStyle><LabelStyle><scale>0.7</scale></LabelStyle></Style>
<Style id="w_grocC_s"><IconStyle><color>ff00ffff</color><scale>1.4</scale><Icon><href>http://maps.google.com/mapfiles/kml/shapes/truck.png</href></Icon><hotSpot x="0.5" y="0" xunits="fraction" yunits="fraction"/></IconStyle><LabelStyle><scale>0.7</scale></LabelStyle></Style>
<StyleMap id="w_grocC"><Pair><key>normal</key><styleUrl>#w_grocC_n</styleUrl></Pair><Pair><key>highlight</key><styleUrl>#w_grocC_s</styleUrl></Pair></StyleMap>
<Style id="w_grocH_n"><IconStyle><color>ff0000ff</color><scale>1.2</scale><Icon><href>http://maps.google.com/mapfiles/kml/shapes/heliport.png</href></Icon><hotSpot x="0.5" y="0" xunits="fraction" yunits="fraction"/></IconStyle><LabelStyle><scale>0.7</scale></LabelStyle></Style>
<Style id="w_grocH_s"><IconStyle><color>ff0000ff</color><scale>1.4</scale><Icon><href>http://maps.google.com/mapfiles/kml/shapes/heliport.png</href></Icon><hotSpot x="0.5" y="0" xunits="fraction" yunits="fraction"/></IconStyle><LabelStyle><scale>0.7</scale></LabelStyle></Style>
<StyleMap id="w_grocH"><Pair><key>normal</key><styleUrl>#w_grocH_n</styleUrl></Pair><Pair><key>highlight</key><styleUrl>#w_grocH_s</styleUrl></Pair></StyleMap>
<Style id="w_grocA_n"><IconStyle><color>ff0000ff</color><scale>1.2</scale><Icon><href>http://maps.google.com/mapfiles/kml/shapes/airports.png</href></Icon><hotSpot x="0.5" y="0" xunits="fraction" yunits="fraction"/></IconStyle><LabelStyle><scale>0.7</scale></LabelStyle></Style>
<Style id="w_grocA_s"><IconStyle><color>ff0000ff</color><scale>1.4</scale><Icon><href>http://maps.google.com/mapfiles/kml/shapes/airports.png</href></Icon><hotSpot x="0.5" y="0" xunits="fraction" yunits="fraction"/></IconStyle><LabelStyle><scale>0.7</scale></LabelStyle></Style>
<StyleMap id="w_grocA"><Pair><key>normal</key><styleUrl>#w_grocA_n</styleUrl></Pair><Pair><key>highlight</key><styleUrl>#w_grocA_s</styleUrl></Pair></StyleMap>
<Style id="w_grocB_n"><IconStyle><color>ff00ffff</color><scale>1.0</scale><Icon><href>http://maps.google.com/mapfiles/kml/shapes/sailing.png</href></Icon><hotSpot x="0.5" y="0" xunits="fraction" yunits="fraction"/></IconStyle><LabelStyle><scale>0.7</scale></LabelStyle></Style>
<Style id="w_grocB_s"><IconStyle><color>ff00ffff</color><scale>1.4</scale><Icon><href>http://maps.google.com/mapfiles/kml/shapes/sailing.png</href></Icon><hotSpot x="0.5" y="0" xunits="fraction" yunits="fraction"/></IconStyle><LabelStyle><scale>0.7</scale></LabelStyle></Style>
<StyleMap id="w_grocB"><Pair><key>normal</key><styleUrl>#w_grocBAR_n</styleUrl></Pair><Pair><key>highlight</key><styleUrl>#w_grocBAR_s</styleUrl></Pair></StyleMap>
<Style id="w_vermellP_n"><IconStyle><color>ff0000ff</color><scale>1.0</scale><Icon><href>http://maps.google.com/mapfiles/kml/shapes/man.png</href></Icon><hotSpot x="0.5" y="0" xunits="fraction" yunits="fraction"/></IconStyle><LabelStyle><scale>0.7</scale></LabelStyle></Style>
<Style id="w_vermellP_s"><IconStyle><color>ff0000ff</color><scale>1.4</scale><Icon><href>http://maps.google.com/mapfiles/kml/shapes/man.png</href></Icon><hotSpot x="0.5" y="0" xunits="fraction" yunits="fraction"/></IconStyle><LabelStyle><scale>0.7</scale></LabelStyle></Style>
<StyleMap id="w_vermellP"><Pair><key>normal</key><styleUrl>#w_vermellP_n</styleUrl></Pair><Pair><key>highlight</key><styleUrl>#w_vermellP_s</styleUrl></Pair></StyleMap>
<Style id="w_vermell_n"><IconStyle><color>ff0000ff</color><scale>0.7</scale><Icon><href>http://maps.google.com/mapfiles/kml/shapes/cabs.png</href></Icon><hotSpot x="0.5" y="0" xunits="fraction" yunits="fraction"/></IconStyle><LabelStyle><scale>0.7</scale></LabelStyle></Style>
<Style id="w_vermell_s"><IconStyle><color>ff0000ff</color><scale>1.0</scale><Icon><href>http://maps.google.com/mapfiles/kml/shapes/cabs.png</href></Icon><hotSpot x="0.5" y="0" xunits="fraction" yunits="fraction"/></IconStyle><LabelStyle><scale>0.7</scale></LabelStyle></Style>
<StyleMap id="w_vermell"><Pair><key>normal</key><styleUrl>#w_vermell_n</styleUrl></Pair><Pair><key>highlight</key><styleUrl>#w_vermell_s</styleUrl></Pair></StyleMap>
<Style id="w_vermellC_n"><IconStyle><color>ff0000ff</color><scale>1.0</scale><Icon><href>http://maps.google.com/mapfiles/kml/shapes/truck.png</href></Icon><hotSpot x="0.5" y="0" xunits="fraction" yunits="fraction"/></IconStyle><LabelStyle><scale>0.7</scale></LabelStyle></Style>
<Style id="w_vermellC_s"><IconStyle><color>ff0000ff</color><scale>1.4</scale><Icon><href>http://maps.google.com/mapfiles/kml/shapes/truck.png</href></Icon><hotSpot x="0.5" y="0" xunits="fraction" yunits="fraction"/></IconStyle><LabelStyle><scale>0.7</scale></LabelStyle></Style>
<StyleMap id="w_vermellC"><Pair><key>normal</key><styleUrl>#w_vermellC_n</styleUrl></Pair><Pair><key>highlight</key><styleUrl>#w_vermellC_s</styleUrl></Pair></StyleMap>
<Style id="w_vermellH_n"><IconStyle><color>ff0000ff</color><scale>1.2</scale><Icon><href>http://maps.google.com/mapfiles/kml/shapes/heliport.png</href></Icon><hotSpot x="0.5" y="0" xunits="fraction" yunits="fraction"/></IconStyle><LabelStyle><scale>0.7</scale></LabelStyle></Style>
<Style id="w_vermellH_s"><IconStyle><color>ff0000ff</color><scale>1.4</scale><Icon><href>http://maps.google.com/mapfiles/kml/shapes/heliport.png</href></Icon><hotSpot x="0.5" y="0" xunits="fraction" yunits="fraction"/></IconStyle><LabelStyle><scale>0.7</scale></LabelStyle></Style>
<StyleMap id="w_vermellH"><Pair><key>normal</key><styleUrl>#w_vermellH_n</styleUrl></Pair><Pair><key>highlight</key><styleUrl>#w_vermellH_s</styleUrl></Pair></StyleMap>
<Style id="w_vermellA_n"><IconStyle><color>ff0000ff</color><scale>1.2</scale><Icon><href>http://maps.google.com/mapfiles/kml/shapes/airports.png</href></Icon><hotSpot x="0.5" y="0" xunits="fraction" yunits="fraction"/></IconStyle><LabelStyle><scale>0.7</scale></LabelStyle></Style>
<Style id="w_vermellA_s"><IconStyle><color>ff0000ff</color><scale>1.4</scale><Icon><href>http://maps.google.com/mapfiles/kml/shapes/airports.png</href></Icon><hotSpot x="0.5" y="0" xunits="fraction" yunits="fraction"/></IconStyle><LabelStyle><scale>0.7</scale></LabelStyle></Style>
<StyleMap id="w_vermellA"><Pair><key>normal</key><styleUrl>#w_vermellA_n</styleUrl></Pair><Pair><key>highlight</key><styleUrl>#w_vermellA_s</styleUrl></Pair></StyleMap>
<Style id="w_vermellB_n"><IconStyle><color>ff0000ff</color><scale>1.0</scale><Icon><href>http://maps.google.com/mapfiles/kml/shapes/sailing.png</href></Icon><hotSpot x="0.5" y="0" xunits="fraction" yunits="fraction"/></IconStyle><LabelStyle><scale>0.7</scale></LabelStyle></Style>
<Style id="w_vermellB_s"><IconStyle><color>ff0000ff</color><scale>1.4</scale><Icon><href>http://maps.google.com/mapfiles/kml/shapes/sailing.png</href></Icon><hotSpot x="0.5" y="0" xunits="fraction" yunits="fraction"/></IconStyle><LabelStyle><scale>0.7</scale></LabelStyle></Style>
<StyleMap id="w_vermellB"><Pair><key>normal</key><styleUrl>#w_vermellBAR_n</styleUrl></Pair><Pair><key>highlight</key><styleUrl>#w_vermellBAR_s</styleUrl></Pair></StyleMap>
<Style id="w_descarrega"><IconStyle><color>ff00ffff</color><scale>0.5</scale><Icon><href>http://maps.google.com/mapfiles/kml/shapes/road_shield3.png</href></Icon></IconStyle><LabelStyle><scale>0.7</scale></LabelStyle></Style><Style id="actuacio"><IconStyle><color>ff00ffff</color><scale>0.8</scale><Icon><href>http://maps.google.com/mapfiles/kml/shapes/caution.png</href></Icon></IconStyle><LabelStyle><scale>0.7</scale></LabelStyle></Style></Document></kml>