<?xml version="1.0" encoding="UTF-8"?>
<kml xmlns="http://www.opengis.net/kml/2.2" xmlns:gx="http://www.google.com/kml/ext/2.2" xmlns:kml="http://www.opengis.net/kml/2.2" xmlns:atom="http://www.w3.org/2005/Atom">
<Document>
<name>Terminals</name>
<Snippet maxLines="2">Created 06/08/2018 05:31:38</Snippet>
<Folder>
<name>Terminals</name>
<Placemark><name>A0103</name><description>200103 PORT Dept.
posicio de les: 06/08/2018 05:31:38</description><styleUrl>#w_verdP</styleUrl><Point><coordinates>0.757777690887451,42.588222026825,0</coordinates></Point></Placemark>
<Placemark><name>02063</name><description>202063 GEM
posicio de les: 06/08/2018 05:29:00</description><styleUrl>#w_verd</styleUrl><Point><coordinates>2.11202502250671,41.5027964115143,0</coordinates></Point></Placemark>
<Placemark><name>GRAEUT3</name><description>203003 GRAE
posicio de les: 06/08/2018 05:30:26</description><styleUrl>#w_verdP</styleUrl><Point><coordinates>1.85117483139038,41.7416095733643,0</coordinates></Point></Placemark>
<Placemark><name>GGRAF08</name><description>204208 P.UT
posicio de les: 06/08/2018 05:30:30</description><styleUrl>#w_verdP</styleUrl><Point><coordinates>2.97468781471252,42.0296466350555,0</coordinates></Point></Placemark>
<Placemark><name>LGRAF02</name><description>204302 P.UT
posicio de les: 06/08/2018 05:30:44</description><styleUrl>#w_grocP</styleUrl><Point><coordinates>0.889302492141724,42.1647012233734,0</coordinates></Point></Placemark>
<Placemark><name>BGRAF08</name><description>204408 P.UT
posicio de les: 06/08/2018 05:30:06</description><styleUrl>#w_verdP</styleUrl><Point><coordinates>1.85222625732422,41.7414915561676,0</coordinates></Point></Placemark>
<Placemark><name>VIEL17</name><description>208017 BASE CCA VARAN
posicio de les: 06/08/2018 05:28:51</description><styleUrl>#w_groc</styleUrl><Point><coordinates>0.796605348587036,42.7080953121185,0</coordinates></Point></Placemark>
<Placemark><name>BER57</name><description>210357 PORT.COM BER (Centre)
posicio de les: 06/08/2018 05:28:34</description><styleUrl>#w_verdP</styleUrl><Point><coordinates>1.85785889625549,42.1040940284729,0</coordinates></Point></Placemark>
<Placemark><name>CAF02</name><description>210402 PORT CAF (Centre)
posicio de les: 06/08/2018 05:29:17</description><styleUrl>#w_verdP</styleUrl><Point><coordinates>1.52840852737427,41.7309772968292,0</coordinates></Point></Placemark>
<Placemark><name>CAB56</name><description>210656 PORT.COM CAB (Centre)
posicio de les: 06/08/2018 05:30:11</description><styleUrl>#w_grocP</styleUrl><Point><coordinates>1.68517827987671,41.6659820079803,0</coordinates></Point></Placemark>
<Placemark><name>PRA07</name><description>211407 PORT PRA (Centre)
posicio de les: 06/08/2018 05:30:23</description><styleUrl>#w_grocP</styleUrl><Point><coordinates>2.03606486320496,42.007942199707,0</coordinates></Point></Placemark>
<Placemark><name>TOR02</name><description>212002 PORT TOR (Centre)
posicio de les: 06/08/2018 05:31:21</description><styleUrl>#w_verdP</styleUrl><Point><coordinates>2.26714253425598,42.0487976074219,0</coordinates></Point></Placemark>
<Placemark><name>AMER57</name><description>220157 PORT.COM AMER (Girona)
posicio de les: 06/08/2018 05:30:52</description><styleUrl>#w_grocP</styleUrl><Point><coordinates>2.59592771530151,42.011171579361,0</coordinates></Point></Placemark>
<Placemark><name>ARBU01</name><description>220201 PORT ARBU (Girona)
posicio de les: 06/08/2018 05:31:23</description><styleUrl>#w_verdP</styleUrl><Point><coordinates>2.52089023590088,41.8148553371429,0</coordinates></Point></Placemark>
<Placemark><name>BANY56</name><description>220356 PORT.COM BANY (Girona)
posicio de les: 06/08/2018 05:31:00</description><styleUrl>#w_verdP</styleUrl><Point><coordinates>2.78572082519531,42.1177840232849,0</coordinates></Point></Placemark>
<Placemark><name>PERA04</name><description>220404 PORT PERA (Girona)
posicio de les: 06/08/2018 05:30:38</description><styleUrl>#w_verdP</styleUrl><Point><coordinates>2.97531008720398,42.0299792289734,0</coordinates></Point></Placemark>
<Placemark><name>220480</name><description>220480 UPCL/USL PERA (Girona)
posicio de les: 06/08/2018 05:27:39</description><styleUrl>#w_groc</styleUrl><Point><coordinates>2.9748272895813,42.0297431945801,0</coordinates></Point></Placemark>
<Placemark><name>CASS56</name><description>220856 PORT.COM CASS (Girona)
posicio de les: 06/08/2018 05:31:32</description><styleUrl>#w_grocP</styleUrl><Point><coordinates>2.88484454154968,41.8795609474182,0</coordinates></Point></Placemark>
<Placemark><name>FIGU56</name><description>221056 PORT.COM FIGU (Girona)
posicio de les: 06/08/2018 05:27:53</description><styleUrl>#w_verdP</styleUrl><Point><coordinates>2.96904444694519,42.2724080085754,0</coordinates></Point></Placemark>
<Placemark><name>HOST05</name><description>221205 PORT HOST (Girona)
posicio de les: 06/08/2018 05:29:05</description><styleUrl>#w_verdP</styleUrl><Point><coordinates>2.6247775554657,41.7482078075409,0</coordinates></Point></Placemark>
<Placemark><name>HOST57</name><description>221257 PORT.COM HOST (Girona)
posicio de les: 06/08/2018 05:31:14</description><styleUrl>#w_verdP</styleUrl><Point><coordinates>2.62436985969543,41.7481112480164,0</coordinates></Point></Placemark>
<Placemark><name>JONQ56</name><description>221356 PORT.COM JONQ (Girona)
posicio de les: 06/08/2018 05:30:37</description><styleUrl>#w_verdP</styleUrl><Point><coordinates>2.87647604942322,42.4120652675629,0</coordinates></Point></Placemark>
<Placemark><name>LLAN57</name><description>221457 PORT.COM LLAN (Girona)
posicio de les: 06/08/2018 05:29:45</description><styleUrl>#w_verdP</styleUrl><Point><coordinates>3.15263628959656,42.3577237129211,0</coordinates></Point></Placemark>
<Placemark><name>LLOR56</name><description>221556 PORT.COM LLOR (Girona)
posicio de les: 06/08/2018 05:29:57</description><styleUrl>#w_verdP</styleUrl><Point><coordinates>2.83617854118347,41.6995418071747,0</coordinates></Point></Placemark>
<Placemark><name>MAÇA57</name><description>221657 PORT.COM MACA (Girona)
posicio de les: 06/08/2018 05:29:44</description><styleUrl>#w_grocP</styleUrl><Point><coordinates>2.75304079055786,41.7794072628021,0</coordinates></Point></Placemark>
<Placemark><name>OLOT56</name><description>221756 PORT.COM OLOT (Girona)
posicio de les: 06/08/2018 05:27:51</description><styleUrl>#w_verdP</styleUrl><Point><coordinates>2.47663378715515,42.1898281574249,0</coordinates></Point></Placemark>
<Placemark><name>OLOT57</name><description>221757 PORT.COM OLOT (Girona)
posicio de les: 06/08/2018 05:27:53</description><styleUrl>#w_verdP</styleUrl><Point><coordinates>2.47460603713989,42.1904933452606,0</coordinates></Point></Placemark>
<Placemark><name>PALA56</name><description>221856 PORT.COM PALA (Girona)
posicio de les: 06/08/2018 05:29:16</description><styleUrl>#w_verdP</styleUrl><Point><coordinates>3.15485715866089,41.925995349884,0</coordinates></Point></Placemark>
<Placemark><name>PALA57</name><description>221857 PORT.COM PALA (Girona)
posicio de les: 06/08/2018 05:28:08</description><styleUrl>#w_verdP</styleUrl><Point><coordinates>3.15642356872559,41.9260704517365,0</coordinates></Point></Placemark>
<Placemark><name>RIPO56</name><description>222156 PORT.COM RIPO (Girona)
posicio de les: 06/08/2018 05:30:10</description><styleUrl>#w_verdP</styleUrl><Point><coordinates>2.16954231262207,42.2148585319519,0</coordinates></Point></Placemark>
<Placemark><name>RIPO57</name><description>222157 PORT.COM RIPO (Girona)
posicio de les: 06/08/2018 05:30:45</description><styleUrl>#w_verdP</styleUrl><Point><coordinates>2.1683943271637,42.2148156166077,0</coordinates></Point></Placemark>
<Placemark><name>ROSE01</name><description>222201 PORT ROSE (Girona)
posicio de les: 06/08/2018 05:31:22</description><styleUrl>#w_verdP</styleUrl><Point><coordinates>3.16088676452637,42.2764849662781,0</coordinates></Point></Placemark>
<Placemark><name>ROSE56</name><description>222256 PORT.COM ROSE (Girona)
posicio de les: 06/08/2018 05:29:41</description><styleUrl>#w_verdP</styleUrl><Point><coordinates>3.16079020500183,42.2765707969666,0</coordinates></Point></Placemark>
<Placemark><name>22630</name><description>222630 BRP TORR (Girona)
posicio de les: 06/08/2018 05:31:20</description><styleUrl>#w_grocC</styleUrl><Point><coordinates>3.13690781593323,42.1235024929047,0</coordinates></Point></Placemark>
<Placemark><name>TORR56</name><description>222656 PORT.COM TORR (Girona)
posicio de les: 06/08/2018 05:31:30</description><styleUrl>#w_grocP</styleUrl><Point><coordinates>3.13697218894959,42.1236526966095,0</coordinates></Point></Placemark>
<Placemark><name>VALL56</name><description>222856 PORT.COM VALL (Girona)
posicio de les: 06/08/2018 05:29:06</description><styleUrl>#w_verdP</styleUrl><Point><coordinates>3.03181886672974,41.8087720870972,0</coordinates></Point></Placemark>
<Placemark><name>D7REG</name><description>228047  SERVEIS REGIÓ
posicio de les: 06/08/2018 05:30:10</description><styleUrl>#w_verd</styleUrl><Point><coordinates>2.8065025806427,41.9602525234222,0</coordinates></Point></Placemark>
<Placemark><name>30092</name><description>230092  REGIÓ
posicio de les: 06/08/2018 05:28:36</description><styleUrl>#w_verd</styleUrl><Point><coordinates>0.605782270431519,41.6227984428406,0</coordinates></Point></Placemark>
<Placemark><name>LLEI02</name><description>231902 PORT LLEI (Lleida)
posicio de les: 06/08/2018 05:30:01</description><styleUrl>#w_verdP</styleUrl><Point><coordinates>0.605524778366089,41.624139547348,0</coordinates></Point></Placemark>
<Placemark><name>LLEI05</name><description>231905 PORT LLEI (Lleida)
posicio de les: 06/08/2018 05:30:26</description><styleUrl>#w_verdP</styleUrl><Point><coordinates>0.605192184448242,41.6242790222168,0</coordinates></Point></Placemark>
<Placemark><name>OLIA01</name><description>232201 PORT OLIA (Lleida)
posicio de les: 06/08/2018 05:29:38</description><styleUrl>#w_verdP</styleUrl><Point><coordinates>1.30803823471069,42.0748579502106,0</coordinates></Point></Placemark>
<Placemark><name>OLIA56</name><description>232256 PORT.COM OLIA (Lleida)
posicio de les: 06/08/2018 05:30:36</description><styleUrl>#w_grocP</styleUrl><Point><coordinates>1.30792021751404,42.0747399330139,0</coordinates></Point></Placemark>
<Placemark><name>POBL01</name><description>232401 PORT POBL (Lleida)
posicio de les: 06/08/2018 05:31:34</description><styleUrl>#w_verdP</styleUrl><Point><coordinates>0.964361429214478,42.2390949726105,0</coordinates></Point></Placemark>
<Placemark><name>PONT05</name><description>232505 PORT PONT (Lleida)
posicio de les: 06/08/2018 05:30:43</description><styleUrl>#w_verdP</styleUrl><Point><coordinates>0.739892721176147,42.4104559421539,0</coordinates></Point></Placemark>
<Placemark><name>TAR07</name><description>233107 PORT TAR (Lleida)
posicio de les: 06/08/2018 05:30:29</description><styleUrl>#w_grocP</styleUrl><Point><coordinates>1.14935874938965,41.6510689258575,0</coordinates></Point></Placemark>
<Placemark><name>TREM05</name><description>233305 PORT TREM (Lleida)
posicio de les: 06/08/2018 05:29:30</description><styleUrl>#w_grocP</styleUrl><Point><coordinates>0.889184474945068,42.1643686294556,0</coordinates></Point></Placemark>
<Placemark><name>TREM07</name><description>233307 PORT TREM (Lleida)
posicio de les: 06/08/2018 05:31:18</description><styleUrl>#w_verdP</styleUrl><Point><coordinates>0.889549255371094,42.164626121521,0</coordinates></Point></Placemark>
<Placemark><name>TREM56</name><description>233356 PORT.COM TREM (Lleida)
posicio de les: 06/08/2018 05:28:25</description><styleUrl>#w_verdP</styleUrl><Point><coordinates>0.889302492141724,42.1648836135864,0</coordinates></Point></Placemark>
<Placemark><name>FTAR1</name><description>234513 PORT Parc X
posicio de les: 06/08/2018 05:31:11</description><styleUrl>#w_grocP</styleUrl><Point><coordinates>1.14945530891418,41.6510260105133,0</coordinates></Point></Placemark>
<Placemark><name>REMN14</name><description>240014 P.Tec REGIÓ
posicio de les: 06/08/2018 05:29:49</description><styleUrl>#w_verdP</styleUrl><Point><coordinates>2.02523946762085,41.568306684494,0</coordinates></Point></Placemark>
<Placemark><name>40091</name><description>240091  REGIÓ
posicio de les: 06/08/2018 05:30:52</description><styleUrl>#w_groc</styleUrl><Point><coordinates>2.11163878440857,41.5025067329407,0</coordinates></Point></Placemark>
<Placemark><name>BAD02</name><description>240202 PORT BAD (Metro. Nord)
posicio de les: 06/08/2018 05:31:13</description><styleUrl>#w_verdP</styleUrl><Point><coordinates>2.23784208297729,41.4651811122894,0</coordinates></Point></Placemark>
<Placemark><name>40290</name><description>240290 UPC BAD (Metro. Nord)
posicio de les: 06/08/2018 05:30:13</description><styleUrl>#w_groc</styleUrl><Point><coordinates>2.02527165412903,41.5680384635925,0</coordinates></Point></Placemark>
<Placemark><name>GRA13</name><description>240613 PORT GRA (Metro. Nord)
posicio de les: 06/08/2018 05:28:33</description><styleUrl>#w_grocP</styleUrl><Point><coordinates>2.27481365203857,41.5903437137604,0</coordinates></Point></Placemark>
<Placemark><name>MAT01</name><description>240901 PORT MAT (Metro. Nord)
posicio de les: 06/08/2018 05:30:42</description><styleUrl>#w_verdP</styleUrl><Point><coordinates>2.42381572723389,41.5321290493011,0</coordinates></Point></Placemark>
<Placemark><name>CMSAB20</name><description>241420 PORT SAB (Metro. Nord)
posicio de les: 06/08/2018 05:29:54</description><styleUrl>#w_grocP</styleUrl><Point><coordinates>2.10378527641296,41.5426754951477,0</coordinates></Point></Placemark>
<Placemark><name>241440</name><description>241440 BUP SAB (Metro. Nord)
posicio de les: 06/08/2018 05:28:05</description><styleUrl>#w_grocC</styleUrl><Point><coordinates>2.10425734519959,41.5422248840332,0</coordinates></Point></Placemark>
<Placemark><name>SCG09</name><description>241809 PORT SCG (Metro. Nord)
posicio de les: 06/08/2018 05:30:08</description><styleUrl>#w_verdP</styleUrl><Point><coordinates>2.20929265022278,41.463303565979,0</coordinates></Point></Placemark>
<Placemark><name>241858</name><description>241858 BSAL SCG (Metro. Nord)
posicio de les: 06/08/2018 05:29:19</description><styleUrl>#w_verdB</styleUrl><Point><coordinates>2.20916390419006,41.4632821083069,0</coordinates></Point></Placemark>
<Placemark><name>TER01</name><description>242001 PORT TER (Metro. Nord)
posicio de les: 06/08/2018 05:28:40</description><styleUrl>#w_verdP</styleUrl><Point><coordinates>2.02629089355469,41.568306684494,0</coordinates></Point></Placemark>
<Placemark><name>TER07</name><description>242007 PORT TER (Metro. Nord)
posicio de les: 06/08/2018 05:30:02</description><styleUrl>#w_verdP</styleUrl><Point><coordinates>2.02632308006287,41.5681350231171,0</coordinates></Point></Placemark>
<Placemark><name>TOD56</name><description>242156 PORT.COM TOD (Metro. Nord)
posicio de les: 06/08/2018 05:28:18</description><styleUrl>#w_verdP</styleUrl><Point><coordinates>2.71702408790588,41.6914629936218,0</coordinates></Point></Placemark>
<Placemark><name>D9REMN</name><description>248049  SERVEIS REGIÓ
posicio de les: 06/08/2018 05:28:32</description><styleUrl>#w_verd</styleUrl><Point><coordinates>2.11236834526062,41.5024745464325,0</coordinates></Point></Placemark>
<Placemark><name>COR05</name><description>250405 PORT COR (Metro. Sud)
posicio de les: 06/08/2018 05:29:04</description><styleUrl>#w_verdP</styleUrl><Point><coordinates>2.07068681716919,41.3607466220856,0</coordinates></Point></Placemark>
<Placemark><name>COR10</name><description>250410 PORT COR (Metro. Sud)
posicio de les: 06/08/2018 05:29:45</description><styleUrl>#w_verdP</styleUrl><Point><coordinates>2.07067608833313,41.3607573509216,0</coordinates></Point></Placemark>
<Placemark><name>HOS02</name><description>250702 PORT HOS (Metro. Sud)
posicio de les: 06/08/2018 05:31:34</description><styleUrl>#w_grocP</styleUrl><Point><coordinates>2.1058452129364,41.3701021671295,0</coordinates></Point></Placemark>
<Placemark><name>LLA03</name><description>250903 PORT LLA (Metro. Sud)
posicio de les: 06/08/2018 05:31:21</description><styleUrl>#w_grocP</styleUrl><Point><coordinates>1.53046846389771,41.473217010498,0</coordinates></Point></Placemark>
<Placemark><name>MAR57</name><description>251057 PORT.COM MAR (Metro. Sud)
posicio de les: 06/08/2018 05:31:13</description><styleUrl>#w_grocP</styleUrl><Point><coordinates>1.90805912017822,41.4988911151886,0</coordinates></Point></Placemark>
<Placemark><name>SFE04</name><description>251504 PORT SFE (Metro. Sud)
posicio de les: 06/08/2018 05:30:52</description><styleUrl>#w_grocP</styleUrl><Point><coordinates>2.04303860664368,41.3885450363159,0</coordinates></Point></Placemark>
<Placemark><name>SFE57</name><description>251557 PORT.COM SFE (Metro. Sud)
posicio de les: 06/08/2018 05:29:16</description><styleUrl>#w_verdP</styleUrl><Point><coordinates>2.04392910003662,41.3878905773163,0</coordinates></Point></Placemark>
<Placemark><name>CMS15</name><description>254515 PORT Parc X
posicio de les: 06/08/2018 05:29:59</description><styleUrl>#w_verdP</styleUrl><Point><coordinates>1.70446872711182,41.3548135757446,0</coordinates></Point></Placemark>
<Placemark><name>I215</name><description>257215 P.GUAITA GUAITA
posicio de les: 06/08/2018 05:30:59</description><styleUrl>#w_grocP</styleUrl><Point><coordinates>1.66408538818359,41.4991056919098,0</coordinates></Point></Placemark>
<Placemark><name>D1REMS</name><description>258041  SERVEIS REGIÓ
posicio de les: 06/08/2018 05:29:55</description><styleUrl>#w_verd</styleUrl><Point><coordinates>2.03370451927185,41.3223481178284,0</coordinates></Point></Placemark>
<Placemark><name>260508</name><description>260508 PORT HOSP (Tarragona)
posicio de les: 06/08/2018 05:31:02</description><styleUrl>#w_grocP</styleUrl><Point><coordinates>0.919922590255737,40.9934234619141,0</coordinates></Point></Placemark>
<Placemark><name>60844</name><description>260844 BNP REUS (Tarragona)
posicio de les: 06/08/2018 05:26:40</description><styleUrl>#w_grocC</styleUrl><Point><coordinates>1.1186420917511,41.1507403850555,0</coordinates></Point></Placemark>
<Placemark><name>61234</name><description>261234 BFP TARR (Tarragona)
posicio de les: 06/08/2018 05:29:26</description><styleUrl>#w_grocC</styleUrl><Point><coordinates>1.22125267982483,41.1132538318634,0</coordinates></Point></Placemark>
<Placemark><name>VALS56</name><description>261356 PORT.COM VALS (Tarragona)
posicio de les: 06/08/2018 05:28:32</description><styleUrl>#w_verdP</styleUrl><Point><coordinates>1.25993013381958,41.3058471679688,0</coordinates></Point></Placemark>
<Placemark><name>VEND09</name><description>261409 PORT VEND (Tarragona)
posicio de les: 06/08/2018 05:31:38</description><styleUrl>#w_verdP</styleUrl><Point><coordinates>1.54087543487549,41.2220335006714,0</coordinates></Point></Placemark>
<Placemark><name>E00RETE</name><description>270014 P.Tec REGIÓ
posicio de les: 06/08/2018 05:31:06</description><styleUrl>#w_verdP</styleUrl><Point><coordinates>0.513321161270142,40.8191013336182,0</coordinates></Point></Placemark>
<Placemark><name>GAND56</name><description>272656 PORT.COM GAND (Terres de l'Ebre)
posicio de les: 06/08/2018 05:31:01</description><styleUrl>#w_verdP</styleUrl><Point><coordinates>0.439227819442749,41.058611869812,0</coordinates></Point></Placemark>
<Placemark><name>MORA56</name><description>272856 PORT.COM MORA (Terres de l'Ebre)
posicio de les: 06/08/2018 05:27:20</description><styleUrl>#w_verdP</styleUrl><Point><coordinates>0.62946081161499,41.0858952999115,0</coordinates></Point></Placemark>
<Placemark><name>E_93</name><description>278031  SERVEIS REGIÓ
posicio de les: 06/08/2018 05:30:29</description><styleUrl>#w_verd</styleUrl><Point><coordinates>0.51311731338501,40.8195948600769,0</coordinates></Point></Placemark>
</Folder>
<Folder>
<name>Descarregues</name>
</Folder>
<Style id="w_verdP_n"><IconStyle><color>ff00ff00</color><scale>1.0</scale><Icon><href>http://maps.google.com/mapfiles/kml/shapes/man.png</href></Icon><hotSpot x="0.5" y="0" xunits="fraction" yunits="fraction"/></IconStyle><LabelStyle><scale>0.7</scale></LabelStyle></Style>
<Style id="w_verdP_s"><IconStyle><color>ff00ff00</color><scale>1.4</scale><Icon><href>http://maps.google.com/mapfiles/kml/shapes/man.png</href></Icon><hotSpot x="0.5" y="0" xunits="fraction" yunits="fraction"/></IconStyle><LabelStyle><scale>0.7</scale></LabelStyle></Style>
<StyleMap id="w_verdP"><Pair><key>normal</key><styleUrl>#w_verdP_n</styleUrl></Pair><Pair><key>highlight</key><styleUrl>#w_verdP_s</styleUrl></Pair></StyleMap>
<Style id="w_verd_n"><IconStyle><color>ff00ff00</color><scale>0.7</scale><Icon><href>http://maps.google.com/mapfiles/kml/shapes/cabs.png</href></Icon><hotSpot x="0.5" y="0" xunits="fraction" yunits="fraction"/></IconStyle><LabelStyle><scale>0.7</scale></LabelStyle></Style>
<Style id="w_verd_s"><IconStyle><color>ff00ff00</color><scale>1.0</scale><Icon><href>http://maps.google.com/mapfiles/kml/shapes/cabs.png</href></Icon><hotSpot x="0.5" y="0" xunits="fraction" yunits="fraction"/></IconStyle><LabelStyle><scale>0.7</scale></LabelStyle></Style>
<StyleMap id="w_verd"><Pair><key>normal</key><styleUrl>#w_verd_n</styleUrl></Pair><Pair><key>highlight</key><styleUrl>#w_verd_s</styleUrl></Pair></StyleMap>
<Style id="w_verdC_n"><IconStyle><color>ff00ff00</color><scale>1.0</scale><Icon><href>http://maps.google.com/mapfiles/kml/shapes/truck.png</href></Icon><hotSpot x="0.5" y="0" xunits="fraction" yunits="fraction"/></IconStyle><LabelStyle><scale>0.7</scale></LabelStyle></Style>
<Style id="w_verdC_s"><IconStyle><color>ff00ff00</color><scale>1.4</scale><Icon><href>http://maps.google.com/mapfiles/kml/shapes/truck.png</href></Icon><hotSpot x="0.5" y="0" xunits="fraction" yunits="fraction"/></IconStyle><LabelStyle><scale>0.7</scale></LabelStyle></Style>
<StyleMap id="w_verdC"><Pair><key>normal</key><styleUrl>#w_verdC_n</styleUrl></Pair><Pair><key>highlight</key><styleUrl>#w_verdC_s</styleUrl></Pair></StyleMap>
<Style id="w_verdH_n"><IconStyle><color>ff0000ff</color><scale>1.2</scale><Icon><href>http://maps.google.com/mapfiles/kml/shapes/heliport.png</href></Icon><hotSpot x="0.5" y="0" xunits="fraction" yunits="fraction"/></IconStyle><LabelStyle><scale>0.7</scale></LabelStyle></Style>
<Style id="w_verdH_s"><IconStyle><color>ff0000ff</color><scale>1.4</scale><Icon><href>http://maps.google.com/mapfiles/kml/shapes/heliport.png</href></Icon><hotSpot x="0.5" y="0" xunits="fraction" yunits="fraction"/></IconStyle><LabelStyle><scale>0.7</scale></LabelStyle></Style>
<StyleMap id="w_verdH"><Pair><key>normal</key><styleUrl>#w_verdH_n</styleUrl></Pair><Pair><key>highlight</key><styleUrl>#w_verdH_s</styleUrl></Pair></StyleMap>
<Style id="w_verdA_n"><IconStyle><color>ff0000ff</color><scale>1.2</scale><Icon><href>http://maps.google.com/mapfiles/kml/shapes/airports.png</href></Icon><hotSpot x="0.5" y="0" xunits="fraction" yunits="fraction"/></IconStyle><LabelStyle><scale>0.7</scale></LabelStyle></Style>
<Style id="w_verdA_s"><IconStyle><color>ff0000ff</color><scale>1.4</scale><Icon><href>http://maps.google.com/mapfiles/kml/shapes/airports.png</href></Icon><hotSpot x="0.5" y="0" xunits="fraction" yunits="fraction"/></IconStyle><LabelStyle><scale>0.7</scale></LabelStyle></Style>
<StyleMap id="w_verdA"><Pair><key>normal</key><styleUrl>#w_verdA_n</styleUrl></Pair><Pair><key>highlight</key><styleUrl>#w_verdA_s</styleUrl></Pair></StyleMap>
<Style id="w_verdB_n"><IconStyle><color>ff00ff00</color><scale>1.0</scale><Icon><href>http://maps.google.com/mapfiles/kml/shapes/sailing.png</href></Icon><hotSpot x="0.5" y="0" xunits="fraction" yunits="fraction"/></IconStyle><LabelStyle><scale>0.7</scale></LabelStyle></Style>
<Style id="w_verdB_s"><IconStyle><color>ff00ff00</color><scale>1.4</scale><Icon><href>http://maps.google.com/mapfiles/kml/shapes/sailing.png</href></Icon><hotSpot x="0.5" y="0" xunits="fraction" yunits="fraction"/></IconStyle><LabelStyle><scale>0.7</scale></LabelStyle></Style>
<StyleMap id="w_verdB"><Pair><key>normal</key><styleUrl>#w_verdBAR_n</styleUrl></Pair><Pair><key>highlight</key><styleUrl>#w_verdBAR_s</styleUrl></Pair></StyleMap>
<Style id="w_grocP_n"><IconStyle><color>ff00ffff</color><scale>1.0</scale><Icon><href>http://maps.google.com/mapfiles/kml/shapes/man.png</href></Icon><hotSpot x="0.5" y="0" xunits="fraction" yunits="fraction"/></IconStyle><LabelStyle><scale>0.7</scale></LabelStyle></Style>
<Style id="w_grocP_s"><IconStyle><color>ff00ffff</color><scale>1.4</scale><Icon><href>http://maps.google.com/mapfiles/kml/shapes/man.png</href></Icon><hotSpot x="0.5" y="0" xunits="fraction" yunits="fraction"/></IconStyle><LabelStyle><scale>0.7</scale></LabelStyle></Style>
<StyleMap id="w_grocP"><Pair><key>normal</key><styleUrl>#w_grocP_n</styleUrl></Pair><Pair><key>highlight</key><styleUrl>#w_grocP_s</styleUrl></Pair></StyleMap>
<Style id="w_groc_n"><IconStyle><color>ff00ffff</color><scale>0.7</scale><Icon><href>http://maps.google.com/mapfiles/kml/shapes/cabs.png</href></Icon><hotSpot x="0.5" y="0" xunits="fraction" yunits="fraction"/></IconStyle><LabelStyle><scale>0.7</scale></LabelStyle></Style>
<Style id="w_groc_s"><IconStyle><color>ff00ffff</color><scale>1.0</scale><Icon><href>http://maps.google.com/mapfiles/kml/shapes/cabs.png</href></Icon><hotSpot x="0.5" y="0" xunits="fraction" yunits="fraction"/></IconStyle><LabelStyle><scale>0.7</scale></LabelStyle></Style>
<StyleMap id="w_groc"><Pair><key>normal</key><styleUrl>#w_groc_n</styleUrl></Pair><Pair><key>highlight</key><styleUrl>#w_groc_s</styleUrl></Pair></StyleMap>
<Style id="w_grocC_n"><IconStyle><color>ff00ffff</color><scale>1.0</scale><Icon><href>http://maps.google.com/mapfiles/kml/shapes/truck.png</href></Icon><hotSpot x="0.5" y="0" xunits="fraction" yunits="fraction"/></IconStyle><LabelStyle><scale>0.7</scale></LabelStyle></Style>
<Style id="w_grocC_s"><IconStyle><color>ff00ffff</color><scale>1.4</scale><Icon><href>http://maps.google.com/mapfiles/kml/shapes/truck.png</href></Icon><hotSpot x="0.5" y="0" xunits="fraction" yunits="fraction"/></IconStyle><LabelStyle><scale>0.7</scale></LabelStyle></Style>
<StyleMap id="w_grocC"><Pair><key>normal</key><styleUrl>#w_grocC_n</styleUrl></Pair><Pair><key>highlight</key><styleUrl>#w_grocC_s</styleUrl></Pair></StyleMap>
<Style id="w_grocH_n"><IconStyle><color>ff0000ff</color><scale>1.2</scale><Icon><href>http://maps.google.com/mapfiles/kml/shapes/heliport.png</href></Icon><hotSpot x="0.5" y="0" xunits="fraction" yunits="fraction"/></IconStyle><LabelStyle><scale>0.7</scale></LabelStyle></Style>
<Style id="w_grocH_s"><IconStyle><color>ff0000ff</color><scale>1.4</scale><Icon><href>http://maps.google.com/mapfiles/kml/shapes/heliport.png</href></Icon><hotSpot x="0.5" y="0" xunits="fraction" yunits="fraction"/></IconStyle><LabelStyle><scale>0.7</scale></LabelStyle></Style>
<StyleMap id="w_grocH"><Pair><key>normal</key><styleUrl>#w_grocH_n</styleUrl></Pair><Pair><key>highlight</key><styleUrl>#w_grocH_s</styleUrl></Pair></StyleMap>
<Style id="w_grocA_n"><IconStyle><color>ff0000ff</color><scale>1.2</scale><Icon><href>http://maps.google.com/mapfiles/kml/shapes/airports.png</href></Icon><hotSpot x="0.5" y="0" xunits="fraction" yunits="fraction"/></IconStyle><LabelStyle><scale>0.7</scale></LabelStyle></Style>
<Style id="w_grocA_s"><IconStyle><color>ff0000ff</color><scale>1.4</scale><Icon><href>http://maps.google.com/mapfiles/kml/shapes/airports.png</href></Icon><hotSpot x="0.5" y="0" xunits="fraction" yunits="fraction"/></IconStyle><LabelStyle><scale>0.7</scale></LabelStyle></Style>
<StyleMap id="w_grocA"><Pair><key>normal</key><styleUrl>#w_grocA_n</styleUrl></Pair><Pair><key>highlight</key><styleUrl>#w_grocA_s</styleUrl></Pair></StyleMap>
<Style id="w_grocB_n"><IconStyle><color>ff00ffff</color><scale>1.0</scale><Icon><href>http://maps.google.com/mapfiles/kml/shapes/sailing.png</href></Icon><hotSpot x="0.5" y="0" xunits="fraction" yunits="fraction"/></IconStyle><LabelStyle><scale>0.7</scale></LabelStyle></Style>
<Style id="w_grocB_s"><IconStyle><color>ff00ffff</color><scale>1.4</scale><Icon><href>http://maps.google.com/mapfiles/kml/shapes/sailing.png</href></Icon><hotSpot x="0.5" y="0" xunits="fraction" yunits="fraction"/></IconStyle><LabelStyle><scale>0.7</scale></LabelStyle></Style>
<StyleMap id="w_grocB"><Pair><key>normal</key><styleUrl>#w_grocBAR_n</styleUrl></Pair><Pair><key>highlight</key><styleUrl>#w_grocBAR_s</styleUrl></Pair></StyleMap>
<Style id="w_vermellP_n"><IconStyle><color>ff0000ff</color><scale>1.0</scale><Icon><href>http://maps.google.com/mapfiles/kml/shapes/man.png</href></Icon><hotSpot x="0.5" y="0" xunits="fraction" yunits="fraction"/></IconStyle><LabelStyle><scale>0.7</scale></LabelStyle></Style>
<Style id="w_vermellP_s"><IconStyle><color>ff0000ff</color><scale>1.4</scale><Icon><href>http://maps.google.com/mapfiles/kml/shapes/man.png</href></Icon><hotSpot x="0.5" y="0" xunits="fraction" yunits="fraction"/></IconStyle><LabelStyle><scale>0.7</scale></LabelStyle></Style>
<StyleMap id="w_vermellP"><Pair><key>normal</key><styleUrl>#w_vermellP_n</styleUrl></Pair><Pair><key>highlight</key><styleUrl>#w_vermellP_s</styleUrl></Pair></StyleMap>
<Style id="w_vermell_n"><IconStyle><color>ff0000ff</color><scale>0.7</scale><Icon><href>http://maps.google.com/mapfiles/kml/shapes/cabs.png</href></Icon><hotSpot x="0.5" y="0" xunits="fraction" yunits="fraction"/></IconStyle><LabelStyle><scale>0.7</scale></LabelStyle></Style>
<Style id="w_vermell_s"><IconStyle><color>ff0000ff</color><scale>1.0</scale><Icon><href>http://maps.google.com/mapfiles/kml/shapes/cabs.png</href></Icon><hotSpot x="0.5" y="0" xunits="fraction" yunits="fraction"/></IconStyle><LabelStyle><scale>0.7</scale></LabelStyle></Style>
<StyleMap id="w_vermell"><Pair><key>normal</key><styleUrl>#w_vermell_n</styleUrl></Pair><Pair><key>highlight</key><styleUrl>#w_vermell_s</styleUrl></Pair></StyleMap>
<Style id="w_vermellC_n"><IconStyle><color>ff0000ff</color><scale>1.0</scale><Icon><href>http://maps.google.com/mapfiles/kml/shapes/truck.png</href></Icon><hotSpot x="0.5" y="0" xunits="fraction" yunits="fraction"/></IconStyle><LabelStyle><scale>0.7</scale></LabelStyle></Style>
<Style id="w_vermellC_s"><IconStyle><color>ff0000ff</color><scale>1.4</scale><Icon><href>http://maps.google.com/mapfiles/kml/shapes/truck.png</href></Icon><hotSpot x="0.5" y="0" xunits="fraction" yunits="fraction"/></IconStyle><LabelStyle><scale>0.7</scale></LabelStyle></Style>
<StyleMap id="w_vermellC"><Pair><key>normal</key><styleUrl>#w_vermellC_n</styleUrl></Pair><Pair><key>highlight</key><styleUrl>#w_vermellC_s</styleUrl></Pair></StyleMap>
<Style id="w_vermellH_n"><IconStyle><color>ff0000ff</color><scale>1.2</scale><Icon><href>http://maps.google.com/mapfiles/kml/shapes/heliport.png</href></Icon><hotSpot x="0.5" y="0" xunits="fraction" yunits="fraction"/></IconStyle><LabelStyle><scale>0.7</scale></LabelStyle></Style>
<Style id="w_vermellH_s"><IconStyle><color>ff0000ff</color><scale>1.4</scale><Icon><href>http://maps.google.com/mapfiles/kml/shapes/heliport.png</href></Icon><hotSpot x="0.5" y="0" xunits="fraction" yunits="fraction"/></IconStyle><LabelStyle><scale>0.7</scale></LabelStyle></Style>
<StyleMap id="w_vermellH"><Pair><key>normal</key><styleUrl>#w_vermellH_n</styleUrl></Pair><Pair><key>highlight</key><styleUrl>#w_vermellH_s</styleUrl></Pair></StyleMap>
<Style id="w_vermellA_n"><IconStyle><color>ff0000ff</color><scale>1.2</scale><Icon><href>http://maps.google.com/mapfiles/kml/shapes/airports.png</href></Icon><hotSpot x="0.5" y="0" xunits="fraction" yunits="fraction"/></IconStyle><LabelStyle><scale>0.7</scale></LabelStyle></Style>
<Style id="w_vermellA_s"><IconStyle><color>ff0000ff</color><scale>1.4</scale><Icon><href>http://maps.google.com/mapfiles/kml/shapes/airports.png</href></Icon><hotSpot x="0.5" y="0" xunits="fraction" yunits="fraction"/></IconStyle><LabelStyle><scale>0.7</scale></LabelStyle></Style>
<StyleMap id="w_vermellA"><Pair><key>normal</key><styleUrl>#w_vermellA_n</styleUrl></Pair><Pair><key>highlight</key><styleUrl>#w_vermellA_s</styleUrl></Pair></StyleMap>
<Style id="w_vermellB_n"><IconStyle><color>ff0000ff</color><scale>1.0</scale><Icon><href>http://maps.google.com/mapfiles/kml/shapes/sailing.png</href></Icon><hotSpot x="0.5" y="0" xunits="fraction" yunits="fraction"/></IconStyle><LabelStyle><scale>0.7</scale></LabelStyle></Style>
<Style id="w_vermellB_s"><IconStyle><color>ff0000ff</color><scale>1.4</scale><Icon><href>http://maps.google.com/mapfiles/kml/shapes/sailing.png</href></Icon><hotSpot x="0.5" y="0" xunits="fraction" yunits="fraction"/></IconStyle><LabelStyle><scale>0.7</scale></LabelStyle></Style>
<StyleMap id="w_vermellB"><Pair><key>normal</key><styleUrl>#w_vermellBAR_n</styleUrl></Pair><Pair><key>highlight</key><styleUrl>#w_vermellBAR_s</styleUrl></Pair></StyleMap>
<Style id="w_descarrega"><IconStyle><color>ff00ffff</color><scale>0.5</scale><Icon><href>http://maps.google.com/mapfiles/kml/shapes/road_shield3.png</href></Icon></IconStyle><LabelStyle><scale>0.7</scale></LabelStyle></Style><Style id="actuacio"><IconStyle><color>ff00ffff</color><scale>0.8</scale><Icon><href>http://maps.google.com/mapfiles/kml/shapes/caution.png</href></Icon></IconStyle><LabelStyle><scale>0.7</scale></LabelStyle></Style></Document></kml>