<?xml version="1.0" encoding="UTF-8"?>
<kml xmlns="http://www.opengis.net/kml/2.2" xmlns:gx="http://www.google.com/kml/ext/2.2" xmlns:kml="http://www.opengis.net/kml/2.2" xmlns:atom="http://www.w3.org/2005/Atom">
<Document>
<name>Terminals</name>
<Snippet maxLines="2">Created 05/08/2018 23:53:19</Snippet>
<Folder>
<name>Terminals</name>
<Placemark><name>02063</name><description>202063 GEM
posicio de les: 05/08/2018 23:49:08</description><styleUrl>#w_groc</styleUrl><Point><coordinates>2.11167097091675,41.5023565292358,0</coordinates></Point></Placemark>
<Placemark><name>GGRAF08</name><description>204208 P.UT
posicio de les: 05/08/2018 23:52:29</description><styleUrl>#w_grocP</styleUrl><Point><coordinates>2.97470927238464,42.0294964313507,0</coordinates></Point></Placemark>
<Placemark><name>GGRAF10</name><description>204210 P.UT
posicio de les: 05/08/2018 23:52:26</description><styleUrl>#w_verdP</styleUrl><Point><coordinates>2.97474145889282,42.0295393466949,0</coordinates></Point></Placemark>
<Placemark><name>LGRAF02</name><description>204302 P.UT
posicio de les: 05/08/2018 23:52:22</description><styleUrl>#w_verdP</styleUrl><Point><coordinates>0.889184474945068,42.1650230884552,0</coordinates></Point></Placemark>
<Placemark><name>BGRAF08</name><description>204408 P.UT
posicio de les: 05/08/2018 23:52:45</description><styleUrl>#w_verdP</styleUrl><Point><coordinates>1.8526017665863,41.7414271831512,0</coordinates></Point></Placemark>
<Placemark><name>OP05087</name><description>205287 OP.AAV
posicio de les: 05/08/2018 23:52:01</description><styleUrl>#w_verdP</styleUrl><Point><coordinates>1.15874648094177,41.1476182937622,0</coordinates></Point></Placemark>
<Placemark><name>VIEL17</name><description>208017 BASE CCA VARAN
posicio de les: 05/08/2018 23:51:19</description><styleUrl>#w_groc</styleUrl><Point><coordinates>0.796712636947632,42.7080523967743,0</coordinates></Point></Placemark>
<Placemark><name>GD00REC</name><description>210019 P.Tec REGIÓ
posicio de les: 05/08/2018 23:50:36</description><styleUrl>#w_verdP</styleUrl><Point><coordinates>1.8520975112915,41.7413091659546,0</coordinates></Point></Placemark>
<Placemark><name>BER57</name><description>210357 PORT.COM BER (Centre)
posicio de les: 05/08/2018 23:51:33</description><styleUrl>#w_grocP</styleUrl><Point><coordinates>1.85760140419006,42.1040511131287,0</coordinates></Point></Placemark>
<Placemark><name>CAF04</name><description>210404 PORT CAF (Centre)
posicio de les: 05/08/2018 23:53:11</description><styleUrl>#w_grocP</styleUrl><Point><coordinates>0.631778240203857,41.6166186332703,0</coordinates></Point></Placemark>
<Placemark><name>10430</name><description>210430 BRP CAF (Centre)
posicio de les: 05/08/2018 23:52:08</description><styleUrl>#w_grocC</styleUrl><Point><coordinates>0.631853342056274,41.6166293621063,0</coordinates></Point></Placemark>
<Placemark><name>CAB56</name><description>210656 PORT.COM CAB (Centre)
posicio de les: 05/08/2018 23:52:02</description><styleUrl>#w_grocP</styleUrl><Point><coordinates>1.68512463569641,41.6657888889313,0</coordinates></Point></Placemark>
<Placemark><name>GUA56</name><description>210856 PORT.COM GUA (Centre)
posicio de les: 05/08/2018 23:52:20</description><styleUrl>#w_verdP</styleUrl><Point><coordinates>1.87021851539612,42.2193109989166,0</coordinates></Point></Placemark>
<Placemark><name>MAN01</name><description>211001 PORT MAN (Centre)
posicio de les: 05/08/2018 23:52:18</description><styleUrl>#w_grocP</styleUrl><Point><coordinates>1.82202458381653,41.7209243774414,0</coordinates></Point></Placemark>
<Placemark><name>11040</name><description>211040 BUP MAN (Centre)
posicio de les: 05/08/2018 23:48:22</description><styleUrl>#w_grocC</styleUrl><Point><coordinates>1.82201385498047,41.721214056015,0</coordinates></Point></Placemark>
<Placemark><name>11060</name><description>211060 AEA/AES/ABA MAN (Centre)
posicio de les: 05/08/2018 23:48:29</description><styleUrl>#w_grocC</styleUrl><Point><coordinates>1.82167053222656,41.7212355136871,0</coordinates></Point></Placemark>
<Placemark><name>PRA07</name><description>211407 PORT PRA (Centre)
posicio de les: 05/08/2018 23:52:22</description><styleUrl>#w_verdP</styleUrl><Point><coordinates>2.03604340553284,42.0079636573792,0</coordinates></Point></Placemark>
<Placemark><name>TOR02</name><description>212002 PORT TOR (Centre)
posicio de les: 05/08/2018 23:51:25</description><styleUrl>#w_verdP</styleUrl><Point><coordinates>2.26759314537048,42.0481753349304,0</coordinates></Point></Placemark>
<Placemark><name>20091</name><description>220091  REGIÓ
posicio de les: 05/08/2018 23:52:11</description><styleUrl>#w_groc</styleUrl><Point><coordinates>2.76790022850037,41.9415307044983,0</coordinates></Point></Placemark>
<Placemark><name>20093</name><description>220093  REGIÓ
posicio de les: 05/08/2018 23:49:00</description><styleUrl>#w_groc</styleUrl><Point><coordinates>2.76836156845093,41.9415414333344,0</coordinates></Point></Placemark>
<Placemark><name>20130</name><description>220130 BRP AMER (Girona)
posicio de les: 05/08/2018 23:51:51</description><styleUrl>#w_grocC</styleUrl><Point><coordinates>2.80163168907166,41.9765067100525,0</coordinates></Point></Placemark>
<Placemark><name>AMER56</name><description>220156 PORT.COM AMER (Girona)
posicio de les: 05/08/2018 23:51:29</description><styleUrl>#w_verdP</styleUrl><Point><coordinates>2.80195355415344,41.9768607616425,0</coordinates></Point></Placemark>
<Placemark><name>AMER57</name><description>220157 PORT.COM AMER (Girona)
posicio de les: 05/08/2018 23:53:06</description><styleUrl>#w_verdP</styleUrl><Point><coordinates>2.59607791900635,42.0112144947052,0</coordinates></Point></Placemark>
<Placemark><name>20330</name><description>220330 BRP BANY (Girona)
posicio de les: 05/08/2018 23:53:11</description><styleUrl>#w_verdC</styleUrl><Point><coordinates>2.7849805355072,42.1168506145477,0</coordinates></Point></Placemark>
<Placemark><name>BANY56</name><description>220356 PORT.COM BANY (Girona)
posicio de les: 05/08/2018 23:52:26</description><styleUrl>#w_verdP</styleUrl><Point><coordinates>2.78542041778564,42.117623090744,0</coordinates></Point></Placemark>
<Placemark><name>PERA03</name><description>220403 PORT PERA (Girona)
posicio de les: 05/08/2018 23:51:25</description><styleUrl>#w_verdP</styleUrl><Point><coordinates>2.97520279884338,42.0300757884979,0</coordinates></Point></Placemark>
<Placemark><name>PERA04</name><description>220404 PORT PERA (Girona)
posicio de les: 05/08/2018 23:53:18</description><styleUrl>#w_verdP</styleUrl><Point><coordinates>2.97453761100769,42.0303332805634,0</coordinates></Point></Placemark>
<Placemark><name>20430</name><description>220430 BRP PERA (Girona)
posicio de les: 05/08/2018 23:52:54</description><styleUrl>#w_grocC</styleUrl><Point><coordinates>2.76846885681152,41.9415628910065,0</coordinates></Point></Placemark>
<Placemark><name>20434</name><description>220434 BFP PERA (Girona)
posicio de les: 05/08/2018 23:51:11</description><styleUrl>#w_verdC</styleUrl><Point><coordinates>2.97489166259766,42.0298612117767,0</coordinates></Point></Placemark>
<Placemark><name>20830</name><description>220830 BRP CASS (Girona)
posicio de les: 05/08/2018 23:52:28</description><styleUrl>#w_verdC</styleUrl><Point><coordinates>2.76783585548401,41.9417881965637,0</coordinates></Point></Placemark>
<Placemark><name>CASS56</name><description>220856 PORT.COM CASS (Girona)
posicio de les: 05/08/2018 23:53:03</description><styleUrl>#w_verdP</styleUrl><Point><coordinates>2.7679967880249,41.9414663314819,0</coordinates></Point></Placemark>
<Placemark><name>FIGU56</name><description>221056 PORT.COM FIGU (Girona)
posicio de les: 05/08/2018 23:52:53</description><styleUrl>#w_grocP</styleUrl><Point><coordinates>2.97070741653442,42.2722363471985,0</coordinates></Point></Placemark>
<Placemark><name>21130</name><description>221130 BRP GIRO (Girona)
posicio de les: 05/08/2018 23:50:51</description><styleUrl>#w_verdC</styleUrl><Point><coordinates>2.76553988456726,41.9398248195648,0</coordinates></Point></Placemark>
<Placemark><name>21131</name><description>221131 BRP GIRO (Girona)
posicio de les: 05/08/2018 23:49:47</description><styleUrl>#w_grocC</styleUrl><Point><coordinates>2.76818990707397,41.9415736198425,0</coordinates></Point></Placemark>
<Placemark><name>HOST05</name><description>221205 PORT HOST (Girona)
posicio de les: 05/08/2018 23:49:38</description><styleUrl>#w_verdP</styleUrl><Point><coordinates>2.62439131736755,41.7475748062134,0</coordinates></Point></Placemark>
<Placemark><name>221244</name><description>221244 BNP HOST (Girona)
posicio de les: 05/08/2018 23:52:38</description><styleUrl>#w_grocC</styleUrl><Point><coordinates>2.76827573776245,41.941477060318,0</coordinates></Point></Placemark>
<Placemark><name>HOST57</name><description>221257 PORT.COM HOST (Girona)
posicio de les: 05/08/2018 23:53:19</description><styleUrl>#w_verdP</styleUrl><Point><coordinates>2.62442350387573,41.7480790615082,0</coordinates></Point></Placemark>
<Placemark><name>21330</name><description>221330 BRP JONQ (Girona)
posicio de les: 05/08/2018 23:53:09</description><styleUrl>#w_verdC</styleUrl><Point><coordinates>2.98259496688843,42.275755405426,0</coordinates></Point></Placemark>
<Placemark><name>JONQ56</name><description>221356 PORT.COM JONQ (Girona)
posicio de les: 05/08/2018 23:53:17</description><styleUrl>#w_verdP</styleUrl><Point><coordinates>2.98137187957764,42.2759699821472,0</coordinates></Point></Placemark>
<Placemark><name>LLAN57</name><description>221457 PORT.COM LLAN (Girona)
posicio de les: 05/08/2018 23:48:01</description><styleUrl>#w_verdP</styleUrl><Point><coordinates>3.15290451049805,42.3576593399048,0</coordinates></Point></Placemark>
<Placemark><name>LLOR56</name><description>221556 PORT.COM LLOR (Girona)
posicio de les: 05/08/2018 23:52:06</description><styleUrl>#w_grocP</styleUrl><Point><coordinates>2.83601760864258,41.6993594169617,0</coordinates></Point></Placemark>
<Placemark><name>MAÇA57</name><description>221657 PORT.COM MACA (Girona)
posicio de les: 05/08/2018 23:51:43</description><styleUrl>#w_verdP</styleUrl><Point><coordinates>2.75290131568909,41.7793428897858,0</coordinates></Point></Placemark>
<Placemark><name>OLOT56</name><description>221756 PORT.COM OLOT (Girona)
posicio de les: 05/08/2018 23:50:32</description><styleUrl>#w_verdP</styleUrl><Point><coordinates>2.47460603713989,42.1903109550476,0</coordinates></Point></Placemark>
<Placemark><name>OLOT57</name><description>221757 PORT.COM OLOT (Girona)
posicio de les: 05/08/2018 23:49:53</description><styleUrl>#w_verdP</styleUrl><Point><coordinates>2.47475624084473,42.1902251243591,0</coordinates></Point></Placemark>
<Placemark><name>PALA06</name><description>221806 PORT PALA (Girona)
posicio de les: 05/08/2018 23:51:13</description><styleUrl>#w_grocP</styleUrl><Point><coordinates>3.15570473670959,41.9258236885071,0</coordinates></Point></Placemark>
<Placemark><name>PALA56</name><description>221856 PORT.COM PALA (Girona)
posicio de les: 05/08/2018 23:51:19</description><styleUrl>#w_verdP</styleUrl><Point><coordinates>3.15561890602112,41.9259309768677,0</coordinates></Point></Placemark>
<Placemark><name>PALA57</name><description>221857 PORT.COM PALA (Girona)
posicio de les: 05/08/2018 23:50:56</description><styleUrl>#w_verdP</styleUrl><Point><coordinates>3.15594077110291,41.9257807731628,0</coordinates></Point></Placemark>
<Placemark><name>RIPO56</name><description>222156 PORT.COM RIPO (Girona)
posicio de les: 05/08/2018 23:48:57</description><styleUrl>#w_verdP</styleUrl><Point><coordinates>2.16836214065552,42.2151160240173,0</coordinates></Point></Placemark>
<Placemark><name>RIPO57</name><description>222157 PORT.COM RIPO (Girona)
posicio de les: 05/08/2018 23:51:12</description><styleUrl>#w_verdP</styleUrl><Point><coordinates>2.16858744621277,42.2147941589355,0</coordinates></Point></Placemark>
<Placemark><name>ROSE01</name><description>222201 PORT ROSE (Girona)
posicio de les: 05/08/2018 23:53:07</description><styleUrl>#w_verdP</styleUrl><Point><coordinates>3.16084384918213,42.276474237442,0</coordinates></Point></Placemark>
<Placemark><name>ROSE56</name><description>222256 PORT.COM ROSE (Girona)
posicio de les: 05/08/2018 23:51:28</description><styleUrl>#w_verdP</styleUrl><Point><coordinates>3.16065073013306,42.2765600681305,0</coordinates></Point></Placemark>
<Placemark><name>TORR56</name><description>222656 PORT.COM TORR (Girona)
posicio de les: 05/08/2018 23:52:39</description><styleUrl>#w_verdP</styleUrl><Point><coordinates>3.16728115081787,42.0480680465698,0</coordinates></Point></Placemark>
<Placemark><name>VALL56</name><description>222856 PORT.COM VALL (Girona)
posicio de les: 05/08/2018 23:52:33</description><styleUrl>#w_verdP</styleUrl><Point><coordinates>3.03163647651672,41.808750629425,0</coordinates></Point></Placemark>
<Placemark><name>D7REG</name><description>228047  SERVEIS REGIÓ
posicio de les: 05/08/2018 23:50:45</description><styleUrl>#w_verd</styleUrl><Point><coordinates>2.76814699172974,41.941477060318,0</coordinates></Point></Placemark>
<Placemark><name>C30RELL</name><description>230018 P.Tec REGIÓ
posicio de les: 05/08/2018 23:50:39</description><styleUrl>#w_verdP</styleUrl><Point><coordinates>0.603969097137451,41.6233670711517,0</coordinates></Point></Placemark>
<Placemark><name>30083</name><description>230083  REGIÓ
posicio de les: 05/08/2018 23:51:00</description><styleUrl>#w_groc</styleUrl><Point><coordinates>0.630651712417603,41.6162109375,0</coordinates></Point></Placemark>
<Placemark><name>30091</name><description>230091  REGIÓ
posicio de les: 05/08/2018 23:52:04</description><styleUrl>#w_groc</styleUrl><Point><coordinates>0.631499290466309,41.6164791584015,0</coordinates></Point></Placemark>
<Placemark><name>30092</name><description>230092  REGIÓ
posicio de les: 05/08/2018 23:53:14</description><styleUrl>#w_groc</styleUrl><Point><coordinates>0.630501508712769,41.6170692443848,0</coordinates></Point></Placemark>
<Placemark><name>30095</name><description>230095  REGIÓ
posicio de les: 05/08/2018 23:51:19</description><styleUrl>#w_groc</styleUrl><Point><coordinates>0.604827404022217,41.6235601902008,0</coordinates></Point></Placemark>
<Placemark><name>30098</name><description>230098  REGIÓ
posicio de les: 05/08/2018 23:50:55</description><styleUrl>#w_groc</styleUrl><Point><coordinates>0.630759000778198,41.6161787509918,0</coordinates></Point></Placemark>
<Placemark><name>30330</name><description>230330 BRP ALMA (Lleida)
posicio de les: 05/08/2018 23:48:40</description><styleUrl>#w_grocC</styleUrl><Point><coordinates>0.631316900253296,41.6168546676636,0</coordinates></Point></Placemark>
<Placemark><name>BORG01</name><description>230701 PORT BORG (Lleida)
posicio de les: 05/08/2018 23:50:49</description><styleUrl>#w_verdP</styleUrl><Point><coordinates>0.845142602920532,41.5071952342987,0</coordinates></Point></Placemark>
<Placemark><name>BORG03</name><description>230703 PORT BORG (Lleida)
posicio de les: 05/08/2018 23:51:33</description><styleUrl>#w_verdP</styleUrl><Point><coordinates>0.845110416412354,41.5075922012329,0</coordinates></Point></Placemark>
<Placemark><name>BORG06</name><description>230706 PORT BORG (Lleida)
posicio de les: 05/08/2018 23:51:33</description><styleUrl>#w_verdP</styleUrl><Point><coordinates>0.844531059265137,41.5075170993805,0</coordinates></Point></Placemark>
<Placemark><name>BORG56</name><description>230756 PORT.COM BORG (Lleida)
posicio de les: 05/08/2018 23:52:05</description><styleUrl>#w_grocP</styleUrl><Point><coordinates>0.844852924346924,41.5071201324463,0</coordinates></Point></Placemark>
<Placemark><name>LLEI04</name><description>231904 PORT LLEI (Lleida)
posicio de les: 05/08/2018 23:52:11</description><styleUrl>#w_grocP</styleUrl><Point><coordinates>0.630576610565186,41.6163074970245,0</coordinates></Point></Placemark>
<Placemark><name>LLEI05</name><description>231905 PORT LLEI (Lleida)
posicio de les: 05/08/2018 23:51:49</description><styleUrl>#w_grocP</styleUrl><Point><coordinates>0.6312096118927,41.6164255142212,0</coordinates></Point></Placemark>
<Placemark><name>LLEI13</name><description>231913 PORT LLEI (Lleida)
posicio de les: 05/08/2018 23:53:09</description><styleUrl>#w_verdP</styleUrl><Point><coordinates>0.604215860366821,41.6242039203644,0</coordinates></Point></Placemark>
<Placemark><name>31940</name><description>231940 BUP LLEI (Lleida)
posicio de les: 05/08/2018 23:51:56</description><styleUrl>#w_grocC</styleUrl><Point><coordinates>0.630576610565186,41.6162753105164,0</coordinates></Point></Placemark>
<Placemark><name>31948</name><description>231948 BUL LLEI (Lleida)
posicio de les: 05/08/2018 23:51:37</description><styleUrl>#w_grocC</styleUrl><Point><coordinates>0.631273984909058,41.616929769516,0</coordinates></Point></Placemark>
<Placemark><name>31960</name><description>231960 AEA/AES/ABA LLEI (Lleida)
posicio de les: 05/08/2018 23:51:57</description><styleUrl>#w_grocC</styleUrl><Point><coordinates>0.630244016647339,41.6162967681885,0</coordinates></Point></Placemark>
<Placemark><name>32031</name><description>232031 BRP MOLL (Lleida)
posicio de les: 05/08/2018 23:52:01</description><styleUrl>#w_grocC</styleUrl><Point><coordinates>0.631617307662964,41.6165328025818,0</coordinates></Point></Placemark>
<Placemark><name>MOLL56</name><description>232056 PORT.COM MOLL (Lleida)
posicio de les: 05/08/2018 23:53:04</description><styleUrl>#w_grocP</styleUrl><Point><coordinates>0.631102323532104,41.616393327713,0</coordinates></Point></Placemark>
<Placemark><name>32090</name><description>232090 UPC MOLL (Lleida)
posicio de les: 05/08/2018 23:52:06</description><styleUrl>#w_groc</styleUrl><Point><coordinates>0.630995035171509,41.616393327713,0</coordinates></Point></Placemark>
<Placemark><name>OLIA01</name><description>232201 PORT OLIA (Lleida)
posicio de les: 05/08/2018 23:53:16</description><styleUrl>#w_grocP</styleUrl><Point><coordinates>0.630608797073364,41.6165006160736,0</coordinates></Point></Placemark>
<Placemark><name>OLIA56</name><description>232256 PORT.COM OLIA (Lleida)
posicio de les: 05/08/2018 23:53:02</description><styleUrl>#w_grocP</styleUrl><Point><coordinates>0.630683898925781,41.616382598877,0</coordinates></Point></Placemark>
<Placemark><name>32290</name><description>232290 UPC OLIA (Lleida)
posicio de les: 05/08/2018 23:52:10</description><styleUrl>#w_groc</styleUrl><Point><coordinates>0.630748271942139,41.616393327713,0</coordinates></Point></Placemark>
<Placemark><name>POBL01</name><description>232401 PORT POBL (Lleida)
posicio de les: 05/08/2018 23:51:53</description><styleUrl>#w_verdP</styleUrl><Point><coordinates>0.96454381942749,42.2389662265778,0</coordinates></Point></Placemark>
<Placemark><name>PONT05</name><description>232505 PORT PONT (Lleida)
posicio de les: 05/08/2018 23:52:48</description><styleUrl>#w_grocP</styleUrl><Point><coordinates>0.73981761932373,42.410649061203,0</coordinates></Point></Placemark>
<Placemark><name>33131</name><description>233131 BRP TAR (Lleida)
posicio de les: 05/08/2018 23:51:25</description><styleUrl>#w_grocC</styleUrl><Point><coordinates>0.63172459602356,41.6165971755981,0</coordinates></Point></Placemark>
<Placemark><name>TREM05</name><description>233305 PORT TREM (Lleida)
posicio de les: 05/08/2018 23:52:15</description><styleUrl>#w_grocP</styleUrl><Point><coordinates>0.889109373092651,42.1645295619965,0</coordinates></Point></Placemark>
<Placemark><name>TREM07</name><description>233307 PORT TREM (Lleida)
posicio de les: 05/08/2018 23:48:18</description><styleUrl>#w_verdP</styleUrl><Point><coordinates>0.888937711715698,42.1652698516846,0</coordinates></Point></Placemark>
<Placemark><name>TREM56</name><description>233356 PORT.COM TREM (Lleida)
posicio de les: 05/08/2018 23:51:12</description><styleUrl>#w_verdP</styleUrl><Point><coordinates>0.889055728912354,42.1648836135864,0</coordinates></Point></Placemark>
<Placemark><name>FMOLL2</name><description>234508 PORT Parc X
posicio de les: 05/08/2018 23:52:25</description><styleUrl>#w_verdP</styleUrl><Point><coordinates>0.897853374481201,41.6365957260132,0</coordinates></Point></Placemark>
<Placemark><name>FTAR1</name><description>234513 PORT Parc X
posicio de les: 05/08/2018 23:52:14</description><styleUrl>#w_verdP</styleUrl><Point><coordinates>1.14895105361938,41.6511332988739,0</coordinates></Point></Placemark>
<Placemark><name>FTREM59</name><description>234559 BSAL Parc X
posicio de les: 05/08/2018 23:52:51</description><styleUrl>#w_verdB</styleUrl><Point><coordinates>0.59675931930542,41.6301047801971,0</coordinates></Point></Placemark>
<Placemark><name>I407</name><description>237407 P.GUAITA GUAITA
posicio de les: 05/08/2018 23:48:26</description><styleUrl>#w_verdP</styleUrl><Point><coordinates>0.966131687164307,42.2524631023407,0</coordinates></Point></Placemark>
<Placemark><name>REMN11</name><description>240011 P.Tec REGIÓ
posicio de les: 05/08/2018 23:53:04</description><styleUrl>#w_verdP</styleUrl><Point><coordinates>2.11188554763794,41.5018951892853,0</coordinates></Point></Placemark>
<Placemark><name>E0REMN</name><description>240012 P.Tec REGIÓ
posicio de les: 05/08/2018 23:51:06</description><styleUrl>#w_verdP</styleUrl><Point><coordinates>2.27395534515381,41.5910947322845,0</coordinates></Point></Placemark>
<Placemark><name>REMN14</name><description>240014 P.Tec REGIÓ
posicio de les: 05/08/2018 23:52:08</description><styleUrl>#w_verdP</styleUrl><Point><coordinates>2.02552914619446,41.5681993961334,0</coordinates></Point></Placemark>
<Placemark><name>40091</name><description>240091  REGIÓ
posicio de les: 05/08/2018 23:50:52</description><styleUrl>#w_groc</styleUrl><Point><coordinates>2.11159586906433,41.5022492408752,0</coordinates></Point></Placemark>
<Placemark><name>BAD02</name><description>240202 PORT BAD (Metro. Nord)
posicio de les: 05/08/2018 23:51:01</description><styleUrl>#w_verdP</styleUrl><Point><coordinates>2.23746657371521,41.4653527736664,0</coordinates></Point></Placemark>
<Placemark><name>40290</name><description>240290 UPC BAD (Metro. Nord)
posicio de les: 05/08/2018 23:50:13</description><styleUrl>#w_groc</styleUrl><Point><coordinates>2.0260226726532,41.5679740905762,0</coordinates></Point></Placemark>
<Placemark><name>CER03</name><description>240503 PORT CER (Metro. Nord)
posicio de les: 05/08/2018 23:52:01</description><styleUrl>#w_verdP</styleUrl><Point><coordinates>2.11127400398254,41.5020453929901,0</coordinates></Point></Placemark>
<Placemark><name>240556</name><description>240556 PORT.COM CER (Metro. Nord)
posicio de les: 05/08/2018 23:52:52</description><styleUrl>#w_verdP</styleUrl><Point><coordinates>2.11127400398254,41.5031182765961,0</coordinates></Point></Placemark>
<Placemark><name>GRA01</name><description>240601 PORT GRA (Metro. Nord)
posicio de les: 05/08/2018 23:52:51</description><styleUrl>#w_grocP</styleUrl><Point><coordinates>2.27413773536682,41.5900433063507,0</coordinates></Point></Placemark>
<Placemark><name>GRA13</name><description>240613 PORT GRA (Metro. Nord)
posicio de les: 05/08/2018 23:52:14</description><styleUrl>#w_verdP</styleUrl><Point><coordinates>2.27442741394043,41.5902256965637,0</coordinates></Point></Placemark>
<Placemark><name>MAT01</name><description>240901 PORT MAT (Metro. Nord)
posicio de les: 05/08/2018 23:49:55</description><styleUrl>#w_verdP</styleUrl><Point><coordinates>2.42277503013611,41.5320646762848,0</coordinates></Point></Placemark>
<Placemark><name>MOL03</name><description>241003 PORT MOL (Metro. Nord)
posicio de les: 05/08/2018 23:51:59</description><styleUrl>#w_verdP</styleUrl><Point><coordinates>2.20136404037476,41.537150144577,0</coordinates></Point></Placemark>
<Placemark><name>MFI01</name><description>241101 PORT MFI (Metro. Nord)
posicio de les: 05/08/2018 23:51:29</description><styleUrl>#w_verdP</styleUrl><Point><coordinates>2.29086399078369,41.6848969459534,0</coordinates></Point></Placemark>
<Placemark><name>MFI05</name><description>241105 PORT MFI (Metro. Nord)
posicio de les: 05/08/2018 23:51:33</description><styleUrl>#w_grocP</styleUrl><Point><coordinates>2.29071378707886,41.6853797435761,0</coordinates></Point></Placemark>
<Placemark><name>41130</name><description>241130 BRP MFI (Metro. Nord)
posicio de les: 05/08/2018 23:49:17</description><styleUrl>#w_grocC</styleUrl><Point><coordinates>2.29056358337402,41.6853475570679,0</coordinates></Point></Placemark>
<Placemark><name>CMSAB20</name><description>241420 PORT SAB (Metro. Nord)
posicio de les: 05/08/2018 23:52:58</description><styleUrl>#w_grocP</styleUrl><Point><coordinates>2.10396766662598,41.5424180030823,0</coordinates></Point></Placemark>
<Placemark><name>241440</name><description>241440 BUP SAB (Metro. Nord)
posicio de les: 05/08/2018 23:51:39</description><styleUrl>#w_grocC</styleUrl><Point><coordinates>2.10409641265869,41.5422463417053,0</coordinates></Point></Placemark>
<Placemark><name>SCG09</name><description>241809 PORT SCG (Metro. Nord)
posicio de les: 05/08/2018 23:52:34</description><styleUrl>#w_verdP</styleUrl><Point><coordinates>2.20972180366516,41.463121175766,0</coordinates></Point></Placemark>
<Placemark><name>241858</name><description>241858 BSAL SCG (Metro. Nord)
posicio de les: 05/08/2018 23:52:35</description><styleUrl>#w_verdB</styleUrl><Point><coordinates>2.209153175354,41.4636254310608,0</coordinates></Point></Placemark>
<Placemark><name>TER01</name><description>242001 PORT TER (Metro. Nord)
posicio de les: 05/08/2018 23:53:14</description><styleUrl>#w_verdP</styleUrl><Point><coordinates>2.02603340148926,41.5689289569855,0</coordinates></Point></Placemark>
<Placemark><name>TER07</name><description>242007 PORT TER (Metro. Nord)
posicio de les: 05/08/2018 23:51:56</description><styleUrl>#w_verdP</styleUrl><Point><coordinates>2.02720284461975,41.5676736831665,0</coordinates></Point></Placemark>
<Placemark><name>TOD56</name><description>242156 PORT.COM TOD (Metro. Nord)
posicio de les: 05/08/2018 23:52:30</description><styleUrl>#w_grocP</styleUrl><Point><coordinates>2.71611213684082,41.69149518013,0</coordinates></Point></Placemark>
<Placemark><name>D9REMN</name><description>248049  SERVEIS REGIÓ
posicio de les: 05/08/2018 23:49:38</description><styleUrl>#w_verd</styleUrl><Point><coordinates>2.11156368255615,41.5017771720886,0</coordinates></Point></Placemark>
<Placemark><name>50092</name><description>250092  REGIÓ
posicio de les: 05/08/2018 23:51:15</description><styleUrl>#w_verd</styleUrl><Point><coordinates>1.70457601547241,41.3546741008759,0</coordinates></Point></Placemark>
<Placemark><name>COR05</name><description>250405 PORT COR (Metro. Sud)
posicio de les: 05/08/2018 23:50:13</description><styleUrl>#w_verdP</styleUrl><Point><coordinates>2.07077264785767,41.3602316379547,0</coordinates></Point></Placemark>
<Placemark><name>COR10</name><description>250410 PORT COR (Metro. Sud)
posicio de les: 05/08/2018 23:49:37</description><styleUrl>#w_verdP</styleUrl><Point><coordinates>2.07082629203796,41.3608753681183,0</coordinates></Point></Placemark>
<Placemark><name>COR56</name><description>250456 PORT.COM COR (Metro. Sud)
posicio de les: 05/08/2018 23:51:48</description><styleUrl>#w_verdP</styleUrl><Point><coordinates>2.07039713859558,41.3603174686432,0</coordinates></Point></Placemark>
<Placemark><name>GAV01</name><description>250501 PORT GAV (Metro. Sud)
posicio de les: 05/08/2018 23:53:01</description><styleUrl>#w_verdP</styleUrl><Point><coordinates>1.99015617370605,41.3000965118408,0</coordinates></Point></Placemark>
<Placemark><name>HOS02</name><description>250702 PORT HOS (Metro. Sud)
posicio de les: 05/08/2018 23:52:30</description><styleUrl>#w_verdP</styleUrl><Point><coordinates>2.1057915687561,41.370005607605,0</coordinates></Point></Placemark>
<Placemark><name>LLA03</name><description>250903 PORT LLA (Metro. Sud)
posicio de les: 05/08/2018 23:53:20</description><styleUrl>#w_grocP</styleUrl><Point><coordinates>1.53038263320923,41.4733242988586,0</coordinates></Point></Placemark>
<Placemark><name>MAR11</name><description>251011 PORT MAR (Metro. Sud)
posicio de les: 05/08/2018 23:51:24</description><styleUrl>#w_grocP</styleUrl><Point><coordinates>1.90572023391724,41.4979791641235,0</coordinates></Point></Placemark>
<Placemark><name>MAR57</name><description>251057 PORT.COM MAR (Metro. Sud)
posicio de les: 05/08/2018 23:52:35</description><styleUrl>#w_verdP</styleUrl><Point><coordinates>1.90810203552246,41.4987623691559,0</coordinates></Point></Placemark>
<Placemark><name>251230</name><description>251230 BRP PLL (Metro. Sud)
posicio de les: 05/08/2018 23:53:06</description><styleUrl>#w_verdC</styleUrl><Point><coordinates>2.09055662155151,41.3195478916168,0</coordinates></Point></Placemark>
<Placemark><name>PLL57</name><description>251257 PORT.COM PLL (Metro. Sud)
posicio de les: 05/08/2018 23:50:31</description><styleUrl>#w_verdP</styleUrl><Point><coordinates>2.08154439926147,41.3171768188477,0</coordinates></Point></Placemark>
<Placemark><name>SBOI57</name><description>251357 PORT.COM SBOI (Metro. Sud)
posicio de les: 05/08/2018 23:51:26</description><styleUrl>#w_verdP</styleUrl><Point><coordinates>2.03382253646851,41.3225090503693,0</coordinates></Point></Placemark>
<Placemark><name>51381</name><description>251381 UPCL/USL SBOI (Metro. Sud)
posicio de les: 05/08/2018 23:50:41</description><styleUrl>#w_groc</styleUrl><Point><coordinates>2.03425168991089,41.3229167461395,0</coordinates></Point></Placemark>
<Placemark><name>SFE57</name><description>251557 PORT.COM SFE (Metro. Sud)
posicio de les: 05/08/2018 23:51:18</description><styleUrl>#w_verdP</styleUrl><Point><coordinates>2.04331755638123,41.3883197307587,0</coordinates></Point></Placemark>
<Placemark><name>CMS15</name><description>254515 PORT Parc X
posicio de les: 05/08/2018 23:49:35</description><styleUrl>#w_verdP</styleUrl><Point><coordinates>1.70421123504639,41.3546419143677,0</coordinates></Point></Placemark>
<Placemark><name>I215</name><description>257215 P.GUAITA GUAITA
posicio de les: 05/08/2018 23:52:57</description><styleUrl>#w_grocP</styleUrl><Point><coordinates>1.66399955749512,41.4992022514343,0</coordinates></Point></Placemark>
<Placemark><name>D1REMS</name><description>258041  SERVEIS REGIÓ
posicio de les: 05/08/2018 23:52:07</description><styleUrl>#w_verd</styleUrl><Point><coordinates>2.0334792137146,41.3222086429596,0</coordinates></Point></Placemark>
<Placemark><name>RET11</name><description>260011 P.Tec REGIÓ
posicio de les: 05/08/2018 23:52:44</description><styleUrl>#w_verdP</styleUrl><Point><coordinates>1.185622215271,41.1347222328186,0</coordinates></Point></Placemark>
<Placemark><name>FALS06</name><description>260406 PORT FALS (Tarragona)
posicio de les: 05/08/2018 23:49:51</description><styleUrl>#w_verdP</styleUrl><Point><coordinates>0.823212862014771,41.1473393440247,0</coordinates></Point></Placemark>
<Placemark><name>260508</name><description>260508 PORT HOSP (Tarragona)
posicio de les: 05/08/2018 23:52:59</description><styleUrl>#w_verdP</styleUrl><Point><coordinates>0.919954776763916,40.9936809539795,0</coordinates></Point></Placemark>
<Placemark><name>MONT02</name><description>260602 PORT MONT (Tarragona)
posicio de les: 05/08/2018 23:52:04</description><styleUrl>#w_verdP</styleUrl><Point><coordinates>0.630608797073364,41.6164040565491,0</coordinates></Point></Placemark>
<Placemark><name>60844</name><description>260844 BNP REUS (Tarragona)
posicio de les: 05/08/2018 23:51:39</description><styleUrl>#w_grocC</styleUrl><Point><coordinates>1.11810564994812,41.1509335041046,0</coordinates></Point></Placemark>
<Placemark><name>60890</name><description>260890 UPC REUS (Tarragona)
posicio de les: 05/08/2018 23:49:59</description><styleUrl>#w_verd</styleUrl><Point><coordinates>1.11796617507935,41.1506330966949,0</coordinates></Point></Placemark>
<Placemark><name>61234</name><description>261234 BFP TARR (Tarragona)
posicio de les: 05/08/2018 23:52:24</description><styleUrl>#w_grocC</styleUrl><Point><coordinates>1.22074842453003,41.11443400383,0</coordinates></Point></Placemark>
<Placemark><name>VALS56</name><description>261356 PORT.COM VALS (Tarragona)
posicio de les: 05/08/2018 23:51:35</description><styleUrl>#w_verdP</styleUrl><Point><coordinates>1.26074552536011,41.3069522380829,0</coordinates></Point></Placemark>
<Placemark><name>61390</name><description>261390 UPC VALS (Tarragona)
posicio de les: 05/08/2018 23:50:02</description><styleUrl>#w_verd</styleUrl><Point><coordinates>1.25971555709839,41.3068878650665,0</coordinates></Point></Placemark>
<Placemark><name>VEND10</name><description>261410 PORT VEND (Tarragona)
posicio de les: 05/08/2018 23:52:31</description><styleUrl>#w_verdP</styleUrl><Point><coordinates>1.54117584228516,41.2223982810974,0</coordinates></Point></Placemark>
<Placemark><name>E00RETE</name><description>270014 P.Tec REGIÓ
posicio de les: 05/08/2018 23:51:23</description><styleUrl>#w_verdP</styleUrl><Point><coordinates>0.513267517089844,40.8193910121918,0</coordinates></Point></Placemark>
<Placemark><name>AMET05</name><description>272005 PORT AMET (Terres de l'Ebre)
posicio de les: 05/08/2018 23:49:46</description><styleUrl>#w_verdP</styleUrl><Point><coordinates>0.797613859176636,40.890212059021,0</coordinates></Point></Placemark>
<Placemark><name>GAND56</name><description>272656 PORT.COM GAND (Terres de l'Ebre)
posicio de les: 05/08/2018 23:51:59</description><styleUrl>#w_verdP</styleUrl><Point><coordinates>0.439270734786987,41.0585582256317,0</coordinates></Point></Placemark>
<Placemark><name>MORA56</name><description>272856 PORT.COM MORA (Terres de l'Ebre)
posicio de les: 05/08/2018 23:53:10</description><styleUrl>#w_grocP</styleUrl><Point><coordinates>0.629535913467407,41.0860884189606,0</coordinates></Point></Placemark>
<Placemark><name>ULLD04</name><description>273104 PORT ULLD (Terres de l'Ebre)
posicio de les: 05/08/2018 23:48:08</description><styleUrl>#w_verdP</styleUrl><Point><coordinates>0.358214378356934,40.6083548069,0</coordinates></Point></Placemark>
<Placemark><name>ULLD08</name><description>273108 PORT ULLD (Terres de l'Ebre)
posicio de les: 05/08/2018 23:52:10</description><styleUrl>#w_grocP</styleUrl><Point><coordinates>0.358611345291138,40.6085586547852,0</coordinates></Point></Placemark>
<Placemark><name>E_93</name><description>278031  SERVEIS REGIÓ
posicio de les: 05/08/2018 23:52:45</description><styleUrl>#w_verd</styleUrl><Point><coordinates>0.513546466827393,40.8195734024048,0</coordinates></Point></Placemark>
</Folder>
<Folder>
<name>Descarregues</name>
</Folder>
<Style id="w_verdP_n"><IconStyle><color>ff00ff00</color><scale>1.0</scale><Icon><href>http://maps.google.com/mapfiles/kml/shapes/man.png</href></Icon><hotSpot x="0.5" y="0" xunits="fraction" yunits="fraction"/></IconStyle><LabelStyle><scale>0.7</scale></LabelStyle></Style>
<Style id="w_verdP_s"><IconStyle><color>ff00ff00</color><scale>1.4</scale><Icon><href>http://maps.google.com/mapfiles/kml/shapes/man.png</href></Icon><hotSpot x="0.5" y="0" xunits="fraction" yunits="fraction"/></IconStyle><LabelStyle><scale>0.7</scale></LabelStyle></Style>
<StyleMap id="w_verdP"><Pair><key>normal</key><styleUrl>#w_verdP_n</styleUrl></Pair><Pair><key>highlight</key><styleUrl>#w_verdP_s</styleUrl></Pair></StyleMap>
<Style id="w_verd_n"><IconStyle><color>ff00ff00</color><scale>0.7</scale><Icon><href>http://maps.google.com/mapfiles/kml/shapes/cabs.png</href></Icon><hotSpot x="0.5" y="0" xunits="fraction" yunits="fraction"/></IconStyle><LabelStyle><scale>0.7</scale></LabelStyle></Style>
<Style id="w_verd_s"><IconStyle><color>ff00ff00</color><scale>1.0</scale><Icon><href>http://maps.google.com/mapfiles/kml/shapes/cabs.png</href></Icon><hotSpot x="0.5" y="0" xunits="fraction" yunits="fraction"/></IconStyle><LabelStyle><scale>0.7</scale></LabelStyle></Style>
<StyleMap id="w_verd"><Pair><key>normal</key><styleUrl>#w_verd_n</styleUrl></Pair><Pair><key>highlight</key><styleUrl>#w_verd_s</styleUrl></Pair></StyleMap>
<Style id="w_verdC_n"><IconStyle><color>ff00ff00</color><scale>1.0</scale><Icon><href>http://maps.google.com/mapfiles/kml/shapes/truck.png</href></Icon><hotSpot x="0.5" y="0" xunits="fraction" yunits="fraction"/></IconStyle><LabelStyle><scale>0.7</scale></LabelStyle></Style>
<Style id="w_verdC_s"><IconStyle><color>ff00ff00</color><scale>1.4</scale><Icon><href>http://maps.google.com/mapfiles/kml/shapes/truck.png</href></Icon><hotSpot x="0.5" y="0" xunits="fraction" yunits="fraction"/></IconStyle><LabelStyle><scale>0.7</scale></LabelStyle></Style>
<StyleMap id="w_verdC"><Pair><key>normal</key><styleUrl>#w_verdC_n</styleUrl></Pair><Pair><key>highlight</key><styleUrl>#w_verdC_s</styleUrl></Pair></StyleMap>
<Style id="w_verdH_n"><IconStyle><color>ff0000ff</color><scale>1.2</scale><Icon><href>http://maps.google.com/mapfiles/kml/shapes/heliport.png</href></Icon><hotSpot x="0.5" y="0" xunits="fraction" yunits="fraction"/></IconStyle><LabelStyle><scale>0.7</scale></LabelStyle></Style>
<Style id="w_verdH_s"><IconStyle><color>ff0000ff</color><scale>1.4</scale><Icon><href>http://maps.google.com/mapfiles/kml/shapes/heliport.png</href></Icon><hotSpot x="0.5" y="0" xunits="fraction" yunits="fraction"/></IconStyle><LabelStyle><scale>0.7</scale></LabelStyle></Style>
<StyleMap id="w_verdH"><Pair><key>normal</key><styleUrl>#w_verdH_n</styleUrl></Pair><Pair><key>highlight</key><styleUrl>#w_verdH_s</styleUrl></Pair></StyleMap>
<Style id="w_verdA_n"><IconStyle><color>ff0000ff</color><scale>1.2</scale><Icon><href>http://maps.google.com/mapfiles/kml/shapes/airports.png</href></Icon><hotSpot x="0.5" y="0" xunits="fraction" yunits="fraction"/></IconStyle><LabelStyle><scale>0.7</scale></LabelStyle></Style>
<Style id="w_verdA_s"><IconStyle><color>ff0000ff</color><scale>1.4</scale><Icon><href>http://maps.google.com/mapfiles/kml/shapes/airports.png</href></Icon><hotSpot x="0.5" y="0" xunits="fraction" yunits="fraction"/></IconStyle><LabelStyle><scale>0.7</scale></LabelStyle></Style>
<StyleMap id="w_verdA"><Pair><key>normal</key><styleUrl>#w_verdA_n</styleUrl></Pair><Pair><key>highlight</key><styleUrl>#w_verdA_s</styleUrl></Pair></StyleMap>
<Style id="w_verdB_n"><IconStyle><color>ff00ff00</color><scale>1.0</scale><Icon><href>http://maps.google.com/mapfiles/kml/shapes/sailing.png</href></Icon><hotSpot x="0.5" y="0" xunits="fraction" yunits="fraction"/></IconStyle><LabelStyle><scale>0.7</scale></LabelStyle></Style>
<Style id="w_verdB_s"><IconStyle><color>ff00ff00</color><scale>1.4</scale><Icon><href>http://maps.google.com/mapfiles/kml/shapes/sailing.png</href></Icon><hotSpot x="0.5" y="0" xunits="fraction" yunits="fraction"/></IconStyle><LabelStyle><scale>0.7</scale></LabelStyle></Style>
<StyleMap id="w_verdB"><Pair><key>normal</key><styleUrl>#w_verdBAR_n</styleUrl></Pair><Pair><key>highlight</key><styleUrl>#w_verdBAR_s</styleUrl></Pair></StyleMap>
<Style id="w_grocP_n"><IconStyle><color>ff00ffff</color><scale>1.0</scale><Icon><href>http://maps.google.com/mapfiles/kml/shapes/man.png</href></Icon><hotSpot x="0.5" y="0" xunits="fraction" yunits="fraction"/></IconStyle><LabelStyle><scale>0.7</scale></LabelStyle></Style>
<Style id="w_grocP_s"><IconStyle><color>ff00ffff</color><scale>1.4</scale><Icon><href>http://maps.google.com/mapfiles/kml/shapes/man.png</href></Icon><hotSpot x="0.5" y="0" xunits="fraction" yunits="fraction"/></IconStyle><LabelStyle><scale>0.7</scale></LabelStyle></Style>
<StyleMap id="w_grocP"><Pair><key>normal</key><styleUrl>#w_grocP_n</styleUrl></Pair><Pair><key>highlight</key><styleUrl>#w_grocP_s</styleUrl></Pair></StyleMap>
<Style id="w_groc_n"><IconStyle><color>ff00ffff</color><scale>0.7</scale><Icon><href>http://maps.google.com/mapfiles/kml/shapes/cabs.png</href></Icon><hotSpot x="0.5" y="0" xunits="fraction" yunits="fraction"/></IconStyle><LabelStyle><scale>0.7</scale></LabelStyle></Style>
<Style id="w_groc_s"><IconStyle><color>ff00ffff</color><scale>1.0</scale><Icon><href>http://maps.google.com/mapfiles/kml/shapes/cabs.png</href></Icon><hotSpot x="0.5" y="0" xunits="fraction" yunits="fraction"/></IconStyle><LabelStyle><scale>0.7</scale></LabelStyle></Style>
<StyleMap id="w_groc"><Pair><key>normal</key><styleUrl>#w_groc_n</styleUrl></Pair><Pair><key>highlight</key><styleUrl>#w_groc_s</styleUrl></Pair></StyleMap>
<Style id="w_grocC_n"><IconStyle><color>ff00ffff</color><scale>1.0</scale><Icon><href>http://maps.google.com/mapfiles/kml/shapes/truck.png</href></Icon><hotSpot x="0.5" y="0" xunits="fraction" yunits="fraction"/></IconStyle><LabelStyle><scale>0.7</scale></LabelStyle></Style>
<Style id="w_grocC_s"><IconStyle><color>ff00ffff</color><scale>1.4</scale><Icon><href>http://maps.google.com/mapfiles/kml/shapes/truck.png</href></Icon><hotSpot x="0.5" y="0" xunits="fraction" yunits="fraction"/></IconStyle><LabelStyle><scale>0.7</scale></LabelStyle></Style>
<StyleMap id="w_grocC"><Pair><key>normal</key><styleUrl>#w_grocC_n</styleUrl></Pair><Pair><key>highlight</key><styleUrl>#w_grocC_s</styleUrl></Pair></StyleMap>
<Style id="w_grocH_n"><IconStyle><color>ff0000ff</color><scale>1.2</scale><Icon><href>http://maps.google.com/mapfiles/kml/shapes/heliport.png</href></Icon><hotSpot x="0.5" y="0" xunits="fraction" yunits="fraction"/></IconStyle><LabelStyle><scale>0.7</scale></LabelStyle></Style>
<Style id="w_grocH_s"><IconStyle><color>ff0000ff</color><scale>1.4</scale><Icon><href>http://maps.google.com/mapfiles/kml/shapes/heliport.png</href></Icon><hotSpot x="0.5" y="0" xunits="fraction" yunits="fraction"/></IconStyle><LabelStyle><scale>0.7</scale></LabelStyle></Style>
<StyleMap id="w_grocH"><Pair><key>normal</key><styleUrl>#w_grocH_n</styleUrl></Pair><Pair><key>highlight</key><styleUrl>#w_grocH_s</styleUrl></Pair></StyleMap>
<Style id="w_grocA_n"><IconStyle><color>ff0000ff</color><scale>1.2</scale><Icon><href>http://maps.google.com/mapfiles/kml/shapes/airports.png</href></Icon><hotSpot x="0.5" y="0" xunits="fraction" yunits="fraction"/></IconStyle><LabelStyle><scale>0.7</scale></LabelStyle></Style>
<Style id="w_grocA_s"><IconStyle><color>ff0000ff</color><scale>1.4</scale><Icon><href>http://maps.google.com/mapfiles/kml/shapes/airports.png</href></Icon><hotSpot x="0.5" y="0" xunits="fraction" yunits="fraction"/></IconStyle><LabelStyle><scale>0.7</scale></LabelStyle></Style>
<StyleMap id="w_grocA"><Pair><key>normal</key><styleUrl>#w_grocA_n</styleUrl></Pair><Pair><key>highlight</key><styleUrl>#w_grocA_s</styleUrl></Pair></StyleMap>
<Style id="w_grocB_n"><IconStyle><color>ff00ffff</color><scale>1.0</scale><Icon><href>http://maps.google.com/mapfiles/kml/shapes/sailing.png</href></Icon><hotSpot x="0.5" y="0" xunits="fraction" yunits="fraction"/></IconStyle><LabelStyle><scale>0.7</scale></LabelStyle></Style>
<Style id="w_grocB_s"><IconStyle><color>ff00ffff</color><scale>1.4</scale><Icon><href>http://maps.google.com/mapfiles/kml/shapes/sailing.png</href></Icon><hotSpot x="0.5" y="0" xunits="fraction" yunits="fraction"/></IconStyle><LabelStyle><scale>0.7</scale></LabelStyle></Style>
<StyleMap id="w_grocB"><Pair><key>normal</key><styleUrl>#w_grocBAR_n</styleUrl></Pair><Pair><key>highlight</key><styleUrl>#w_grocBAR_s</styleUrl></Pair></StyleMap>
<Style id="w_vermellP_n"><IconStyle><color>ff0000ff</color><scale>1.0</scale><Icon><href>http://maps.google.com/mapfiles/kml/shapes/man.png</href></Icon><hotSpot x="0.5" y="0" xunits="fraction" yunits="fraction"/></IconStyle><LabelStyle><scale>0.7</scale></LabelStyle></Style>
<Style id="w_vermellP_s"><IconStyle><color>ff0000ff</color><scale>1.4</scale><Icon><href>http://maps.google.com/mapfiles/kml/shapes/man.png</href></Icon><hotSpot x="0.5" y="0" xunits="fraction" yunits="fraction"/></IconStyle><LabelStyle><scale>0.7</scale></LabelStyle></Style>
<StyleMap id="w_vermellP"><Pair><key>normal</key><styleUrl>#w_vermellP_n</styleUrl></Pair><Pair><key>highlight</key><styleUrl>#w_vermellP_s</styleUrl></Pair></StyleMap>
<Style id="w_vermell_n"><IconStyle><color>ff0000ff</color><scale>0.7</scale><Icon><href>http://maps.google.com/mapfiles/kml/shapes/cabs.png</href></Icon><hotSpot x="0.5" y="0" xunits="fraction" yunits="fraction"/></IconStyle><LabelStyle><scale>0.7</scale></LabelStyle></Style>
<Style id="w_vermell_s"><IconStyle><color>ff0000ff</color><scale>1.0</scale><Icon><href>http://maps.google.com/mapfiles/kml/shapes/cabs.png</href></Icon><hotSpot x="0.5" y="0" xunits="fraction" yunits="fraction"/></IconStyle><LabelStyle><scale>0.7</scale></LabelStyle></Style>
<StyleMap id="w_vermell"><Pair><key>normal</key><styleUrl>#w_vermell_n</styleUrl></Pair><Pair><key>highlight</key><styleUrl>#w_vermell_s</styleUrl></Pair></StyleMap>
<Style id="w_vermellC_n"><IconStyle><color>ff0000ff</color><scale>1.0</scale><Icon><href>http://maps.google.com/mapfiles/kml/shapes/truck.png</href></Icon><hotSpot x="0.5" y="0" xunits="fraction" yunits="fraction"/></IconStyle><LabelStyle><scale>0.7</scale></LabelStyle></Style>
<Style id="w_vermellC_s"><IconStyle><color>ff0000ff</color><scale>1.4</scale><Icon><href>http://maps.google.com/mapfiles/kml/shapes/truck.png</href></Icon><hotSpot x="0.5" y="0" xunits="fraction" yunits="fraction"/></IconStyle><LabelStyle><scale>0.7</scale></LabelStyle></Style>
<StyleMap id="w_vermellC"><Pair><key>normal</key><styleUrl>#w_vermellC_n</styleUrl></Pair><Pair><key>highlight</key><styleUrl>#w_vermellC_s</styleUrl></Pair></StyleMap>
<Style id="w_vermellH_n"><IconStyle><color>ff0000ff</color><scale>1.2</scale><Icon><href>http://maps.google.com/mapfiles/kml/shapes/heliport.png</href></Icon><hotSpot x="0.5" y="0" xunits="fraction" yunits="fraction"/></IconStyle><LabelStyle><scale>0.7</scale></LabelStyle></Style>
<Style id="w_vermellH_s"><IconStyle><color>ff0000ff</color><scale>1.4</scale><Icon><href>http://maps.google.com/mapfiles/kml/shapes/heliport.png</href></Icon><hotSpot x="0.5" y="0" xunits="fraction" yunits="fraction"/></IconStyle><LabelStyle><scale>0.7</scale></LabelStyle></Style>
<StyleMap id="w_vermellH"><Pair><key>normal</key><styleUrl>#w_vermellH_n</styleUrl></Pair><Pair><key>highlight</key><styleUrl>#w_vermellH_s</styleUrl></Pair></StyleMap>
<Style id="w_vermellA_n"><IconStyle><color>ff0000ff</color><scale>1.2</scale><Icon><href>http://maps.google.com/mapfiles/kml/shapes/airports.png</href></Icon><hotSpot x="0.5" y="0" xunits="fraction" yunits="fraction"/></IconStyle><LabelStyle><scale>0.7</scale></LabelStyle></Style>
<Style id="w_vermellA_s"><IconStyle><color>ff0000ff</color><scale>1.4</scale><Icon><href>http://maps.google.com/mapfiles/kml/shapes/airports.png</href></Icon><hotSpot x="0.5" y="0" xunits="fraction" yunits="fraction"/></IconStyle><LabelStyle><scale>0.7</scale></LabelStyle></Style>
<StyleMap id="w_vermellA"><Pair><key>normal</key><styleUrl>#w_vermellA_n</styleUrl></Pair><Pair><key>highlight</key><styleUrl>#w_vermellA_s</styleUrl></Pair></StyleMap>
<Style id="w_vermellB_n"><IconStyle><color>ff0000ff</color><scale>1.0</scale><Icon><href>http://maps.google.com/mapfiles/kml/shapes/sailing.png</href></Icon><hotSpot x="0.5" y="0" xunits="fraction" yunits="fraction"/></IconStyle><LabelStyle><scale>0.7</scale></LabelStyle></Style>
<Style id="w_vermellB_s"><IconStyle><color>ff0000ff</color><scale>1.4</scale><Icon><href>http://maps.google.com/mapfiles/kml/shapes/sailing.png</href></Icon><hotSpot x="0.5" y="0" xunits="fraction" yunits="fraction"/></IconStyle><LabelStyle><scale>0.7</scale></LabelStyle></Style>
<StyleMap id="w_vermellB"><Pair><key>normal</key><styleUrl>#w_vermellBAR_n</styleUrl></Pair><Pair><key>highlight</key><styleUrl>#w_vermellBAR_s</styleUrl></Pair></StyleMap>
<Style id="w_descarrega"><IconStyle><color>ff00ffff</color><scale>0.5</scale><Icon><href>http://maps.google.com/mapfiles/kml/shapes/road_shield3.png</href></Icon></IconStyle><LabelStyle><scale>0.7</scale></LabelStyle></Style><Style id="actuacio"><IconStyle><color>ff00ffff</color><scale>0.8</scale><Icon><href>http://maps.google.com/mapfiles/kml/shapes/caution.png</href></Icon></IconStyle><LabelStyle><scale>0.7</scale></LabelStyle></Style></Document></kml>