<?xml version="1.0" encoding="UTF-8"?>
<kml xmlns="http://www.opengis.net/kml/2.2" xmlns:gx="http://www.google.com/kml/ext/2.2" xmlns:kml="http://www.opengis.net/kml/2.2" xmlns:atom="http://www.w3.org/2005/Atom">
<Document>
<name>Terminals</name>
<Snippet maxLines="2">Created 05/08/2018 07:32:21</Snippet>
<Folder>
<name>Terminals</name>
<Placemark><name>GGRAF12</name><description>204212 P.REC
posicio de les: 05/08/2018 07:30:57</description><styleUrl>#w_verdP</styleUrl><Point><coordinates>2.97492384910584,42.029721736908,0</coordinates></Point></Placemark>
<Placemark><name>OP05087</name><description>205287 OP.AAV
posicio de les: 05/08/2018 07:31:29</description><styleUrl>#w_grocP</styleUrl><Point><coordinates>1.15821003913879,41.1479616165161,0</coordinates></Point></Placemark>
<Placemark><name>VIEL12</name><description>208012 P.PT VARAN
posicio de les: 05/08/2018 07:31:34</description><styleUrl>#w_grocP</styleUrl><Point><coordinates>0.801218748092651,42.6995229721069,0</coordinates></Point></Placemark>
<Placemark><name>VIEL17</name><description>208017 BASE CCA VARAN
posicio de les: 05/08/2018 07:31:53</description><styleUrl>#w_groc</styleUrl><Point><coordinates>0.796723365783691,42.7081060409546,0</coordinates></Point></Placemark>
<Placemark><name>10330</name><description>210330 BRP BER (Centre)
posicio de les: 05/08/2018 07:30:04</description><styleUrl>#w_grocC</styleUrl><Point><coordinates>1.78097605705261,42.0269858837128,0</coordinates></Point></Placemark>
<Placemark><name>10350</name><description>210350 FSV/FRQ/FER/FRM/FRA/FSA BER (Centre)
posicio de les: 05/08/2018 07:30:07</description><styleUrl>#w_grocC</styleUrl><Point><coordinates>1.78113698959351,42.0270824432373,0</coordinates></Point></Placemark>
<Placemark><name>CAF04</name><description>210404 PORT CAF (Centre)
posicio de les: 05/08/2018 07:31:12</description><styleUrl>#w_verdP</styleUrl><Point><coordinates>1.5277111530304,41.7307841777802,0</coordinates></Point></Placemark>
<Placemark><name>CAF56</name><description>210456 PORT.COM CAF (Centre)
posicio de les: 05/08/2018 07:31:27</description><styleUrl>#w_verdP</styleUrl><Point><coordinates>1.5275502204895,41.7308485507965,0</coordinates></Point></Placemark>
<Placemark><name>CAB56</name><description>210656 PORT.COM CAB (Centre)
posicio de les: 05/08/2018 07:30:21</description><styleUrl>#w_grocP</styleUrl><Point><coordinates>1.68507099151611,41.6659820079803,0</coordinates></Point></Placemark>
<Placemark><name>GIR02</name><description>210702 PORT GIR (Centre)
posicio de les: 05/08/2018 07:32:00</description><styleUrl>#w_verdP</styleUrl><Point><coordinates>1.79773449897766,42.0238852500916,0</coordinates></Point></Placemark>
<Placemark><name>10730</name><description>210730 BRP GIR (Centre)
posicio de les: 05/08/2018 07:32:08</description><styleUrl>#w_verdC</styleUrl><Point><coordinates>1.78149104118347,42.0272219181061,0</coordinates></Point></Placemark>
<Placemark><name>10780</name><description>210780 UPCL/USL GIR (Centre)
posicio de les: 05/08/2018 07:32:13</description><styleUrl>#w_verd</styleUrl><Point><coordinates>1.79535269737244,42.0244324207306,0</coordinates></Point></Placemark>
<Placemark><name>MAN01</name><description>211001 PORT MAN (Centre)
posicio de les: 05/08/2018 07:31:24</description><styleUrl>#w_verdP</styleUrl><Point><coordinates>1.85171127319336,41.7410087585449,0</coordinates></Point></Placemark>
<Placemark><name>MAN03</name><description>211003 PORT MAN (Centre)
posicio de les: 05/08/2018 07:32:19</description><styleUrl>#w_verdP</styleUrl><Point><coordinates>1.85172200202942,41.7416203022003,0</coordinates></Point></Placemark>
<Placemark><name>MAN09</name><description>211009 PORT MAN (Centre)
posicio de les: 05/08/2018 07:32:09</description><styleUrl>#w_grocP</styleUrl><Point><coordinates>1.85201168060303,41.7412984371185,0</coordinates></Point></Placemark>
<Placemark><name>PRA07</name><description>211407 PORT PRA (Centre)
posicio de les: 05/08/2018 07:31:38</description><styleUrl>#w_grocP</styleUrl><Point><coordinates>2.03618288040161,42.0080387592316,0</coordinates></Point></Placemark>
<Placemark><name>SOLS20</name><description>211920 PORT SOLS (Centre)
posicio de les: 05/08/2018 07:26:44</description><styleUrl>#w_verdP</styleUrl><Point><coordinates>1.51302337646484,41.9894564151764,0</coordinates></Point></Placemark>
<Placemark><name>TOR02</name><description>212002 PORT TOR (Centre)
posicio de les: 05/08/2018 07:32:14</description><styleUrl>#w_verdP</styleUrl><Point><coordinates>2.26686358451843,42.0484972000122,0</coordinates></Point></Placemark>
<Placemark><name>12150</name><description>212150 FSV/FRQ/FER/FRM/FRA/FSA VIC (Centre)
posicio de les: 05/08/2018 07:31:01</description><styleUrl>#w_grocC</styleUrl><Point><coordinates>2.22011804580688,41.8546807765961,0</coordinates></Point></Placemark>
<Placemark><name>GE0REG</name><description>220013 P.Tec REGIÓ
posicio de les: 05/08/2018 07:31:03</description><styleUrl>#w_verdP</styleUrl><Point><coordinates>3.16075801849365,42.2765600681305,0</coordinates></Point></Placemark>
<Placemark><name>20080</name><description>220080  REGIÓ
posicio de les: 05/08/2018 07:32:10</description><styleUrl>#w_verd</styleUrl><Point><coordinates>2.75439262390137,41.8604636192322,0</coordinates></Point></Placemark>
<Placemark><name>20099</name><description>220099  REGIÓ
posicio de les: 05/08/2018 07:32:14</description><styleUrl>#w_verd</styleUrl><Point><coordinates>2.70870923995972,41.7531859874725,0</coordinates></Point></Placemark>
<Placemark><name>20134</name><description>220134 BFP AMER (Girona)
posicio de les: 05/08/2018 07:30:07</description><styleUrl>#w_grocC</styleUrl><Point><coordinates>3.15353751182556,42.3578953742981,0</coordinates></Point></Placemark>
<Placemark><name>20330</name><description>220330 BRP BANY (Girona)
posicio de les: 05/08/2018 07:31:18</description><styleUrl>#w_grocC</styleUrl><Point><coordinates>2.78565645217896,42.1179986000061,0</coordinates></Point></Placemark>
<Placemark><name>CASS56</name><description>220856 PORT.COM CASS (Girona)
posicio de les: 05/08/2018 07:31:37</description><styleUrl>#w_verdP</styleUrl><Point><coordinates>2.88363218307495,41.8796360492706,0</coordinates></Point></Placemark>
<Placemark><name>FIGU56</name><description>221056 PORT.COM FIGU (Girona)
posicio de les: 05/08/2018 07:30:52</description><styleUrl>#w_grocP</styleUrl><Point><coordinates>2.97067523002625,42.272139787674,0</coordinates></Point></Placemark>
<Placemark><name>GIRO08</name><description>221108 PORT GIRO (Girona)
posicio de les: 05/08/2018 07:31:23</description><styleUrl>#w_verdP</styleUrl><Point><coordinates>2.80645966529846,41.9609928131104,0</coordinates></Point></Placemark>
<Placemark><name>GIRO09</name><description>221109 PORT GIRO (Girona)
posicio de les: 05/08/2018 07:30:41</description><styleUrl>#w_verdP</styleUrl><Point><coordinates>2.80656695365906,41.960756778717,0</coordinates></Point></Placemark>
<Placemark><name>21230</name><description>221230 BRP HOST (Girona)
posicio de les: 05/08/2018 07:27:32</description><styleUrl>#w_grocC</styleUrl><Point><coordinates>2.63160109519959,41.7451930046082,0</coordinates></Point></Placemark>
<Placemark><name>JONQ07</name><description>221307 PORT JONQ (Girona)
posicio de les: 05/08/2018 07:31:40</description><styleUrl>#w_verdP</styleUrl><Point><coordinates>2.87649750709534,42.4123013019562,0</coordinates></Point></Placemark>
<Placemark><name>LLAN57</name><description>221457 PORT.COM LLAN (Girona)
posicio de les: 05/08/2018 07:29:01</description><styleUrl>#w_verdP</styleUrl><Point><coordinates>3.1544816493988,42.3571336269379,0</coordinates></Point></Placemark>
<Placemark><name>LLOR56</name><description>221556 PORT.COM LLOR (Girona)
posicio de les: 05/08/2018 07:26:21</description><styleUrl>#w_verdP</styleUrl><Point><coordinates>2.83600687980652,41.6989302635193,0</coordinates></Point></Placemark>
<Placemark><name>21590</name><description>221590 UPC LLOR (Girona)
posicio de les: 05/08/2018 07:30:37</description><styleUrl>#w_verd</styleUrl><Point><coordinates>2.8364360332489,41.699423789978,0</coordinates></Point></Placemark>
<Placemark><name>OLOT56</name><description>221756 PORT.COM OLOT (Girona)
posicio de les: 05/08/2018 07:26:41</description><styleUrl>#w_verdP</styleUrl><Point><coordinates>2.47486352920532,42.1898710727692,0</coordinates></Point></Placemark>
<Placemark><name>PALA56</name><description>221856 PORT.COM PALA (Girona)
posicio de les: 05/08/2018 07:30:36</description><styleUrl>#w_grocP</styleUrl><Point><coordinates>3.15590858459473,41.9257164001465,0</coordinates></Point></Placemark>
<Placemark><name>RIPO03</name><description>222103 PORT RIPO (Girona)
posicio de les: 05/08/2018 07:28:29</description><styleUrl>#w_verdP</styleUrl><Point><coordinates>2.16842651367188,42.2150087356567,0</coordinates></Point></Placemark>
<Placemark><name>22130</name><description>222130 BRP RIPO (Girona)
posicio de les: 05/08/2018 07:32:20</description><styleUrl>#w_grocC</styleUrl><Point><coordinates>2.1687912940979,42.215051651001,0</coordinates></Point></Placemark>
<Placemark><name>ROSE01</name><description>222201 PORT ROSE (Girona)
posicio de les: 05/08/2018 07:29:46</description><styleUrl>#w_verdP</styleUrl><Point><coordinates>3.16131591796875,42.2765707969666,0</coordinates></Point></Placemark>
<Placemark><name>ROSE56</name><description>222256 PORT.COM ROSE (Girona)
posicio de les: 05/08/2018 07:30:54</description><styleUrl>#w_verdP</styleUrl><Point><coordinates>3.16077947616577,42.2768497467041,0</coordinates></Point></Placemark>
<Placemark><name>TORR56</name><description>222656 PORT.COM TORR (Girona)
posicio de les: 05/08/2018 07:31:27</description><styleUrl>#w_grocP</styleUrl><Point><coordinates>3.16720604896545,42.0480144023895,0</coordinates></Point></Placemark>
<Placemark><name>VALL56</name><description>222856 PORT.COM VALL (Girona)
posicio de les: 05/08/2018 07:30:50</description><styleUrl>#w_verdP</styleUrl><Point><coordinates>3.03199052810669,41.8086969852448,0</coordinates></Point></Placemark>
<Placemark><name>VALL57</name><description>222857 PORT.COM VALL (Girona)
posicio de les: 05/08/2018 07:31:08</description><styleUrl>#w_grocP</styleUrl><Point><coordinates>3.03195834159851,41.8088471889496,0</coordinates></Point></Placemark>
<Placemark><name>I308</name><description>227308 P.GUAITA GUAITA
posicio de les: 05/08/2018 07:31:01</description><styleUrl>#w_verdP</styleUrl><Point><coordinates>3.15605878829956,41.9255661964417,0</coordinates></Point></Placemark>
<Placemark><name>D9REG</name><description>228049  SERVEIS REGIÓ
posicio de les: 05/08/2018 07:30:55</description><styleUrl>#w_groc</styleUrl><Point><coordinates>2.80622363090515,41.9601881504059,0</coordinates></Point></Placemark>
<Placemark><name>D0REL</name><description>230010 P.CG REGIÓ
posicio de les: 05/08/2018 07:30:31</description><styleUrl>#w_verdP</styleUrl><Point><coordinates>0.605299472808838,41.6238605976105,0</coordinates></Point></Placemark>
<Placemark><name>30091</name><description>230091  REGIÓ
posicio de les: 05/08/2018 07:32:03</description><styleUrl>#w_groc</styleUrl><Point><coordinates>0.604827404022217,41.6238605976105,0</coordinates></Point></Placemark>
<Placemark><name>ALMA02</name><description>230302 PORT ALMA (Lleida)
posicio de les: 05/08/2018 07:31:15</description><styleUrl>#w_verdP</styleUrl><Point><coordinates>0.433831214904785,41.7319750785828,0</coordinates></Point></Placemark>
<Placemark><name>ALMA07</name><description>230307 PORT ALMA (Lleida)
posicio de les: 05/08/2018 07:32:11</description><styleUrl>#w_grocP</styleUrl><Point><coordinates>0.442725419998169,41.7294859886169,0</coordinates></Point></Placemark>
<Placemark><name>BORG05</name><description>230705 PORT BORG (Lleida)
posicio de les: 05/08/2018 07:31:15</description><styleUrl>#w_grocP</styleUrl><Point><coordinates>0.845099687576294,41.5074956417084,0</coordinates></Point></Placemark>
<Placemark><name>BORG06</name><description>230706 PORT BORG (Lleida)
posicio de les: 05/08/2018 07:31:27</description><styleUrl>#w_grocP</styleUrl><Point><coordinates>0.844777822494507,41.5072703361511,0</coordinates></Point></Placemark>
<Placemark><name>BORG56</name><description>230756 PORT.COM BORG (Lleida)
posicio de les: 05/08/2018 07:29:15</description><styleUrl>#w_verdP</styleUrl><Point><coordinates>0.845367908477783,41.506519317627,0</coordinates></Point></Placemark>
<Placemark><name>POBL01</name><description>232401 PORT POBL (Lleida)
posicio de les: 05/08/2018 07:31:32</description><styleUrl>#w_verdP</styleUrl><Point><coordinates>0.964286327362061,42.2390949726105,0</coordinates></Point></Placemark>
<Placemark><name>PONT56</name><description>232556 PORT.COM PONT (Lleida)
posicio de les: 05/08/2018 07:32:20</description><styleUrl>#w_verdP</styleUrl><Point><coordinates>0.739860534667969,42.4106061458588,0</coordinates></Point></Placemark>
<Placemark><name>D00REMN</name><description>240018 P.Tec REGIÓ
posicio de les: 05/08/2018 07:31:57</description><styleUrl>#w_verdP</styleUrl><Point><coordinates>2.11238980293274,41.5021097660065,0</coordinates></Point></Placemark>
<Placemark><name>40081</name><description>240081  REGIÓ
posicio de les: 05/08/2018 07:31:53</description><styleUrl>#w_groc</styleUrl><Point><coordinates>2.11263656616211,41.5023994445801,0</coordinates></Point></Placemark>
<Placemark><name>BAD02</name><description>240202 PORT BAD (Metro. Nord)
posicio de les: 05/08/2018 07:31:02</description><styleUrl>#w_verdP</styleUrl><Point><coordinates>2.23867893218994,41.465277671814,0</coordinates></Point></Placemark>
<Placemark><name>40290</name><description>240290 UPC BAD (Metro. Nord)
posicio de les: 05/08/2018 07:29:57</description><styleUrl>#w_groc</styleUrl><Point><coordinates>2.0353889465332,41.4737212657928,0</coordinates></Point></Placemark>
<Placemark><name>240556</name><description>240556 PORT.COM CER (Metro. Nord)
posicio de les: 05/08/2018 07:31:38</description><styleUrl>#w_verdP</styleUrl><Point><coordinates>2.11091995239258,41.5025067329407,0</coordinates></Point></Placemark>
<Placemark><name>GRA01</name><description>240601 PORT GRA (Metro. Nord)
posicio de les: 05/08/2018 07:31:43</description><styleUrl>#w_grocP</styleUrl><Point><coordinates>2.27460980415344,41.5908265113831,0</coordinates></Point></Placemark>
<Placemark><name>MAT04</name><description>240904 PORT MAT (Metro. Nord)
posicio de les: 05/08/2018 07:31:52</description><styleUrl>#w_verdP</styleUrl><Point><coordinates>2.42311835289001,41.5321290493011,0</coordinates></Point></Placemark>
<Placemark><name>MAT07</name><description>240907 PORT MAT (Metro. Nord)
posicio de les: 05/08/2018 07:26:57</description><styleUrl>#w_verdP</styleUrl><Point><coordinates>2.4230968952179,41.5319681167603,0</coordinates></Point></Placemark>
<Placemark><name>40930</name><description>240930 BRP MAT (Metro. Nord)
posicio de les: 05/08/2018 07:32:19</description><styleUrl>#w_verdC</styleUrl><Point><coordinates>2.38142609596252,41.502571105957,0</coordinates></Point></Placemark>
<Placemark><name>240950</name><description>240950 FSV/FRQ/FER/FRM/FRA/FSA MAT (Metro. Nord)
posicio de les: 05/08/2018 07:29:26</description><styleUrl>#w_grocC</styleUrl><Point><coordinates>2.42325782775879,41.5319681167603,0</coordinates></Point></Placemark>
<Placemark><name>40956</name><description>240956 PORT.COM MAT (Metro. Nord)
posicio de les: 05/08/2018 07:30:57</description><styleUrl>#w_verdP</styleUrl><Point><coordinates>2.42317199707031,41.5321826934814,0</coordinates></Point></Placemark>
<Placemark><name>241040</name><description>241040 BUP MOL (Metro. Nord)
posicio de les: 05/08/2018 07:29:25</description><styleUrl>#w_verdC</styleUrl><Point><coordinates>2.20303773880005,41.5368175506592,0</coordinates></Point></Placemark>
<Placemark><name>241048</name><description>241048 BUL MOL (Metro. Nord)
posicio de les: 05/08/2018 07:28:56</description><styleUrl>#w_verdC</styleUrl><Point><coordinates>2.20339179039001,41.536967754364,0</coordinates></Point></Placemark>
<Placemark><name>MFI01</name><description>241101 PORT MFI (Metro. Nord)
posicio de les: 05/08/2018 07:30:24</description><styleUrl>#w_verdP</styleUrl><Point><coordinates>2.27190613746643,41.7159998416901,0</coordinates></Point></Placemark>
<Placemark><name>SAB01</name><description>241401 PORT SAB (Metro. Nord)
posicio de les: 05/08/2018 07:31:41</description><styleUrl>#w_verdP</styleUrl><Point><coordinates>2.10384964942932,41.5421497821808,0</coordinates></Point></Placemark>
<Placemark><name>SAB56</name><description>241456 PORT.COM SAB (Metro. Nord)
posicio de les: 05/08/2018 07:29:01</description><styleUrl>#w_verdP</styleUrl><Point><coordinates>2.10418224334717,41.5430617332459,0</coordinates></Point></Placemark>
<Placemark><name>241858</name><description>241858 BSAL SCG (Metro. Nord)
posicio de les: 05/08/2018 07:32:05</description><styleUrl>#w_grocB</styleUrl><Point><coordinates>2.20949649810791,41.4632499217987,0</coordinates></Point></Placemark>
<Placemark><name>GE00REMS</name><description>250015 P.Tec REGIÓ
posicio de les: 05/08/2018 07:28:48</description><styleUrl>#w_verdP</styleUrl><Point><coordinates>2.10870981216431,41.3665723800659,0</coordinates></Point></Placemark>
<Placemark><name>50093</name><description>250093  REGIÓ
posicio de les: 05/08/2018 07:27:34</description><styleUrl>#w_groc</styleUrl><Point><coordinates>2.10857033729553,41.3665187358856,0</coordinates></Point></Placemark>
<Placemark><name>50095</name><description>250095  REGIÓ
posicio de les: 05/08/2018 07:32:17</description><styleUrl>#w_verd</styleUrl><Point><coordinates>2.03225612640381,41.3777625560761,0</coordinates></Point></Placemark>
<Placemark><name>50490</name><description>250490 UPC COR (Metro. Sud)
posicio de les: 05/08/2018 07:30:49</description><styleUrl>#w_groc</styleUrl><Point><coordinates>2.07064390182495,41.3608002662659,0</coordinates></Point></Placemark>
<Placemark><name>GAV56</name><description>250556 PORT.COM GAV (Metro. Sud)
posicio de les: 05/08/2018 07:31:50</description><styleUrl>#w_verdP</styleUrl><Point><coordinates>1.99024200439453,41.3001716136932,0</coordinates></Point></Placemark>
<Placemark><name>HOS06</name><description>250706 PORT HOS (Metro. Sud)
posicio de les: 05/08/2018 07:32:11</description><styleUrl>#w_grocP</styleUrl><Point><coordinates>2.1078622341156,41.3666045665741,0</coordinates></Point></Placemark>
<Placemark><name>HOS14</name><description>250714 PORT HOS (Metro. Sud)
posicio de les: 05/08/2018 07:31:45</description><styleUrl>#w_grocP</styleUrl><Point><coordinates>2.10800170898438,41.3666796684265,0</coordinates></Point></Placemark>
<Placemark><name>50750</name><description>250750 FSV/FRQ/FER/FRM/FRA/FSA HOS (Metro. Sud)
posicio de les: 05/08/2018 07:30:18</description><styleUrl>#w_grocC</styleUrl><Point><coordinates>2.10802316665649,41.3666796684265,0</coordinates></Point></Placemark>
<Placemark><name>MAR11</name><description>251011 PORT MAR (Metro. Sud)
posicio de les: 05/08/2018 07:30:56</description><styleUrl>#w_grocP</styleUrl><Point><coordinates>1.90793037414551,41.4986336231232,0</coordinates></Point></Placemark>
<Placemark><name>MAR57</name><description>251057 PORT.COM MAR (Metro. Sud)
posicio de les: 05/08/2018 07:31:28</description><styleUrl>#w_grocP</styleUrl><Point><coordinates>1.9080376625061,41.4988267421722,0</coordinates></Point></Placemark>
<Placemark><name>PLL57</name><description>251257 PORT.COM PLL (Metro. Sud)
posicio de les: 05/08/2018 07:31:28</description><styleUrl>#w_verdP</styleUrl><Point><coordinates>2.08197355270386,41.3172733783722,0</coordinates></Point></Placemark>
<Placemark><name>SBOI07</name><description>251307 PORT SBOI (Metro. Sud)
posicio de les: 05/08/2018 07:31:21</description><styleUrl>#w_grocP</styleUrl><Point><coordinates>2.03445553779602,41.3227987289429,0</coordinates></Point></Placemark>
<Placemark><name>SBOI57</name><description>251357 PORT.COM SBOI (Metro. Sud)
posicio de les: 05/08/2018 07:31:31</description><styleUrl>#w_grocP</styleUrl><Point><coordinates>2.0345413684845,41.3229274749756,0</coordinates></Point></Placemark>
<Placemark><name>51890</name><description>251890 UPC VIF (Metro. Sud)
posicio de les: 05/08/2018 07:31:32</description><styleUrl>#w_verd</styleUrl><Point><coordinates>1.73429489135742,41.2723517417908,0</coordinates></Point></Placemark>
<Placemark><name>D1REMS</name><description>258041  SERVEIS REGIÓ
posicio de les: 05/08/2018 07:30:06</description><styleUrl>#w_verd</styleUrl><Point><coordinates>2.0338761806488,41.3221549987793,0</coordinates></Point></Placemark>
<Placemark><name>RET12</name><description>260012 P.Tec REGIÓ
posicio de les: 05/08/2018 07:32:13</description><styleUrl>#w_verdP</styleUrl><Point><coordinates>1.18584752082825,41.1342179775238,0</coordinates></Point></Placemark>
<Placemark><name>FALS06</name><description>260406 PORT FALS (Tarragona)
posicio de les: 05/08/2018 07:27:12</description><styleUrl>#w_verdP</styleUrl><Point><coordinates>0.823545455932617,41.1475217342377,0</coordinates></Point></Placemark>
<Placemark><name>260508</name><description>260508 PORT HOSP (Tarragona)
posicio de les: 05/08/2018 07:30:53</description><styleUrl>#w_verdP</styleUrl><Point><coordinates>0.91961145401001,40.9933376312256,0</coordinates></Point></Placemark>
<Placemark><name>TARR12</name><description>261212 PORT TARR (Tarragona)
posicio de les: 05/08/2018 07:29:42</description><styleUrl>#w_verdP</styleUrl><Point><coordinates>1.22151017189026,41.1137795448303,0</coordinates></Point></Placemark>
<Placemark><name>61230</name><description>261230 BRP TARR (Tarragona)
posicio de les: 05/08/2018 07:28:07</description><styleUrl>#w_grocC</styleUrl><Point><coordinates>1.11825585365295,41.1511695384979,0</coordinates></Point></Placemark>
<Placemark><name>261260</name><description>261260 AEA/AES/ABA TARR (Tarragona)
posicio de les: 05/08/2018 07:29:56</description><styleUrl>#w_verdC</styleUrl><Point><coordinates>1.22131705284119,41.1138224601746,0</coordinates></Point></Placemark>
<Placemark><name>E00RETE</name><description>270014 P.Tec REGIÓ
posicio de les: 05/08/2018 07:32:16</description><styleUrl>#w_verdP</styleUrl><Point><coordinates>0.513031482696533,40.8189511299133,0</coordinates></Point></Placemark>
<Placemark><name>70094</name><description>270094  REGIÓ
posicio de les: 05/08/2018 07:32:09</description><styleUrl>#w_verd</styleUrl><Point><coordinates>0.732800960540771,40.8280813694,0</coordinates></Point></Placemark>
<Placemark><name>AMET06</name><description>272006 PORT AMET (Terres de l'Ebre)
posicio de les: 05/08/2018 07:30:47</description><styleUrl>#w_verdP</styleUrl><Point><coordinates>0.79750657081604,40.890394449234,0</coordinates></Point></Placemark>
<Placemark><name>72031</name><description>272031 BRP AMET (Terres de l'Ebre)
posicio de les: 05/08/2018 07:29:46</description><styleUrl>#w_verdC</styleUrl><Point><coordinates>0.797485113143921,40.8900940418243,0</coordinates></Point></Placemark>
<Placemark><name>ASCO56</name><description>272256 PORT.COM ASCO (Terres de l'Ebre)
posicio de les: 05/08/2018 07:31:55</description><styleUrl>#w_verdP</styleUrl><Point><coordinates>0.568939447402954,41.1877977848053,0</coordinates></Point></Placemark>
<Placemark><name>72630</name><description>272630 BRP GAND (Terres de l'Ebre)
posicio de les: 05/08/2018 07:26:33</description><styleUrl>#w_grocC</styleUrl><Point><coordinates>0.439131259918213,41.0584831237793,0</coordinates></Point></Placemark>
<Placemark><name>72634</name><description>272634 BFP GAND (Terres de l'Ebre)
posicio de les: 05/08/2018 07:29:01</description><styleUrl>#w_grocC</styleUrl><Point><coordinates>0.439109802246094,41.0583651065826,0</coordinates></Point></Placemark>
<Placemark><name>GAND56</name><description>272656 PORT.COM GAND (Terres de l'Ebre)
posicio de les: 05/08/2018 07:30:56</description><styleUrl>#w_grocP</styleUrl><Point><coordinates>0.439174175262451,41.0584509372711,0</coordinates></Point></Placemark>
<Placemark><name>MORA05</name><description>272805 PORT MORA (Terres de l'Ebre)
posicio de les: 05/08/2018 07:31:27</description><styleUrl>#w_grocP</styleUrl><Point><coordinates>0.629750490188599,41.0862815380096,0</coordinates></Point></Placemark>
<Placemark><name>MORA08</name><description>272808 PORT MORA (Terres de l'Ebre)
posicio de les: 05/08/2018 07:31:40</description><styleUrl>#w_verdP</styleUrl><Point><coordinates>0.630125999450684,41.0859274864197,0</coordinates></Point></Placemark>
<Placemark><name>MORA56</name><description>272856 PORT.COM MORA (Terres de l'Ebre)
posicio de les: 05/08/2018 07:31:18</description><styleUrl>#w_verdP</styleUrl><Point><coordinates>0.629911422729492,41.0863995552063,0</coordinates></Point></Placemark>
<Placemark><name>ULLD08</name><description>273108 PORT ULLD (Terres de l'Ebre)
posicio de les: 05/08/2018 07:32:18</description><styleUrl>#w_grocP</styleUrl><Point><coordinates>0.358353853225708,40.60870885849,0</coordinates></Point></Placemark>
<Placemark><name>E_93</name><description>278031  SERVEIS REGIÓ
posicio de les: 05/08/2018 07:30:10</description><styleUrl>#w_groc</styleUrl><Point><coordinates>0.513085126876831,40.8194768428802,0</coordinates></Point></Placemark>
</Folder>
<Folder>
<name>Descarregues</name>
</Folder>
<Style id="w_verdP_n"><IconStyle><color>ff00ff00</color><scale>1.0</scale><Icon><href>http://maps.google.com/mapfiles/kml/shapes/man.png</href></Icon><hotSpot x="0.5" y="0" xunits="fraction" yunits="fraction"/></IconStyle><LabelStyle><scale>0.7</scale></LabelStyle></Style>
<Style id="w_verdP_s"><IconStyle><color>ff00ff00</color><scale>1.4</scale><Icon><href>http://maps.google.com/mapfiles/kml/shapes/man.png</href></Icon><hotSpot x="0.5" y="0" xunits="fraction" yunits="fraction"/></IconStyle><LabelStyle><scale>0.7</scale></LabelStyle></Style>
<StyleMap id="w_verdP"><Pair><key>normal</key><styleUrl>#w_verdP_n</styleUrl></Pair><Pair><key>highlight</key><styleUrl>#w_verdP_s</styleUrl></Pair></StyleMap>
<Style id="w_verd_n"><IconStyle><color>ff00ff00</color><scale>0.7</scale><Icon><href>http://maps.google.com/mapfiles/kml/shapes/cabs.png</href></Icon><hotSpot x="0.5" y="0" xunits="fraction" yunits="fraction"/></IconStyle><LabelStyle><scale>0.7</scale></LabelStyle></Style>
<Style id="w_verd_s"><IconStyle><color>ff00ff00</color><scale>1.0</scale><Icon><href>http://maps.google.com/mapfiles/kml/shapes/cabs.png</href></Icon><hotSpot x="0.5" y="0" xunits="fraction" yunits="fraction"/></IconStyle><LabelStyle><scale>0.7</scale></LabelStyle></Style>
<StyleMap id="w_verd"><Pair><key>normal</key><styleUrl>#w_verd_n</styleUrl></Pair><Pair><key>highlight</key><styleUrl>#w_verd_s</styleUrl></Pair></StyleMap>
<Style id="w_verdC_n"><IconStyle><color>ff00ff00</color><scale>1.0</scale><Icon><href>http://maps.google.com/mapfiles/kml/shapes/truck.png</href></Icon><hotSpot x="0.5" y="0" xunits="fraction" yunits="fraction"/></IconStyle><LabelStyle><scale>0.7</scale></LabelStyle></Style>
<Style id="w_verdC_s"><IconStyle><color>ff00ff00</color><scale>1.4</scale><Icon><href>http://maps.google.com/mapfiles/kml/shapes/truck.png</href></Icon><hotSpot x="0.5" y="0" xunits="fraction" yunits="fraction"/></IconStyle><LabelStyle><scale>0.7</scale></LabelStyle></Style>
<StyleMap id="w_verdC"><Pair><key>normal</key><styleUrl>#w_verdC_n</styleUrl></Pair><Pair><key>highlight</key><styleUrl>#w_verdC_s</styleUrl></Pair></StyleMap>
<Style id="w_verdH_n"><IconStyle><color>ff0000ff</color><scale>1.2</scale><Icon><href>http://maps.google.com/mapfiles/kml/shapes/heliport.png</href></Icon><hotSpot x="0.5" y="0" xunits="fraction" yunits="fraction"/></IconStyle><LabelStyle><scale>0.7</scale></LabelStyle></Style>
<Style id="w_verdH_s"><IconStyle><color>ff0000ff</color><scale>1.4</scale><Icon><href>http://maps.google.com/mapfiles/kml/shapes/heliport.png</href></Icon><hotSpot x="0.5" y="0" xunits="fraction" yunits="fraction"/></IconStyle><LabelStyle><scale>0.7</scale></LabelStyle></Style>
<StyleMap id="w_verdH"><Pair><key>normal</key><styleUrl>#w_verdH_n</styleUrl></Pair><Pair><key>highlight</key><styleUrl>#w_verdH_s</styleUrl></Pair></StyleMap>
<Style id="w_verdA_n"><IconStyle><color>ff0000ff</color><scale>1.2</scale><Icon><href>http://maps.google.com/mapfiles/kml/shapes/airports.png</href></Icon><hotSpot x="0.5" y="0" xunits="fraction" yunits="fraction"/></IconStyle><LabelStyle><scale>0.7</scale></LabelStyle></Style>
<Style id="w_verdA_s"><IconStyle><color>ff0000ff</color><scale>1.4</scale><Icon><href>http://maps.google.com/mapfiles/kml/shapes/airports.png</href></Icon><hotSpot x="0.5" y="0" xunits="fraction" yunits="fraction"/></IconStyle><LabelStyle><scale>0.7</scale></LabelStyle></Style>
<StyleMap id="w_verdA"><Pair><key>normal</key><styleUrl>#w_verdA_n</styleUrl></Pair><Pair><key>highlight</key><styleUrl>#w_verdA_s</styleUrl></Pair></StyleMap>
<Style id="w_verdB_n"><IconStyle><color>ff00ff00</color><scale>1.0</scale><Icon><href>http://maps.google.com/mapfiles/kml/shapes/sailing.png</href></Icon><hotSpot x="0.5" y="0" xunits="fraction" yunits="fraction"/></IconStyle><LabelStyle><scale>0.7</scale></LabelStyle></Style>
<Style id="w_verdB_s"><IconStyle><color>ff00ff00</color><scale>1.4</scale><Icon><href>http://maps.google.com/mapfiles/kml/shapes/sailing.png</href></Icon><hotSpot x="0.5" y="0" xunits="fraction" yunits="fraction"/></IconStyle><LabelStyle><scale>0.7</scale></LabelStyle></Style>
<StyleMap id="w_verdB"><Pair><key>normal</key><styleUrl>#w_verdBAR_n</styleUrl></Pair><Pair><key>highlight</key><styleUrl>#w_verdBAR_s</styleUrl></Pair></StyleMap>
<Style id="w_grocP_n"><IconStyle><color>ff00ffff</color><scale>1.0</scale><Icon><href>http://maps.google.com/mapfiles/kml/shapes/man.png</href></Icon><hotSpot x="0.5" y="0" xunits="fraction" yunits="fraction"/></IconStyle><LabelStyle><scale>0.7</scale></LabelStyle></Style>
<Style id="w_grocP_s"><IconStyle><color>ff00ffff</color><scale>1.4</scale><Icon><href>http://maps.google.com/mapfiles/kml/shapes/man.png</href></Icon><hotSpot x="0.5" y="0" xunits="fraction" yunits="fraction"/></IconStyle><LabelStyle><scale>0.7</scale></LabelStyle></Style>
<StyleMap id="w_grocP"><Pair><key>normal</key><styleUrl>#w_grocP_n</styleUrl></Pair><Pair><key>highlight</key><styleUrl>#w_grocP_s</styleUrl></Pair></StyleMap>
<Style id="w_groc_n"><IconStyle><color>ff00ffff</color><scale>0.7</scale><Icon><href>http://maps.google.com/mapfiles/kml/shapes/cabs.png</href></Icon><hotSpot x="0.5" y="0" xunits="fraction" yunits="fraction"/></IconStyle><LabelStyle><scale>0.7</scale></LabelStyle></Style>
<Style id="w_groc_s"><IconStyle><color>ff00ffff</color><scale>1.0</scale><Icon><href>http://maps.google.com/mapfiles/kml/shapes/cabs.png</href></Icon><hotSpot x="0.5" y="0" xunits="fraction" yunits="fraction"/></IconStyle><LabelStyle><scale>0.7</scale></LabelStyle></Style>
<StyleMap id="w_groc"><Pair><key>normal</key><styleUrl>#w_groc_n</styleUrl></Pair><Pair><key>highlight</key><styleUrl>#w_groc_s</styleUrl></Pair></StyleMap>
<Style id="w_grocC_n"><IconStyle><color>ff00ffff</color><scale>1.0</scale><Icon><href>http://maps.google.com/mapfiles/kml/shapes/truck.png</href></Icon><hotSpot x="0.5" y="0" xunits="fraction" yunits="fraction"/></IconStyle><LabelStyle><scale>0.7</scale></LabelStyle></Style>
<Style id="w_grocC_s"><IconStyle><color>ff00ffff</color><scale>1.4</scale><Icon><href>http://maps.google.com/mapfiles/kml/shapes/truck.png</href></Icon><hotSpot x="0.5" y="0" xunits="fraction" yunits="fraction"/></IconStyle><LabelStyle><scale>0.7</scale></LabelStyle></Style>
<StyleMap id="w_grocC"><Pair><key>normal</key><styleUrl>#w_grocC_n</styleUrl></Pair><Pair><key>highlight</key><styleUrl>#w_grocC_s</styleUrl></Pair></StyleMap>
<Style id="w_grocH_n"><IconStyle><color>ff0000ff</color><scale>1.2</scale><Icon><href>http://maps.google.com/mapfiles/kml/shapes/heliport.png</href></Icon><hotSpot x="0.5" y="0" xunits="fraction" yunits="fraction"/></IconStyle><LabelStyle><scale>0.7</scale></LabelStyle></Style>
<Style id="w_grocH_s"><IconStyle><color>ff0000ff</color><scale>1.4</scale><Icon><href>http://maps.google.com/mapfiles/kml/shapes/heliport.png</href></Icon><hotSpot x="0.5" y="0" xunits="fraction" yunits="fraction"/></IconStyle><LabelStyle><scale>0.7</scale></LabelStyle></Style>
<StyleMap id="w_grocH"><Pair><key>normal</key><styleUrl>#w_grocH_n</styleUrl></Pair><Pair><key>highlight</key><styleUrl>#w_grocH_s</styleUrl></Pair></StyleMap>
<Style id="w_grocA_n"><IconStyle><color>ff0000ff</color><scale>1.2</scale><Icon><href>http://maps.google.com/mapfiles/kml/shapes/airports.png</href></Icon><hotSpot x="0.5" y="0" xunits="fraction" yunits="fraction"/></IconStyle><LabelStyle><scale>0.7</scale></LabelStyle></Style>
<Style id="w_grocA_s"><IconStyle><color>ff0000ff</color><scale>1.4</scale><Icon><href>http://maps.google.com/mapfiles/kml/shapes/airports.png</href></Icon><hotSpot x="0.5" y="0" xunits="fraction" yunits="fraction"/></IconStyle><LabelStyle><scale>0.7</scale></LabelStyle></Style>
<StyleMap id="w_grocA"><Pair><key>normal</key><styleUrl>#w_grocA_n</styleUrl></Pair><Pair><key>highlight</key><styleUrl>#w_grocA_s</styleUrl></Pair></StyleMap>
<Style id="w_grocB_n"><IconStyle><color>ff00ffff</color><scale>1.0</scale><Icon><href>http://maps.google.com/mapfiles/kml/shapes/sailing.png</href></Icon><hotSpot x="0.5" y="0" xunits="fraction" yunits="fraction"/></IconStyle><LabelStyle><scale>0.7</scale></LabelStyle></Style>
<Style id="w_grocB_s"><IconStyle><color>ff00ffff</color><scale>1.4</scale><Icon><href>http://maps.google.com/mapfiles/kml/shapes/sailing.png</href></Icon><hotSpot x="0.5" y="0" xunits="fraction" yunits="fraction"/></IconStyle><LabelStyle><scale>0.7</scale></LabelStyle></Style>
<StyleMap id="w_grocB"><Pair><key>normal</key><styleUrl>#w_grocBAR_n</styleUrl></Pair><Pair><key>highlight</key><styleUrl>#w_grocBAR_s</styleUrl></Pair></StyleMap>
<Style id="w_vermellP_n"><IconStyle><color>ff0000ff</color><scale>1.0</scale><Icon><href>http://maps.google.com/mapfiles/kml/shapes/man.png</href></Icon><hotSpot x="0.5" y="0" xunits="fraction" yunits="fraction"/></IconStyle><LabelStyle><scale>0.7</scale></LabelStyle></Style>
<Style id="w_vermellP_s"><IconStyle><color>ff0000ff</color><scale>1.4</scale><Icon><href>http://maps.google.com/mapfiles/kml/shapes/man.png</href></Icon><hotSpot x="0.5" y="0" xunits="fraction" yunits="fraction"/></IconStyle><LabelStyle><scale>0.7</scale></LabelStyle></Style>
<StyleMap id="w_vermellP"><Pair><key>normal</key><styleUrl>#w_vermellP_n</styleUrl></Pair><Pair><key>highlight</key><styleUrl>#w_vermellP_s</styleUrl></Pair></StyleMap>
<Style id="w_vermell_n"><IconStyle><color>ff0000ff</color><scale>0.7</scale><Icon><href>http://maps.google.com/mapfiles/kml/shapes/cabs.png</href></Icon><hotSpot x="0.5" y="0" xunits="fraction" yunits="fraction"/></IconStyle><LabelStyle><scale>0.7</scale></LabelStyle></Style>
<Style id="w_vermell_s"><IconStyle><color>ff0000ff</color><scale>1.0</scale><Icon><href>http://maps.google.com/mapfiles/kml/shapes/cabs.png</href></Icon><hotSpot x="0.5" y="0" xunits="fraction" yunits="fraction"/></IconStyle><LabelStyle><scale>0.7</scale></LabelStyle></Style>
<StyleMap id="w_vermell"><Pair><key>normal</key><styleUrl>#w_vermell_n</styleUrl></Pair><Pair><key>highlight</key><styleUrl>#w_vermell_s</styleUrl></Pair></StyleMap>
<Style id="w_vermellC_n"><IconStyle><color>ff0000ff</color><scale>1.0</scale><Icon><href>http://maps.google.com/mapfiles/kml/shapes/truck.png</href></Icon><hotSpot x="0.5" y="0" xunits="fraction" yunits="fraction"/></IconStyle><LabelStyle><scale>0.7</scale></LabelStyle></Style>
<Style id="w_vermellC_s"><IconStyle><color>ff0000ff</color><scale>1.4</scale><Icon><href>http://maps.google.com/mapfiles/kml/shapes/truck.png</href></Icon><hotSpot x="0.5" y="0" xunits="fraction" yunits="fraction"/></IconStyle><LabelStyle><scale>0.7</scale></LabelStyle></Style>
<StyleMap id="w_vermellC"><Pair><key>normal</key><styleUrl>#w_vermellC_n</styleUrl></Pair><Pair><key>highlight</key><styleUrl>#w_vermellC_s</styleUrl></Pair></StyleMap>
<Style id="w_vermellH_n"><IconStyle><color>ff0000ff</color><scale>1.2</scale><Icon><href>http://maps.google.com/mapfiles/kml/shapes/heliport.png</href></Icon><hotSpot x="0.5" y="0" xunits="fraction" yunits="fraction"/></IconStyle><LabelStyle><scale>0.7</scale></LabelStyle></Style>
<Style id="w_vermellH_s"><IconStyle><color>ff0000ff</color><scale>1.4</scale><Icon><href>http://maps.google.com/mapfiles/kml/shapes/heliport.png</href></Icon><hotSpot x="0.5" y="0" xunits="fraction" yunits="fraction"/></IconStyle><LabelStyle><scale>0.7</scale></LabelStyle></Style>
<StyleMap id="w_vermellH"><Pair><key>normal</key><styleUrl>#w_vermellH_n</styleUrl></Pair><Pair><key>highlight</key><styleUrl>#w_vermellH_s</styleUrl></Pair></StyleMap>
<Style id="w_vermellA_n"><IconStyle><color>ff0000ff</color><scale>1.2</scale><Icon><href>http://maps.google.com/mapfiles/kml/shapes/airports.png</href></Icon><hotSpot x="0.5" y="0" xunits="fraction" yunits="fraction"/></IconStyle><LabelStyle><scale>0.7</scale></LabelStyle></Style>
<Style id="w_vermellA_s"><IconStyle><color>ff0000ff</color><scale>1.4</scale><Icon><href>http://maps.google.com/mapfiles/kml/shapes/airports.png</href></Icon><hotSpot x="0.5" y="0" xunits="fraction" yunits="fraction"/></IconStyle><LabelStyle><scale>0.7</scale></LabelStyle></Style>
<StyleMap id="w_vermellA"><Pair><key>normal</key><styleUrl>#w_vermellA_n</styleUrl></Pair><Pair><key>highlight</key><styleUrl>#w_vermellA_s</styleUrl></Pair></StyleMap>
<Style id="w_vermellB_n"><IconStyle><color>ff0000ff</color><scale>1.0</scale><Icon><href>http://maps.google.com/mapfiles/kml/shapes/sailing.png</href></Icon><hotSpot x="0.5" y="0" xunits="fraction" yunits="fraction"/></IconStyle><LabelStyle><scale>0.7</scale></LabelStyle></Style>
<Style id="w_vermellB_s"><IconStyle><color>ff0000ff</color><scale>1.4</scale><Icon><href>http://maps.google.com/mapfiles/kml/shapes/sailing.png</href></Icon><hotSpot x="0.5" y="0" xunits="fraction" yunits="fraction"/></IconStyle><LabelStyle><scale>0.7</scale></LabelStyle></Style>
<StyleMap id="w_vermellB"><Pair><key>normal</key><styleUrl>#w_vermellBAR_n</styleUrl></Pair><Pair><key>highlight</key><styleUrl>#w_vermellBAR_s</styleUrl></Pair></StyleMap>
<Style id="w_descarrega"><IconStyle><color>ff00ffff</color><scale>0.5</scale><Icon><href>http://maps.google.com/mapfiles/kml/shapes/road_shield3.png</href></Icon></IconStyle><LabelStyle><scale>0.7</scale></LabelStyle></Style><Style id="actuacio"><IconStyle><color>ff00ffff</color><scale>0.8</scale><Icon><href>http://maps.google.com/mapfiles/kml/shapes/caution.png</href></Icon></IconStyle><LabelStyle><scale>0.7</scale></LabelStyle></Style></Document></kml>