<?xml version="1.0" encoding="UTF-8"?>
<kml xmlns="http://www.opengis.net/kml/2.2" xmlns:gx="http://www.google.com/kml/ext/2.2" xmlns:kml="http://www.opengis.net/kml/2.2" xmlns:atom="http://www.w3.org/2005/Atom">
<Document>
<name>Terminals</name>
<Snippet maxLines="2">Created 06/08/2018 22:41:16</Snippet>
<Folder>
<name>Terminals</name>
<Placemark><name>A0103</name><description>200103 PORT Dept.
posicio de les: 06/08/2018 22:41:10</description><styleUrl>#w_grocP</styleUrl><Point><coordinates>0.796852111816406,42.7079558372498,0</coordinates></Point></Placemark>
<Placemark><name>02062</name><description>202062 GEM
posicio de les: 06/08/2018 22:38:08</description><styleUrl>#w_groc</styleUrl><Point><coordinates>2.03406929969788,41.3231635093689,0</coordinates></Point></Placemark>
<Placemark><name>03095</name><description>203095 GRAE
posicio de les: 06/08/2018 22:40:55</description><styleUrl>#w_groc</styleUrl><Point><coordinates>2.10467576980591,41.5242862701416,0</coordinates></Point></Placemark>
<Placemark><name>VIEL12</name><description>208012 P.PT VARAN
posicio de les: 06/08/2018 22:40:00</description><styleUrl>#w_verdP</styleUrl><Point><coordinates>0.801057815551758,42.699533700943,0</coordinates></Point></Placemark>
<Placemark><name>VIEL17</name><description>208017 BASE CCA VARAN
posicio de les: 06/08/2018 22:39:46</description><styleUrl>#w_groc</styleUrl><Point><coordinates>0.796648263931274,42.7079451084137,0</coordinates></Point></Placemark>
<Placemark><name>GE0REC</name><description>210013 P.Tec REGIÓ
posicio de les: 06/08/2018 22:39:38</description><styleUrl>#w_grocP</styleUrl><Point><coordinates>1.85222625732422,41.7415237426758,0</coordinates></Point></Placemark>
<Placemark><name>ALP02</name><description>210102 PORT ALP (Centre)
posicio de les: 06/08/2018 22:37:57</description><styleUrl>#w_verdP</styleUrl><Point><coordinates>1.88709497451782,42.3741066455841,0</coordinates></Point></Placemark>
<Placemark><name>BER57</name><description>210357 PORT.COM BER (Centre)
posicio de les: 06/08/2018 22:36:37</description><styleUrl>#w_verdP</styleUrl><Point><coordinates>1.85767650604248,42.1041369438171,0</coordinates></Point></Placemark>
<Placemark><name>GUA57</name><description>210857 PORT.COM GUA (Centre)
posicio de les: 06/08/2018 22:37:45</description><styleUrl>#w_verdP</styleUrl><Point><coordinates>1.87114119529724,42.2193968296051,0</coordinates></Point></Placemark>
<Placemark><name>PRA01</name><description>211401 PORT PRA (Centre)
posicio de les: 06/08/2018 22:40:09</description><styleUrl>#w_grocP</styleUrl><Point><coordinates>1.85157179832458,41.7418670654297,0</coordinates></Point></Placemark>
<Placemark><name>PRA07</name><description>211407 PORT PRA (Centre)
posicio de les: 06/08/2018 22:40:52</description><styleUrl>#w_verdP</styleUrl><Point><coordinates>2.03620433807373,42.0079636573792,0</coordinates></Point></Placemark>
<Placemark><name>SOLS03</name><description>211903 PORT SOLS (Centre)
posicio de les: 06/08/2018 22:41:11</description><styleUrl>#w_grocP</styleUrl><Point><coordinates>1.51271224021912,41.9897782802582,0</coordinates></Point></Placemark>
<Placemark><name>CMC08</name><description>214508 PORT Parc X
posicio de les: 06/08/2018 22:40:12</description><styleUrl>#w_verdP</styleUrl><Point><coordinates>1.85216188430786,41.7413198947906,0</coordinates></Point></Placemark>
<Placemark><name>D00REG</name><description>220018 P.Tec REGIÓ
posicio de les: 06/08/2018 22:41:02</description><styleUrl>#w_grocP</styleUrl><Point><coordinates>2.8066098690033,41.9598126411438,0</coordinates></Point></Placemark>
<Placemark><name>AMER57</name><description>220157 PORT.COM AMER (Girona)
posicio de les: 06/08/2018 22:41:05</description><styleUrl>#w_grocP</styleUrl><Point><coordinates>2.59615302085876,42.0113217830658,0</coordinates></Point></Placemark>
<Placemark><name>CALO04</name><description>220604 PORT CALO (Girona)
posicio de les: 06/08/2018 22:40:53</description><styleUrl>#w_verdP</styleUrl><Point><coordinates>3.07439088821411,41.8522453308105,0</coordinates></Point></Placemark>
<Placemark><name>20630</name><description>220630 BRP CALO (Girona)
posicio de les: 06/08/2018 22:39:35</description><styleUrl>#w_verdC</styleUrl><Point><coordinates>3.07443380355835,41.8524491786957,0</coordinates></Point></Placemark>
<Placemark><name>220656</name><description>220656 PORT.COM CALO (Girona)
posicio de les: 06/08/2018 22:38:55</description><styleUrl>#w_grocP</styleUrl><Point><coordinates>3.07447671890259,41.8523633480072,0</coordinates></Point></Placemark>
<Placemark><name>20690</name><description>220690 UPC CALO (Girona)
posicio de les: 06/08/2018 22:40:58</description><styleUrl>#w_groc</styleUrl><Point><coordinates>3.0746054649353,41.8524920940399,0</coordinates></Point></Placemark>
<Placemark><name>CASS03</name><description>220803 PORT CASS (Girona)
posicio de les: 06/08/2018 22:40:41</description><styleUrl>#w_verdP</styleUrl><Point><coordinates>2.88390040397644,41.8797433376312,0</coordinates></Point></Placemark>
<Placemark><name>CASS04</name><description>220804 PORT CASS (Girona)
posicio de les: 06/08/2018 22:39:44</description><styleUrl>#w_grocP</styleUrl><Point><coordinates>2.88439393043518,41.8799364566803,0</coordinates></Point></Placemark>
<Placemark><name>CASS07</name><description>220807 PORT CASS (Girona)
posicio de les: 06/08/2018 22:38:56</description><styleUrl>#w_verdP</styleUrl><Point><coordinates>2.88422226905823,41.8796145915985,0</coordinates></Point></Placemark>
<Placemark><name>CASS56</name><description>220856 PORT.COM CASS (Girona)
posicio de les: 06/08/2018 22:39:36</description><styleUrl>#w_grocP</styleUrl><Point><coordinates>2.88381457328796,41.8799149990082,0</coordinates></Point></Placemark>
<Placemark><name>CASS57</name><description>220857 PORT.COM CASS (Girona)
posicio de les: 06/08/2018 22:39:55</description><styleUrl>#w_grocP</styleUrl><Point><coordinates>2.88427591323853,41.8797862529755,0</coordinates></Point></Placemark>
<Placemark><name>FIGU56</name><description>221056 PORT.COM FIGU (Girona)
posicio de les: 06/08/2018 22:37:07</description><styleUrl>#w_grocP</styleUrl><Point><coordinates>2.97067523002625,42.2720539569855,0</coordinates></Point></Placemark>
<Placemark><name>21130</name><description>221130 BRP GIRO (Girona)
posicio de les: 06/08/2018 22:37:01</description><styleUrl>#w_grocC</styleUrl><Point><coordinates>2.80641674995422,41.9601881504059,0</coordinates></Point></Placemark>
<Placemark><name>HOST03</name><description>221203 PORT HOST (Girona)
posicio de les: 06/08/2018 22:39:58</description><styleUrl>#w_verdP</styleUrl><Point><coordinates>2.62474536895752,41.7479610443115,0</coordinates></Point></Placemark>
<Placemark><name>21230</name><description>221230 BRP HOST (Girona)
posicio de les: 06/08/2018 22:39:29</description><styleUrl>#w_grocC</styleUrl><Point><coordinates>2.62460589408875,41.7482507228851,0</coordinates></Point></Placemark>
<Placemark><name>JONQ56</name><description>221356 PORT.COM JONQ (Girona)
posicio de les: 06/08/2018 22:40:29</description><styleUrl>#w_verdP</styleUrl><Point><coordinates>2.87660479545593,42.4118185043335,0</coordinates></Point></Placemark>
<Placemark><name>LLAN57</name><description>221457 PORT.COM LLAN (Girona)
posicio de les: 06/08/2018 22:37:08</description><styleUrl>#w_grocP</styleUrl><Point><coordinates>3.15263628959656,42.3574662208557,0</coordinates></Point></Placemark>
<Placemark><name>LLOR56</name><description>221556 PORT.COM LLOR (Girona)
posicio de les: 06/08/2018 22:38:48</description><styleUrl>#w_verdP</styleUrl><Point><coordinates>2.8363823890686,41.6993916034698,0</coordinates></Point></Placemark>
<Placemark><name>221557</name><description>221557 PORT.COM LLOR (Girona)
posicio de les: 06/08/2018 22:39:04</description><styleUrl>#w_verdP</styleUrl><Point><coordinates>2.83647894859314,41.6994345188141,0</coordinates></Point></Placemark>
<Placemark><name>MAÇA57</name><description>221657 PORT.COM MACA (Girona)
posicio de les: 06/08/2018 22:39:05</description><styleUrl>#w_grocP</styleUrl><Point><coordinates>2.75306224822998,41.779568195343,0</coordinates></Point></Placemark>
<Placemark><name>OLOT56</name><description>221756 PORT.COM OLOT (Girona)
posicio de les: 06/08/2018 22:40:46</description><styleUrl>#w_verdP</styleUrl><Point><coordinates>2.47368335723877,42.1898710727692,0</coordinates></Point></Placemark>
<Placemark><name>OLOT57</name><description>221757 PORT.COM OLOT (Girona)
posicio de les: 06/08/2018 22:39:06</description><styleUrl>#w_verdP</styleUrl><Point><coordinates>2.47503519058228,42.190203666687,0</coordinates></Point></Placemark>
<Placemark><name>PALA02</name><description>221802 PORT PALA (Girona)
posicio de les: 06/08/2018 22:39:40</description><styleUrl>#w_verdP</styleUrl><Point><coordinates>3.15606951713562,41.9257915019989,0</coordinates></Point></Placemark>
<Placemark><name>PALA56</name><description>221856 PORT.COM PALA (Girona)
posicio de les: 06/08/2018 22:40:02</description><styleUrl>#w_verdP</styleUrl><Point><coordinates>3.15608024597168,41.9257485866547,0</coordinates></Point></Placemark>
<Placemark><name>22230</name><description>222230 BRP ROSE (Girona)
posicio de les: 06/08/2018 22:37:36</description><styleUrl>#w_verdC</styleUrl><Point><coordinates>3.15461039543152,42.2736847400665,0</coordinates></Point></Placemark>
<Placemark><name>ROSE57</name><description>222257 PORT.COM ROSE (Girona)
posicio de les: 06/08/2018 22:39:49</description><styleUrl>#w_grocP</styleUrl><Point><coordinates>3.16095113754272,42.2766995429993,0</coordinates></Point></Placemark>
<Placemark><name>22290</name><description>222290 UPC ROSE (Girona)
posicio de les: 06/08/2018 22:40:46</description><styleUrl>#w_groc</styleUrl><Point><coordinates>3.16097259521484,42.2764205932617,0</coordinates></Point></Placemark>
<Placemark><name>22531</name><description>222531 BRP SCFA (Girona)
posicio de les: 06/08/2018 22:38:21</description><styleUrl>#w_grocC</styleUrl><Point><coordinates>2.70450353622437,41.8198442459106,0</coordinates></Point></Placemark>
<Placemark><name>SCFA57</name><description>222557 PORT.COM SCFA (Girona)
posicio de les: 06/08/2018 22:40:34</description><styleUrl>#w_verdP</styleUrl><Point><coordinates>2.66434550285339,41.8683922290802,0</coordinates></Point></Placemark>
<Placemark><name>22630</name><description>222630 BRP TORR (Girona)
posicio de les: 06/08/2018 22:39:05</description><styleUrl>#w_grocC</styleUrl><Point><coordinates>3.16718459129334,42.0477890968323,0</coordinates></Point></Placemark>
<Placemark><name>VALL03</name><description>222803 PORT VALL (Girona)
posicio de les: 06/08/2018 22:37:41</description><styleUrl>#w_verdP</styleUrl><Point><coordinates>3.031325340271,41.8082892894745,0</coordinates></Point></Placemark>
<Placemark><name>VALL05</name><description>222805 PORT VALL (Girona)
posicio de les: 06/08/2018 22:40:48</description><styleUrl>#w_verdP</styleUrl><Point><coordinates>3.03170084953308,41.8087184429169,0</coordinates></Point></Placemark>
<Placemark><name>VALL07</name><description>222807 PORT VALL (Girona)
posicio de les: 06/08/2018 22:40:25</description><styleUrl>#w_verdP</styleUrl><Point><coordinates>3.03153991699219,41.8088150024414,0</coordinates></Point></Placemark>
<Placemark><name>VALL57</name><description>222857 PORT.COM VALL (Girona)
posicio de les: 06/08/2018 22:40:44</description><styleUrl>#w_verdP</styleUrl><Point><coordinates>3.03167939186096,41.8087291717529,0</coordinates></Point></Placemark>
<Placemark><name>D9REG</name><description>228049  SERVEIS REGIÓ
posicio de les: 06/08/2018 22:41:12</description><styleUrl>#w_verd</styleUrl><Point><coordinates>2.80663132667542,41.9601774215698,0</coordinates></Point></Placemark>
<Placemark><name>D0REL</name><description>230010 P.CG REGIÓ
posicio de les: 06/08/2018 22:37:56</description><styleUrl>#w_verdP</styleUrl><Point><coordinates>0.604773759841919,41.6236138343811,0</coordinates></Point></Placemark>
<Placemark><name>RELL12</name><description>230012 P.Tec REGIÓ
posicio de les: 06/08/2018 22:40:17</description><styleUrl>#w_verdP</styleUrl><Point><coordinates>0.613775253295898,41.537139415741,0</coordinates></Point></Placemark>
<Placemark><name>30092</name><description>230092  REGIÓ
posicio de les: 06/08/2018 22:39:49</description><styleUrl>#w_verd</styleUrl><Point><coordinates>0.613453388214111,41.5372037887573,0</coordinates></Point></Placemark>
<Placemark><name>30096</name><description>230096  REGIÓ
posicio de les: 06/08/2018 22:40:00</description><styleUrl>#w_verd</styleUrl><Point><coordinates>0.80574631690979,41.7994916439056,0</coordinates></Point></Placemark>
<Placemark><name>ALMA01</name><description>230301 PORT ALMA (Lleida)
posicio de les: 06/08/2018 22:39:29</description><styleUrl>#w_verdP</styleUrl><Point><coordinates>0.613635778427124,41.5386843681335,0</coordinates></Point></Placemark>
<Placemark><name>30330</name><description>230330 BRP ALMA (Lleida)
posicio de les: 06/08/2018 22:39:08</description><styleUrl>#w_grocC</styleUrl><Point><coordinates>0.613893270492554,41.5392851829529,0</coordinates></Point></Placemark>
<Placemark><name>230356</name><description>230356 PORT.COM ALMA (Lleida)
posicio de les: 06/08/2018 22:41:09</description><styleUrl>#w_grocP</styleUrl><Point><coordinates>0.433884859085083,41.7319643497467,0</coordinates></Point></Placemark>
<Placemark><name>ALME01</name><description>230401 PORT ALME (Lleida)
posicio de les: 06/08/2018 22:39:18</description><styleUrl>#w_grocP</styleUrl><Point><coordinates>0.569078922271729,41.7922604084015,0</coordinates></Point></Placemark>
<Placemark><name>30530</name><description>230530 BRP ARTE (Lleida)
posicio de les: 06/08/2018 22:39:08</description><styleUrl>#w_verdC</styleUrl><Point><coordinates>1.04514956474304,41.8921780586243,0</coordinates></Point></Placemark>
<Placemark><name>BALA56</name><description>230656 PORT.COM BALA (Lleida)
posicio de les: 06/08/2018 22:40:36</description><styleUrl>#w_verdP</styleUrl><Point><coordinates>0.805639028549194,41.7992234230042,0</coordinates></Point></Placemark>
<Placemark><name>BORG02</name><description>230702 PORT BORG (Lleida)
posicio de les: 06/08/2018 22:39:09</description><styleUrl>#w_verdP</styleUrl><Point><coordinates>0.844970941543579,41.5077102184296,0</coordinates></Point></Placemark>
<Placemark><name>30748</name><description>230748 BUL BORG (Lleida)
posicio de les: 06/08/2018 22:40:43</description><styleUrl>#w_grocC</styleUrl><Point><coordinates>0.845046043395996,41.507785320282,0</coordinates></Point></Placemark>
<Placemark><name>LLEI04</name><description>231904 PORT LLEI (Lleida)
posicio de les: 06/08/2018 22:41:15</description><styleUrl>#w_grocP</styleUrl><Point><coordinates>0.618088245391846,41.5411734580994,0</coordinates></Point></Placemark>
<Placemark><name>31940</name><description>231940 BUP LLEI (Lleida)
posicio de les: 06/08/2018 22:36:55</description><styleUrl>#w_grocC</styleUrl><Point><coordinates>0.61822772026062,41.5412163734436,0</coordinates></Point></Placemark>
<Placemark><name>31944</name><description>231944 BNP LLEI (Lleida)
posicio de les: 06/08/2018 22:38:07</description><styleUrl>#w_grocC</styleUrl><Point><coordinates>0.618292093276978,41.5411198139191,0</coordinates></Point></Placemark>
<Placemark><name>MOLL05</name><description>232005 PORT MOLL (Lleida)
posicio de les: 06/08/2018 22:40:51</description><styleUrl>#w_verdP</styleUrl><Point><coordinates>0.618356466293335,41.5413129329681,0</coordinates></Point></Placemark>
<Placemark><name>32030</name><description>232030 BRP MOLL (Lleida)
posicio de les: 06/08/2018 22:38:35</description><styleUrl>#w_grocC</styleUrl><Point><coordinates>0.617820024490356,41.5415918827057,0</coordinates></Point></Placemark>
<Placemark><name>POBL01</name><description>232401 PORT POBL (Lleida)
posicio de les: 06/08/2018 22:40:32</description><styleUrl>#w_verdP</styleUrl><Point><coordinates>0.964597463607788,42.238837480545,0</coordinates></Point></Placemark>
<Placemark><name>PONT06</name><description>232506 PORT PONT (Lleida)
posicio de les: 06/08/2018 22:40:42</description><styleUrl>#w_grocP</styleUrl><Point><coordinates>0.739849805831909,42.4106597900391,0</coordinates></Point></Placemark>
<Placemark><name>SEU02</name><description>232902 PORT SEU (Lleida)
posicio de les: 06/08/2018 22:40:36</description><styleUrl>#w_verdP</styleUrl><Point><coordinates>1.47083759307861,42.3613286018372,0</coordinates></Point></Placemark>
<Placemark><name>TAR57</name><description>233157 PORT.COM TAR (Lleida)
posicio de les: 06/08/2018 22:40:01</description><styleUrl>#w_grocP</styleUrl><Point><coordinates>1.14910125732422,41.6508972644806,0</coordinates></Point></Placemark>
<Placemark><name>FSORT1</name><description>234511 PORT Parc X
posicio de les: 06/08/2018 22:40:01</description><styleUrl>#w_verdP</styleUrl><Point><coordinates>1.12902760505676,42.4090182781219,0</coordinates></Point></Placemark>
<Placemark><name>I405</name><description>237405 P.GUAITA GUAITA
posicio de les: 06/08/2018 22:37:21</description><styleUrl>#w_verdP</styleUrl><Point><coordinates>0.766510963439941,42.04017162323,0</coordinates></Point></Placemark>
<Placemark><name>I408</name><description>237408 P.GUAITA GUAITA
posicio de les: 06/08/2018 22:39:27</description><styleUrl>#w_verdP</styleUrl><Point><coordinates>0.894913673400879,42.1613752841949,0</coordinates></Point></Placemark>
<Placemark><name>D8RELL</name><description>238048  SERVEIS REGIÓ
posicio de les: 06/08/2018 22:36:46</description><styleUrl>#w_verd</styleUrl><Point><coordinates>0.604966878890991,41.623592376709,0</coordinates></Point></Placemark>
<Placemark><name>REMN11</name><description>240011 P.Tec REGIÓ
posicio de les: 06/08/2018 22:39:17</description><styleUrl>#w_verdP</styleUrl><Point><coordinates>2.11212158203125,41.5019273757935,0</coordinates></Point></Placemark>
<Placemark><name>GE00REMN</name><description>240015 P.Tec REGIÓ
posicio de les: 06/08/2018 22:39:13</description><styleUrl>#w_verdP</styleUrl><Point><coordinates>2.10403203964233,41.5416669845581,0</coordinates></Point></Placemark>
<Placemark><name>40091</name><description>240091  REGIÓ
posicio de les: 06/08/2018 22:37:25</description><styleUrl>#w_verd</styleUrl><Point><coordinates>2.11122035980225,41.5029036998749,0</coordinates></Point></Placemark>
<Placemark><name>BAD04</name><description>240204 PORT BAD (Metro. Nord)
posicio de les: 06/08/2018 22:40:06</description><styleUrl>#w_verdP</styleUrl><Point><coordinates>2.23757386207581,41.4652991294861,0</coordinates></Point></Placemark>
<Placemark><name>BAD07</name><description>240207 PORT BAD (Metro. Nord)
posicio de les: 06/08/2018 22:40:35</description><styleUrl>#w_verdP</styleUrl><Point><coordinates>2.23687648773193,41.4648914337158,0</coordinates></Point></Placemark>
<Placemark><name>40290</name><description>240290 UPC BAD (Metro. Nord)
posicio de les: 06/08/2018 22:38:51</description><styleUrl>#w_groc</styleUrl><Point><coordinates>2.10403203964233,41.5422463417053,0</coordinates></Point></Placemark>
<Placemark><name>CAS02</name><description>240402 PORT CAS (Metro. Nord)
posicio de les: 06/08/2018 22:40:42</description><styleUrl>#w_grocP</styleUrl><Point><coordinates>2.09099650382996,41.5963196754456,0</coordinates></Point></Placemark>
<Placemark><name>CAS04</name><description>240404 PORT CAS (Metro. Nord)
posicio de les: 06/08/2018 22:38:57</description><styleUrl>#w_verdP</styleUrl><Point><coordinates>2.09065318107605,41.5966415405273,0</coordinates></Point></Placemark>
<Placemark><name>CAS05</name><description>240405 PORT CAS (Metro. Nord)
posicio de les: 06/08/2018 22:40:05</description><styleUrl>#w_grocP</styleUrl><Point><coordinates>2.09100723266602,41.596212387085,0</coordinates></Point></Placemark>
<Placemark><name>240430</name><description>240430 BRP CAS (Metro. Nord)
posicio de les: 06/08/2018 22:40:21</description><styleUrl>#w_grocC</styleUrl><Point><coordinates>2.09061026573181,41.5963196754456,0</coordinates></Point></Placemark>
<Placemark><name>240556</name><description>240556 PORT.COM CER (Metro. Nord)
posicio de les: 06/08/2018 22:40:42</description><styleUrl>#w_verdP</styleUrl><Point><coordinates>2.1107804775238,41.5023672580719,0</coordinates></Point></Placemark>
<Placemark><name>CER57</name><description>240557 PORT.COM CER (Metro. Nord)
posicio de les: 06/08/2018 22:41:10</description><styleUrl>#w_verdP</styleUrl><Point><coordinates>2.11143493652344,41.5030324459076,0</coordinates></Point></Placemark>
<Placemark><name>40640</name><description>240640 BUP GRA (Metro. Nord)
posicio de les: 06/08/2018 22:39:59</description><styleUrl>#w_grocC</styleUrl><Point><coordinates>2.27493166923523,41.5905797481537,0</coordinates></Point></Placemark>
<Placemark><name>GRA56</name><description>240656 PORT.COM GRA (Metro. Nord)
posicio de les: 06/08/2018 22:38:50</description><styleUrl>#w_verdP</styleUrl><Point><coordinates>2.27457761764526,41.590461730957,0</coordinates></Point></Placemark>
<Placemark><name>MAT02</name><description>240902 PORT MAT (Metro. Nord)
posicio de les: 06/08/2018 22:40:06</description><styleUrl>#w_verdP</styleUrl><Point><coordinates>2.42347240447998,41.5316140651703,0</coordinates></Point></Placemark>
<Placemark><name>MOL03</name><description>241003 PORT MOL (Metro. Nord)
posicio de les: 06/08/2018 22:38:44</description><styleUrl>#w_verdP</styleUrl><Point><coordinates>2.20170736312866,41.5370428562164,0</coordinates></Point></Placemark>
<Placemark><name>241048</name><description>241048 BUL MOL (Metro. Nord)
posicio de les: 06/08/2018 22:37:51</description><styleUrl>#w_verdC</styleUrl><Point><coordinates>2.20239400863647,41.5368926525116,0</coordinates></Point></Placemark>
<Placemark><name>PIN01</name><description>241201 PORT PIN (Metro. Nord)
posicio de les: 06/08/2018 22:39:01</description><styleUrl>#w_verdP</styleUrl><Point><coordinates>2.66864776611328,41.6277229785919,0</coordinates></Point></Placemark>
<Placemark><name>RUB03</name><description>241303 PORT RUB (Metro. Nord)
posicio de les: 06/08/2018 22:39:12</description><styleUrl>#w_verdP</styleUrl><Point><coordinates>2.05232977867126,41.4565336704254,0</coordinates></Point></Placemark>
<Placemark><name>41340</name><description>241340 BUP RUB (Metro. Nord)
posicio de les: 06/08/2018 22:36:31</description><styleUrl>#w_grocC</styleUrl><Point><coordinates>2.05259799957275,41.4564049243927,0</coordinates></Point></Placemark>
<Placemark><name>41348</name><description>241348 BUL RUB (Metro. Nord)
posicio de les: 06/08/2018 22:37:23</description><styleUrl>#w_grocC</styleUrl><Point><coordinates>2.05257654190063,41.4564049243927,0</coordinates></Point></Placemark>
<Placemark><name>RUB56</name><description>241356 PORT.COM RUB (Metro. Nord)
posicio de les: 06/08/2018 22:40:12</description><styleUrl>#w_grocP</styleUrl><Point><coordinates>2.05250144004822,41.4564371109009,0</coordinates></Point></Placemark>
<Placemark><name>41390</name><description>241390 UPC RUB (Metro. Nord)
posicio de les: 06/08/2018 22:39:14</description><styleUrl>#w_groc</styleUrl><Point><coordinates>2.03489542007446,41.4733564853668,0</coordinates></Point></Placemark>
<Placemark><name>SAB56</name><description>241456 PORT.COM SAB (Metro. Nord)
posicio de les: 06/08/2018 22:38:24</description><styleUrl>#w_grocP</styleUrl><Point><coordinates>2.10346341133118,41.5423321723938,0</coordinates></Point></Placemark>
<Placemark><name>41640</name><description>241640 BUP SCE (Metro. Nord)
posicio de les: 06/08/2018 22:38:39</description><styleUrl>#w_grocC</styleUrl><Point><coordinates>2.45179653167725,41.6904973983765,0</coordinates></Point></Placemark>
<Placemark><name>241858</name><description>241858 BSAL SCG (Metro. Nord)
posicio de les: 06/08/2018 22:41:02</description><styleUrl>#w_verdB</styleUrl><Point><coordinates>2.20918536186218,41.4633679389954,0</coordinates></Point></Placemark>
<Placemark><name>241940</name><description>241940 BUP SMPA (Metro. Nord)
posicio de les: 06/08/2018 22:37:49</description><styleUrl>#w_grocC</styleUrl><Point><coordinates>2.45168924331665,41.6905081272125,0</coordinates></Point></Placemark>
<Placemark><name>TER57</name><description>242057 PORT.COM TER (Metro. Nord)
posicio de les: 06/08/2018 22:40:03</description><styleUrl>#w_verdP</styleUrl><Point><coordinates>2.02628016471863,41.5679848194122,0</coordinates></Point></Placemark>
<Placemark><name>TOD56</name><description>242156 PORT.COM TOD (Metro. Nord)
posicio de les: 06/08/2018 22:40:01</description><styleUrl>#w_grocP</styleUrl><Point><coordinates>2.71646618843079,41.6914737224579,0</coordinates></Point></Placemark>
<Placemark><name>D3REMN</name><description>248043  SERVEIS REGIÓ
posicio de les: 06/08/2018 22:40:12</description><styleUrl>#w_verd</styleUrl><Point><coordinates>2.11201429367065,41.5021955966949,0</coordinates></Point></Placemark>
<Placemark><name>250010</name><description>250010 P.CG REGIÓ
posicio de les: 06/08/2018 22:40:32</description><styleUrl>#w_verdP</styleUrl><Point><coordinates>1.74623608589172,41.2260031700134,0</coordinates></Point></Placemark>
<Placemark><name>GD0REMS</name><description>250011 P.Tec REGIÓ
posicio de les: 06/08/2018 22:41:13</description><styleUrl>#w_verdP</styleUrl><Point><coordinates>1.74569964408875,41.2259495258331,0</coordinates></Point></Placemark>
<Placemark><name>50092</name><description>250092  REGIÓ
posicio de les: 06/08/2018 22:36:38</description><styleUrl>#w_groc</styleUrl><Point><coordinates>1.74631118774414,41.2262177467346,0</coordinates></Point></Placemark>
<Placemark><name>50093</name><description>250093  REGIÓ
posicio de les: 06/08/2018 22:40:03</description><styleUrl>#w_groc</styleUrl><Point><coordinates>1.71309471130371,41.2203276157379,0</coordinates></Point></Placemark>
<Placemark><name>50098</name><description>250098  REGIÓ
posicio de les: 06/08/2018 22:37:17</description><styleUrl>#w_groc</styleUrl><Point><coordinates>1.74640774726868,41.2262177467346,0</coordinates></Point></Placemark>
<Placemark><name>BEG03</name><description>250103 PORT BEG (Metro. Sud)
posicio de les: 06/08/2018 22:39:03</description><styleUrl>#w_verdP</styleUrl><Point><coordinates>1.91864848136902,41.3333880901337,0</coordinates></Point></Placemark>
<Placemark><name>CAP01</name><description>250201 PORT CAP (Metro. Sud)
posicio de les: 06/08/2018 22:39:17</description><styleUrl>#w_verdP</styleUrl><Point><coordinates>1.69003844261169,41.3238608837128,0</coordinates></Point></Placemark>
<Placemark><name>COR56</name><description>250456 PORT.COM COR (Metro. Sud)
posicio de les: 06/08/2018 22:38:55</description><styleUrl>#w_verdP</styleUrl><Point><coordinates>2.07011818885803,41.360821723938,0</coordinates></Point></Placemark>
<Placemark><name>GAV02</name><description>250502 PORT GAV (Metro. Sud)
posicio de les: 06/08/2018 22:40:11</description><styleUrl>#w_verdP</styleUrl><Point><coordinates>1.99052095413208,41.2995707988739,0</coordinates></Point></Placemark>
<Placemark><name>GAV03</name><description>250503 PORT GAV (Metro. Sud)
posicio de les: 06/08/2018 22:38:09</description><styleUrl>#w_verdP</styleUrl><Point><coordinates>1.99004888534546,41.2999999523163,0</coordinates></Point></Placemark>
<Placemark><name>HOS02</name><description>250702 PORT HOS (Metro. Sud)
posicio de les: 06/08/2018 22:40:18</description><styleUrl>#w_verdP</styleUrl><Point><coordinates>2.10545897483826,41.3699734210968,0</coordinates></Point></Placemark>
<Placemark><name>IGU01</name><description>250801 PORT IGU (Metro. Sud)
posicio de les: 06/08/2018 22:38:08</description><styleUrl>#w_verdP</styleUrl><Point><coordinates>1.74639701843262,41.2262284755707,0</coordinates></Point></Placemark>
<Placemark><name>IGU03</name><description>250803 PORT IGU (Metro. Sud)
posicio de les: 06/08/2018 22:41:01</description><styleUrl>#w_grocP</styleUrl><Point><coordinates>1.7462146282196,41.2262284755707,0</coordinates></Point></Placemark>
<Placemark><name>IGU20E</name><description>250820 PORT IGU (Metro. Sud)
posicio de les: 06/08/2018 22:40:50</description><styleUrl>#w_grocP</styleUrl><Point><coordinates>1.61015152931213,41.5892171859741,0</coordinates></Point></Placemark>
<Placemark><name>50830</name><description>250830 BRP IGU (Metro. Sud)
posicio de les: 06/08/2018 22:41:05</description><styleUrl>#w_verdC</styleUrl><Point><coordinates>1.62179231643677,41.4464271068573,0</coordinates></Point></Placemark>
<Placemark><name>50860</name><description>250860 AEA/AES/ABA IGU (Metro. Sud)
posicio de les: 06/08/2018 22:40:59</description><styleUrl>#w_verdC</styleUrl><Point><coordinates>1.65533065795898,41.4222228527069,0</coordinates></Point></Placemark>
<Placemark><name>50930</name><description>250930 BRP LLA (Metro. Sud)
posicio de les: 06/08/2018 22:37:28</description><styleUrl>#w_verdC</styleUrl><Point><coordinates>1.53087615966797,41.4730453491211,0</coordinates></Point></Placemark>
<Placemark><name>MAR56</name><description>251056 PORT.COM MAR (Metro. Sud)
posicio de les: 06/08/2018 22:39:22</description><styleUrl>#w_verdP</styleUrl><Point><coordinates>1.90811276435852,41.4985692501068,0</coordinates></Point></Placemark>
<Placemark><name>MAR57</name><description>251057 PORT.COM MAR (Metro. Sud)
posicio de les: 06/08/2018 22:40:26</description><styleUrl>#w_grocP</styleUrl><Point><coordinates>1.90790891647339,41.4989447593689,0</coordinates></Point></Placemark>
<Placemark><name>PLL03</name><description>251203 PORT PLL (Metro. Sud)
posicio de les: 06/08/2018 22:40:49</description><styleUrl>#w_grocP</styleUrl><Point><coordinates>2.08138346672058,41.3172733783722,0</coordinates></Point></Placemark>
<Placemark><name>PLL07</name><description>251207 PORT PLL (Metro. Sud)
posicio de les: 06/08/2018 22:39:51</description><styleUrl>#w_verdP</styleUrl><Point><coordinates>2.08163022994995,41.3173592090607,0</coordinates></Point></Placemark>
<Placemark><name>PLL57</name><description>251257 PORT.COM PLL (Metro. Sud)
posicio de les: 06/08/2018 22:40:55</description><styleUrl>#w_verdP</styleUrl><Point><coordinates>2.08143711090088,41.3173592090607,0</coordinates></Point></Placemark>
<Placemark><name>SBOI56</name><description>251356 PORT.COM SBOI (Metro. Sud)
posicio de les: 06/08/2018 22:41:10</description><styleUrl>#w_verdP</styleUrl><Point><coordinates>2.03474521636963,41.3226163387299,0</coordinates></Point></Placemark>
<Placemark><name>SFE07</name><description>251507 PORT SFE (Metro. Sud)
posicio de les: 06/08/2018 22:40:22</description><styleUrl>#w_verdP</styleUrl><Point><coordinates>2.04310297966003,41.3885450363159,0</coordinates></Point></Placemark>
<Placemark><name>SFE56</name><description>251556 PORT.COM SFE (Metro. Sud)
posicio de les: 06/08/2018 22:38:46</description><styleUrl>#w_grocP</styleUrl><Point><coordinates>2.04324245452881,41.3881480693817,0</coordinates></Point></Placemark>
<Placemark><name>SFE57</name><description>251557 PORT.COM SFE (Metro. Sud)
posicio de les: 06/08/2018 22:40:10</description><styleUrl>#w_grocP</styleUrl><Point><coordinates>2.04331755638123,41.3885021209717,0</coordinates></Point></Placemark>
<Placemark><name>VIF06</name><description>251806 PORT VIF (Metro. Sud)
posicio de les: 06/08/2018 22:38:12</description><styleUrl>#w_grocP</styleUrl><Point><coordinates>1.74580693244934,41.225928068161,0</coordinates></Point></Placemark>
<Placemark><name>51850</name><description>251850 FSV/FRQ/FER/FRM/FRA/FSA VIF (Metro. Sud)
posicio de les: 06/08/2018 22:37:21</description><styleUrl>#w_grocC</styleUrl><Point><coordinates>1.74630045890808,41.2261641025543,0</coordinates></Point></Placemark>
<Placemark><name>VIF56</name><description>251856 PORT.COM VIF (Metro. Sud)
posicio de les: 06/08/2018 22:39:26</description><styleUrl>#w_verdP</styleUrl><Point><coordinates>1.74573183059692,41.2259817123413,0</coordinates></Point></Placemark>
<Placemark><name>51860</name><description>251860 AEA/AES/ABA VIF (Metro. Sud)
posicio de les: 06/08/2018 22:38:23</description><styleUrl>#w_grocC</styleUrl><Point><coordinates>1.74590349197388,41.2258529663086,0</coordinates></Point></Placemark>
<Placemark><name>VIL03</name><description>251903 PORT VIL (Metro. Sud)
posicio de les: 06/08/2018 22:41:11</description><styleUrl>#w_verdP</styleUrl><Point><coordinates>1.71467185020447,41.2266361713409,0</coordinates></Point></Placemark>
<Placemark><name>VIL06</name><description>251906 PORT VIL (Metro. Sud)
posicio de les: 06/08/2018 22:41:02</description><styleUrl>#w_verdP</styleUrl><Point><coordinates>1.71572327613831,41.2270975112915,0</coordinates></Point></Placemark>
<Placemark><name>51930</name><description>251930 BRP VIL (Metro. Sud)
posicio de les: 06/08/2018 22:36:40</description><styleUrl>#w_grocC</styleUrl><Point><coordinates>1.74612879753113,41.2258958816528,0</coordinates></Point></Placemark>
<Placemark><name>51948</name><description>251948 BUL VIL (Metro. Sud)
posicio de les: 06/08/2018 22:41:08</description><styleUrl>#w_verdC</styleUrl><Point><coordinates>1.71502590179443,41.2267863750458,0</coordinates></Point></Placemark>
<Placemark><name>VIL56</name><description>251956 PORT.COM VIL (Metro. Sud)
posicio de les: 06/08/2018 22:39:15</description><styleUrl>#w_grocP</styleUrl><Point><coordinates>1.71454310417175,41.2195980548859,0</coordinates></Point></Placemark>
<Placemark><name>RET11</name><description>260011 P.Tec REGIÓ
posicio de les: 06/08/2018 22:41:04</description><styleUrl>#w_verdP</styleUrl><Point><coordinates>1.18526816368103,41.1345398426056,0</coordinates></Point></Placemark>
<Placemark><name>RET12</name><description>260012 P.Tec REGIÓ
posicio de les: 06/08/2018 22:39:37</description><styleUrl>#w_verdP</styleUrl><Point><coordinates>1.18559002876282,41.1347544193268,0</coordinates></Point></Placemark>
<Placemark><name>GE0RET</name><description>260013 P.Tec REGIÓ
posicio de les: 06/08/2018 22:39:24</description><styleUrl>#w_verdP</styleUrl><Point><coordinates>1.25340700149536,41.1153995990753,0</coordinates></Point></Placemark>
<Placemark><name>GE600</name><description>260017 P.Tec REGIÓ
posicio de les: 06/08/2018 22:41:02</description><styleUrl>#w_verdP</styleUrl><Point><coordinates>1.18538618087769,41.1344003677368,0</coordinates></Point></Placemark>
<Placemark><name>CAMB05</name><description>260205 PORT CAMB (Tarragona)
posicio de les: 06/08/2018 22:39:52</description><styleUrl>#w_grocP</styleUrl><Point><coordinates>1.04042887687683,41.0764217376709,0</coordinates></Point></Placemark>
<Placemark><name>FALS07</name><description>260407 PORT FALS (Tarragona)
posicio de les: 06/08/2018 22:40:35</description><styleUrl>#w_verdP</styleUrl><Point><coordinates>0.823577642440796,41.1475431919098,0</coordinates></Point></Placemark>
<Placemark><name>FALS08</name><description>260408 PORT FALS (Tarragona)
posicio de les: 06/08/2018 22:39:07</description><styleUrl>#w_verdP</styleUrl><Point><coordinates>0.823802947998047,41.1475431919098,0</coordinates></Point></Placemark>
<Placemark><name>HOSP02</name><description>260502 PORT HOSP (Tarragona)
posicio de les: 06/08/2018 22:39:27</description><styleUrl>#w_grocP</styleUrl><Point><coordinates>0.919976234436035,40.9936809539795,0</coordinates></Point></Placemark>
<Placemark><name>HOSP04</name><description>260504 PORT HOSP (Tarragona)
posicio de les: 06/08/2018 22:39:32</description><styleUrl>#w_verdP</styleUrl><Point><coordinates>0.919643640518188,40.9934556484222,0</coordinates></Point></Placemark>
<Placemark><name>260508</name><description>260508 PORT HOSP (Tarragona)
posicio de les: 06/08/2018 22:41:01</description><styleUrl>#w_grocP</styleUrl><Point><coordinates>0.919815301895142,40.9937238693237,0</coordinates></Point></Placemark>
<Placemark><name>60531</name><description>260531 BRP HOSP (Tarragona)
posicio de les: 06/08/2018 22:36:57</description><styleUrl>#w_grocC</styleUrl><Point><coordinates>0.919686555862427,40.9935414791107,0</coordinates></Point></Placemark>
<Placemark><name>REUS01</name><description>260801 PORT REUS (Tarragona)
posicio de les: 06/08/2018 22:40:55</description><styleUrl>#w_verdP</styleUrl><Point><coordinates>1.07961058616638,41.1585402488709,0</coordinates></Point></Placemark>
<Placemark><name>60890</name><description>260890 UPC REUS (Tarragona)
posicio de les: 06/08/2018 22:39:12</description><styleUrl>#w_groc</styleUrl><Point><coordinates>1.07964277267456,41.1587011814117,0</coordinates></Point></Placemark>
<Placemark><name>SCDQ04</name><description>261004 PORT SCDQ (Tarragona)
posicio de les: 06/08/2018 22:40:21</description><styleUrl>#w_verdP</styleUrl><Point><coordinates>1.37804388999939,41.5387809276581,0</coordinates></Point></Placemark>
<Placemark><name>TARR02</name><description>261202 PORT TARR (Tarragona)
posicio de les: 06/08/2018 22:36:43</description><styleUrl>#w_verdP</styleUrl><Point><coordinates>1.22157454490662,41.1142086982727,0</coordinates></Point></Placemark>
<Placemark><name>TARR16</name><description>261216 PORT TARR (Tarragona)
posicio de les: 06/08/2018 22:40:31</description><styleUrl>#w_verdP</styleUrl><Point><coordinates>1.22175693511963,41.1139941215515,0</coordinates></Point></Placemark>
<Placemark><name>61290</name><description>261290 UPC TARR (Tarragona)
posicio de les: 06/08/2018 22:37:27</description><styleUrl>#w_groc</styleUrl><Point><coordinates>1.22133851051331,41.1144232749939,0</coordinates></Point></Placemark>
<Placemark><name>61434</name><description>261434 BFP VEND (Tarragona)
posicio de les: 06/08/2018 22:41:15</description><styleUrl>#w_verdC</styleUrl><Point><coordinates>1.57663464546204,41.2379336357117,0</coordinates></Point></Placemark>
<Placemark><name>I500</name><description>267500 P.GUAITA GUAITA
posicio de les: 06/08/2018 22:39:42</description><styleUrl>#w_verdP</styleUrl><Point><coordinates>1.42194628715515,41.4066231250763,0</coordinates></Point></Placemark>
<Placemark><name>D64RET</name><description>268044  SERVEIS REGIÓ
posicio de les: 06/08/2018 22:40:08</description><styleUrl>#w_verd</styleUrl><Point><coordinates>1.18512868881226,41.1347222328186,0</coordinates></Point></Placemark>
<Placemark><name>E00RETE</name><description>270014 P.Tec REGIÓ
posicio de les: 06/08/2018 22:40:19</description><styleUrl>#w_grocP</styleUrl><Point><coordinates>0.513396263122559,40.8192837238312,0</coordinates></Point></Placemark>
<Placemark><name>AMET05</name><description>272005 PORT AMET (Terres de l'Ebre)
posicio de les: 06/08/2018 22:41:16</description><styleUrl>#w_verdP</styleUrl><Point><coordinates>0.797935724258423,40.8903622627258,0</coordinates></Point></Placemark>
<Placemark><name>ASCO05</name><description>272205 PORT ASCO (Terres de l'Ebre)
posicio de les: 06/08/2018 22:40:46</description><styleUrl>#w_verdP</styleUrl><Point><coordinates>0.568960905075073,41.1877763271332,0</coordinates></Point></Placemark>
<Placemark><name>GAND56</name><description>272656 PORT.COM GAND (Terres de l'Ebre)
posicio de les: 06/08/2018 22:39:37</description><styleUrl>#w_verdP</styleUrl><Point><coordinates>0.439292192459106,41.0587084293365,0</coordinates></Point></Placemark>
<Placemark><name>73048</name><description>273048 BUL TORT (Terres de l'Ebre)
posicio de les: 06/08/2018 22:36:24</description><styleUrl>#w_verdC</styleUrl><Point><coordinates>0.512205362319946,40.8189940452576,0</coordinates></Point></Placemark>
<Placemark><name>73090</name><description>273090 UPC TORT (Terres de l'Ebre)
posicio de les: 06/08/2018 22:37:23</description><styleUrl>#w_verd</styleUrl><Point><coordinates>0.513138771057129,40.8195412158966,0</coordinates></Point></Placemark>
<Placemark><name>ULLD08</name><description>273108 PORT ULLD (Terres de l'Ebre)
posicio de les: 06/08/2018 22:41:10</description><styleUrl>#w_verdP</styleUrl><Point><coordinates>0.35854697227478,40.608537197113,0</coordinates></Point></Placemark>
<Placemark><name>I512</name><description>277512 P.GUAITA GUAITA
posicio de les: 06/08/2018 22:39:56</description><styleUrl>#w_verdP</styleUrl><Point><coordinates>0.312938690185547,41.0941350460052,0</coordinates></Point></Placemark>
<Placemark><name>E_93</name><description>278031  SERVEIS REGIÓ
posicio de les: 06/08/2018 22:40:58</description><styleUrl>#w_verd</styleUrl><Point><coordinates>0.513031482696533,40.8193266391754,0</coordinates></Point></Placemark>
</Folder>
<Folder>
<name>Descarregues</name>
</Folder>
<Style id="w_verdP_n"><IconStyle><color>ff00ff00</color><scale>1.0</scale><Icon><href>http://maps.google.com/mapfiles/kml/shapes/man.png</href></Icon><hotSpot x="0.5" y="0" xunits="fraction" yunits="fraction"/></IconStyle><LabelStyle><scale>0.7</scale></LabelStyle></Style>
<Style id="w_verdP_s"><IconStyle><color>ff00ff00</color><scale>1.4</scale><Icon><href>http://maps.google.com/mapfiles/kml/shapes/man.png</href></Icon><hotSpot x="0.5" y="0" xunits="fraction" yunits="fraction"/></IconStyle><LabelStyle><scale>0.7</scale></LabelStyle></Style>
<StyleMap id="w_verdP"><Pair><key>normal</key><styleUrl>#w_verdP_n</styleUrl></Pair><Pair><key>highlight</key><styleUrl>#w_verdP_s</styleUrl></Pair></StyleMap>
<Style id="w_verd_n"><IconStyle><color>ff00ff00</color><scale>0.7</scale><Icon><href>http://maps.google.com/mapfiles/kml/shapes/cabs.png</href></Icon><hotSpot x="0.5" y="0" xunits="fraction" yunits="fraction"/></IconStyle><LabelStyle><scale>0.7</scale></LabelStyle></Style>
<Style id="w_verd_s"><IconStyle><color>ff00ff00</color><scale>1.0</scale><Icon><href>http://maps.google.com/mapfiles/kml/shapes/cabs.png</href></Icon><hotSpot x="0.5" y="0" xunits="fraction" yunits="fraction"/></IconStyle><LabelStyle><scale>0.7</scale></LabelStyle></Style>
<StyleMap id="w_verd"><Pair><key>normal</key><styleUrl>#w_verd_n</styleUrl></Pair><Pair><key>highlight</key><styleUrl>#w_verd_s</styleUrl></Pair></StyleMap>
<Style id="w_verdC_n"><IconStyle><color>ff00ff00</color><scale>1.0</scale><Icon><href>http://maps.google.com/mapfiles/kml/shapes/truck.png</href></Icon><hotSpot x="0.5" y="0" xunits="fraction" yunits="fraction"/></IconStyle><LabelStyle><scale>0.7</scale></LabelStyle></Style>
<Style id="w_verdC_s"><IconStyle><color>ff00ff00</color><scale>1.4</scale><Icon><href>http://maps.google.com/mapfiles/kml/shapes/truck.png</href></Icon><hotSpot x="0.5" y="0" xunits="fraction" yunits="fraction"/></IconStyle><LabelStyle><scale>0.7</scale></LabelStyle></Style>
<StyleMap id="w_verdC"><Pair><key>normal</key><styleUrl>#w_verdC_n</styleUrl></Pair><Pair><key>highlight</key><styleUrl>#w_verdC_s</styleUrl></Pair></StyleMap>
<Style id="w_verdH_n"><IconStyle><color>ff0000ff</color><scale>1.2</scale><Icon><href>http://maps.google.com/mapfiles/kml/shapes/heliport.png</href></Icon><hotSpot x="0.5" y="0" xunits="fraction" yunits="fraction"/></IconStyle><LabelStyle><scale>0.7</scale></LabelStyle></Style>
<Style id="w_verdH_s"><IconStyle><color>ff0000ff</color><scale>1.4</scale><Icon><href>http://maps.google.com/mapfiles/kml/shapes/heliport.png</href></Icon><hotSpot x="0.5" y="0" xunits="fraction" yunits="fraction"/></IconStyle><LabelStyle><scale>0.7</scale></LabelStyle></Style>
<StyleMap id="w_verdH"><Pair><key>normal</key><styleUrl>#w_verdH_n</styleUrl></Pair><Pair><key>highlight</key><styleUrl>#w_verdH_s</styleUrl></Pair></StyleMap>
<Style id="w_verdA_n"><IconStyle><color>ff0000ff</color><scale>1.2</scale><Icon><href>http://maps.google.com/mapfiles/kml/shapes/airports.png</href></Icon><hotSpot x="0.5" y="0" xunits="fraction" yunits="fraction"/></IconStyle><LabelStyle><scale>0.7</scale></LabelStyle></Style>
<Style id="w_verdA_s"><IconStyle><color>ff0000ff</color><scale>1.4</scale><Icon><href>http://maps.google.com/mapfiles/kml/shapes/airports.png</href></Icon><hotSpot x="0.5" y="0" xunits="fraction" yunits="fraction"/></IconStyle><LabelStyle><scale>0.7</scale></LabelStyle></Style>
<StyleMap id="w_verdA"><Pair><key>normal</key><styleUrl>#w_verdA_n</styleUrl></Pair><Pair><key>highlight</key><styleUrl>#w_verdA_s</styleUrl></Pair></StyleMap>
<Style id="w_verdB_n"><IconStyle><color>ff00ff00</color><scale>1.0</scale><Icon><href>http://maps.google.com/mapfiles/kml/shapes/sailing.png</href></Icon><hotSpot x="0.5" y="0" xunits="fraction" yunits="fraction"/></IconStyle><LabelStyle><scale>0.7</scale></LabelStyle></Style>
<Style id="w_verdB_s"><IconStyle><color>ff00ff00</color><scale>1.4</scale><Icon><href>http://maps.google.com/mapfiles/kml/shapes/sailing.png</href></Icon><hotSpot x="0.5" y="0" xunits="fraction" yunits="fraction"/></IconStyle><LabelStyle><scale>0.7</scale></LabelStyle></Style>
<StyleMap id="w_verdB"><Pair><key>normal</key><styleUrl>#w_verdBAR_n</styleUrl></Pair><Pair><key>highlight</key><styleUrl>#w_verdBAR_s</styleUrl></Pair></StyleMap>
<Style id="w_grocP_n"><IconStyle><color>ff00ffff</color><scale>1.0</scale><Icon><href>http://maps.google.com/mapfiles/kml/shapes/man.png</href></Icon><hotSpot x="0.5" y="0" xunits="fraction" yunits="fraction"/></IconStyle><LabelStyle><scale>0.7</scale></LabelStyle></Style>
<Style id="w_grocP_s"><IconStyle><color>ff00ffff</color><scale>1.4</scale><Icon><href>http://maps.google.com/mapfiles/kml/shapes/man.png</href></Icon><hotSpot x="0.5" y="0" xunits="fraction" yunits="fraction"/></IconStyle><LabelStyle><scale>0.7</scale></LabelStyle></Style>
<StyleMap id="w_grocP"><Pair><key>normal</key><styleUrl>#w_grocP_n</styleUrl></Pair><Pair><key>highlight</key><styleUrl>#w_grocP_s</styleUrl></Pair></StyleMap>
<Style id="w_groc_n"><IconStyle><color>ff00ffff</color><scale>0.7</scale><Icon><href>http://maps.google.com/mapfiles/kml/shapes/cabs.png</href></Icon><hotSpot x="0.5" y="0" xunits="fraction" yunits="fraction"/></IconStyle><LabelStyle><scale>0.7</scale></LabelStyle></Style>
<Style id="w_groc_s"><IconStyle><color>ff00ffff</color><scale>1.0</scale><Icon><href>http://maps.google.com/mapfiles/kml/shapes/cabs.png</href></Icon><hotSpot x="0.5" y="0" xunits="fraction" yunits="fraction"/></IconStyle><LabelStyle><scale>0.7</scale></LabelStyle></Style>
<StyleMap id="w_groc"><Pair><key>normal</key><styleUrl>#w_groc_n</styleUrl></Pair><Pair><key>highlight</key><styleUrl>#w_groc_s</styleUrl></Pair></StyleMap>
<Style id="w_grocC_n"><IconStyle><color>ff00ffff</color><scale>1.0</scale><Icon><href>http://maps.google.com/mapfiles/kml/shapes/truck.png</href></Icon><hotSpot x="0.5" y="0" xunits="fraction" yunits="fraction"/></IconStyle><LabelStyle><scale>0.7</scale></LabelStyle></Style>
<Style id="w_grocC_s"><IconStyle><color>ff00ffff</color><scale>1.4</scale><Icon><href>http://maps.google.com/mapfiles/kml/shapes/truck.png</href></Icon><hotSpot x="0.5" y="0" xunits="fraction" yunits="fraction"/></IconStyle><LabelStyle><scale>0.7</scale></LabelStyle></Style>
<StyleMap id="w_grocC"><Pair><key>normal</key><styleUrl>#w_grocC_n</styleUrl></Pair><Pair><key>highlight</key><styleUrl>#w_grocC_s</styleUrl></Pair></StyleMap>
<Style id="w_grocH_n"><IconStyle><color>ff0000ff</color><scale>1.2</scale><Icon><href>http://maps.google.com/mapfiles/kml/shapes/heliport.png</href></Icon><hotSpot x="0.5" y="0" xunits="fraction" yunits="fraction"/></IconStyle><LabelStyle><scale>0.7</scale></LabelStyle></Style>
<Style id="w_grocH_s"><IconStyle><color>ff0000ff</color><scale>1.4</scale><Icon><href>http://maps.google.com/mapfiles/kml/shapes/heliport.png</href></Icon><hotSpot x="0.5" y="0" xunits="fraction" yunits="fraction"/></IconStyle><LabelStyle><scale>0.7</scale></LabelStyle></Style>
<StyleMap id="w_grocH"><Pair><key>normal</key><styleUrl>#w_grocH_n</styleUrl></Pair><Pair><key>highlight</key><styleUrl>#w_grocH_s</styleUrl></Pair></StyleMap>
<Style id="w_grocA_n"><IconStyle><color>ff0000ff</color><scale>1.2</scale><Icon><href>http://maps.google.com/mapfiles/kml/shapes/airports.png</href></Icon><hotSpot x="0.5" y="0" xunits="fraction" yunits="fraction"/></IconStyle><LabelStyle><scale>0.7</scale></LabelStyle></Style>
<Style id="w_grocA_s"><IconStyle><color>ff0000ff</color><scale>1.4</scale><Icon><href>http://maps.google.com/mapfiles/kml/shapes/airports.png</href></Icon><hotSpot x="0.5" y="0" xunits="fraction" yunits="fraction"/></IconStyle><LabelStyle><scale>0.7</scale></LabelStyle></Style>
<StyleMap id="w_grocA"><Pair><key>normal</key><styleUrl>#w_grocA_n</styleUrl></Pair><Pair><key>highlight</key><styleUrl>#w_grocA_s</styleUrl></Pair></StyleMap>
<Style id="w_grocB_n"><IconStyle><color>ff00ffff</color><scale>1.0</scale><Icon><href>http://maps.google.com/mapfiles/kml/shapes/sailing.png</href></Icon><hotSpot x="0.5" y="0" xunits="fraction" yunits="fraction"/></IconStyle><LabelStyle><scale>0.7</scale></LabelStyle></Style>
<Style id="w_grocB_s"><IconStyle><color>ff00ffff</color><scale>1.4</scale><Icon><href>http://maps.google.com/mapfiles/kml/shapes/sailing.png</href></Icon><hotSpot x="0.5" y="0" xunits="fraction" yunits="fraction"/></IconStyle><LabelStyle><scale>0.7</scale></LabelStyle></Style>
<StyleMap id="w_grocB"><Pair><key>normal</key><styleUrl>#w_grocBAR_n</styleUrl></Pair><Pair><key>highlight</key><styleUrl>#w_grocBAR_s</styleUrl></Pair></StyleMap>
<Style id="w_vermellP_n"><IconStyle><color>ff0000ff</color><scale>1.0</scale><Icon><href>http://maps.google.com/mapfiles/kml/shapes/man.png</href></Icon><hotSpot x="0.5" y="0" xunits="fraction" yunits="fraction"/></IconStyle><LabelStyle><scale>0.7</scale></LabelStyle></Style>
<Style id="w_vermellP_s"><IconStyle><color>ff0000ff</color><scale>1.4</scale><Icon><href>http://maps.google.com/mapfiles/kml/shapes/man.png</href></Icon><hotSpot x="0.5" y="0" xunits="fraction" yunits="fraction"/></IconStyle><LabelStyle><scale>0.7</scale></LabelStyle></Style>
<StyleMap id="w_vermellP"><Pair><key>normal</key><styleUrl>#w_vermellP_n</styleUrl></Pair><Pair><key>highlight</key><styleUrl>#w_vermellP_s</styleUrl></Pair></StyleMap>
<Style id="w_vermell_n"><IconStyle><color>ff0000ff</color><scale>0.7</scale><Icon><href>http://maps.google.com/mapfiles/kml/shapes/cabs.png</href></Icon><hotSpot x="0.5" y="0" xunits="fraction" yunits="fraction"/></IconStyle><LabelStyle><scale>0.7</scale></LabelStyle></Style>
<Style id="w_vermell_s"><IconStyle><color>ff0000ff</color><scale>1.0</scale><Icon><href>http://maps.google.com/mapfiles/kml/shapes/cabs.png</href></Icon><hotSpot x="0.5" y="0" xunits="fraction" yunits="fraction"/></IconStyle><LabelStyle><scale>0.7</scale></LabelStyle></Style>
<StyleMap id="w_vermell"><Pair><key>normal</key><styleUrl>#w_vermell_n</styleUrl></Pair><Pair><key>highlight</key><styleUrl>#w_vermell_s</styleUrl></Pair></StyleMap>
<Style id="w_vermellC_n"><IconStyle><color>ff0000ff</color><scale>1.0</scale><Icon><href>http://maps.google.com/mapfiles/kml/shapes/truck.png</href></Icon><hotSpot x="0.5" y="0" xunits="fraction" yunits="fraction"/></IconStyle><LabelStyle><scale>0.7</scale></LabelStyle></Style>
<Style id="w_vermellC_s"><IconStyle><color>ff0000ff</color><scale>1.4</scale><Icon><href>http://maps.google.com/mapfiles/kml/shapes/truck.png</href></Icon><hotSpot x="0.5" y="0" xunits="fraction" yunits="fraction"/></IconStyle><LabelStyle><scale>0.7</scale></LabelStyle></Style>
<StyleMap id="w_vermellC"><Pair><key>normal</key><styleUrl>#w_vermellC_n</styleUrl></Pair><Pair><key>highlight</key><styleUrl>#w_vermellC_s</styleUrl></Pair></StyleMap>
<Style id="w_vermellH_n"><IconStyle><color>ff0000ff</color><scale>1.2</scale><Icon><href>http://maps.google.com/mapfiles/kml/shapes/heliport.png</href></Icon><hotSpot x="0.5" y="0" xunits="fraction" yunits="fraction"/></IconStyle><LabelStyle><scale>0.7</scale></LabelStyle></Style>
<Style id="w_vermellH_s"><IconStyle><color>ff0000ff</color><scale>1.4</scale><Icon><href>http://maps.google.com/mapfiles/kml/shapes/heliport.png</href></Icon><hotSpot x="0.5" y="0" xunits="fraction" yunits="fraction"/></IconStyle><LabelStyle><scale>0.7</scale></LabelStyle></Style>
<StyleMap id="w_vermellH"><Pair><key>normal</key><styleUrl>#w_vermellH_n</styleUrl></Pair><Pair><key>highlight</key><styleUrl>#w_vermellH_s</styleUrl></Pair></StyleMap>
<Style id="w_vermellA_n"><IconStyle><color>ff0000ff</color><scale>1.2</scale><Icon><href>http://maps.google.com/mapfiles/kml/shapes/airports.png</href></Icon><hotSpot x="0.5" y="0" xunits="fraction" yunits="fraction"/></IconStyle><LabelStyle><scale>0.7</scale></LabelStyle></Style>
<Style id="w_vermellA_s"><IconStyle><color>ff0000ff</color><scale>1.4</scale><Icon><href>http://maps.google.com/mapfiles/kml/shapes/airports.png</href></Icon><hotSpot x="0.5" y="0" xunits="fraction" yunits="fraction"/></IconStyle><LabelStyle><scale>0.7</scale></LabelStyle></Style>
<StyleMap id="w_vermellA"><Pair><key>normal</key><styleUrl>#w_vermellA_n</styleUrl></Pair><Pair><key>highlight</key><styleUrl>#w_vermellA_s</styleUrl></Pair></StyleMap>
<Style id="w_vermellB_n"><IconStyle><color>ff0000ff</color><scale>1.0</scale><Icon><href>http://maps.google.com/mapfiles/kml/shapes/sailing.png</href></Icon><hotSpot x="0.5" y="0" xunits="fraction" yunits="fraction"/></IconStyle><LabelStyle><scale>0.7</scale></LabelStyle></Style>
<Style id="w_vermellB_s"><IconStyle><color>ff0000ff</color><scale>1.4</scale><Icon><href>http://maps.google.com/mapfiles/kml/shapes/sailing.png</href></Icon><hotSpot x="0.5" y="0" xunits="fraction" yunits="fraction"/></IconStyle><LabelStyle><scale>0.7</scale></LabelStyle></Style>
<StyleMap id="w_vermellB"><Pair><key>normal</key><styleUrl>#w_vermellBAR_n</styleUrl></Pair><Pair><key>highlight</key><styleUrl>#w_vermellBAR_s</styleUrl></Pair></StyleMap>
<Style id="w_descarrega"><IconStyle><color>ff00ffff</color><scale>0.5</scale><Icon><href>http://maps.google.com/mapfiles/kml/shapes/road_shield3.png</href></Icon></IconStyle><LabelStyle><scale>0.7</scale></LabelStyle></Style><Style id="actuacio"><IconStyle><color>ff00ffff</color><scale>0.8</scale><Icon><href>http://maps.google.com/mapfiles/kml/shapes/caution.png</href></Icon></IconStyle><LabelStyle><scale>0.7</scale></LabelStyle></Style></Document></kml>