<?xml version="1.0" encoding="UTF-8"?>
<kml xmlns="http://www.opengis.net/kml/2.2" xmlns:gx="http://www.google.com/kml/ext/2.2" xmlns:kml="http://www.opengis.net/kml/2.2" xmlns:atom="http://www.w3.org/2005/Atom">
<Document>
<name>Terminals</name>
<Snippet maxLines="2">Created 04/08/2018 23:15:47</Snippet>
<Folder>
<name>Terminals</name>
<Placemark><name>A0102</name><description>200102 PORT Dept.
posicio de les: 04/08/2018 23:13:52</description><styleUrl>#w_grocP</styleUrl><Point><coordinates>0.7965087890625,42.7073013782501,0</coordinates></Point></Placemark>
<Placemark><name>03373</name><description>203373 GRAE
posicio de les: 04/08/2018 23:15:22</description><styleUrl>#w_verd</styleUrl><Point><coordinates>1.38081192970276,42.571656703949,0</coordinates></Point></Placemark>
<Placemark><name>GGRAF12</name><description>204212 P.REC
posicio de les: 04/08/2018 23:14:56</description><styleUrl>#w_verdP</styleUrl><Point><coordinates>2.97493457794189,42.0297431945801,0</coordinates></Point></Placemark>
<Placemark><name>OP05087</name><description>205287 OP.AAV
posicio de les: 04/08/2018 23:13:45</description><styleUrl>#w_grocP</styleUrl><Point><coordinates>1.15827441215515,41.147940158844,0</coordinates></Point></Placemark>
<Placemark><name>VIEL12</name><description>208012 P.PT VARAN
posicio de les: 04/08/2018 23:13:55</description><styleUrl>#w_verdP</styleUrl><Point><coordinates>0.795789957046509,42.7064001560211,0</coordinates></Point></Placemark>
<Placemark><name>VIEL17</name><description>208017 BASE CCA VARAN
posicio de les: 04/08/2018 23:13:55</description><styleUrl>#w_groc</styleUrl><Point><coordinates>0.796637535095215,42.7078914642334,0</coordinates></Point></Placemark>
<Placemark><name>BOSS01</name><description>208101 P.COMODIN VARAN
posicio de les: 04/08/2018 23:13:32</description><styleUrl>#w_verdP</styleUrl><Point><coordinates>0.69263219833374,42.7859115600586,0</coordinates></Point></Placemark>
<Placemark><name>E0REC</name><description>210012 P.Tec REGIÓ
posicio de les: 04/08/2018 23:11:03</description><styleUrl>#w_verdP</styleUrl><Point><coordinates>1.8511426448822,41.7416846752167,0</coordinates></Point></Placemark>
<Placemark><name>BER57</name><description>210357 PORT.COM BER (Centre)
posicio de les: 04/08/2018 23:13:17</description><styleUrl>#w_verdP</styleUrl><Point><coordinates>1.85803055763245,42.103385925293,0</coordinates></Point></Placemark>
<Placemark><name>CAF56</name><description>210456 PORT.COM CAF (Centre)
posicio de les: 04/08/2018 23:12:48</description><styleUrl>#w_verdP</styleUrl><Point><coordinates>1.52746438980103,41.7309987545013,0</coordinates></Point></Placemark>
<Placemark><name>GUA56</name><description>210856 PORT.COM GUA (Centre)
posicio de les: 04/08/2018 23:14:45</description><styleUrl>#w_verdP</styleUrl><Point><coordinates>1.86895251274109,42.2191822528839,0</coordinates></Point></Placemark>
<Placemark><name>PRA07</name><description>211407 PORT PRA (Centre)
posicio de les: 04/08/2018 23:14:07</description><styleUrl>#w_verdP</styleUrl><Point><coordinates>2.03630089759827,42.0078134536743,0</coordinates></Point></Placemark>
<Placemark><name>PUIG01</name><description>211501 PORT PUIG (Centre)
posicio de les: 04/08/2018 23:12:52</description><styleUrl>#w_verdP</styleUrl><Point><coordinates>1.92152380943298,42.4205732345581,0</coordinates></Point></Placemark>
<Placemark><name>20134</name><description>220134 BFP AMER (Girona)
posicio de les: 04/08/2018 23:15:07</description><styleUrl>#w_grocC</styleUrl><Point><coordinates>3.15343022346497,42.3575735092163,0</coordinates></Point></Placemark>
<Placemark><name>BANY07</name><description>220307 PORT BANY (Girona)
posicio de les: 04/08/2018 23:11:11</description><styleUrl>#w_verdP</styleUrl><Point><coordinates>2.78578519821167,42.1175372600555,0</coordinates></Point></Placemark>
<Placemark><name>20330</name><description>220330 BRP BANY (Girona)
posicio de les: 04/08/2018 23:11:18</description><styleUrl>#w_grocC</styleUrl><Point><coordinates>2.78493762016296,42.1176767349243,0</coordinates></Point></Placemark>
<Placemark><name>20434</name><description>220434 BFP PERA (Girona)
posicio de les: 04/08/2018 23:12:18</description><styleUrl>#w_grocC</styleUrl><Point><coordinates>2.87153005599976,42.405971288681,0</coordinates></Point></Placemark>
<Placemark><name>CASS56</name><description>220856 PORT.COM CASS (Girona)
posicio de les: 04/08/2018 23:14:47</description><styleUrl>#w_grocP</styleUrl><Point><coordinates>2.88421154022217,41.8796467781067,0</coordinates></Point></Placemark>
<Placemark><name>FIGU 01</name><description>221001 PORT FIGU (Girona)
posicio de les: 04/08/2018 23:13:33</description><styleUrl>#w_verdP</styleUrl><Point><coordinates>2.87374019622803,42.4064540863037,0</coordinates></Point></Placemark>
<Placemark><name>21034</name><description>221034 BFP FIGU (Girona)
posicio de les: 04/08/2018 23:15:47</description><styleUrl>#w_verdC</styleUrl><Point><coordinates>2.94018387794495,42.2924602031708,0</coordinates></Point></Placemark>
<Placemark><name>FIGU56</name><description>221056 PORT.COM FIGU (Girona)
posicio de les: 04/08/2018 23:11:53</description><styleUrl>#w_verdP</styleUrl><Point><coordinates>2.97081470489502,42.2719788551331,0</coordinates></Point></Placemark>
<Placemark><name>GIRO56</name><description>221156 PORT.COM GIRO (Girona)
posicio de les: 04/08/2018 23:14:46</description><styleUrl>#w_verdP</styleUrl><Point><coordinates>2.80597686767578,41.9604456424713,0</coordinates></Point></Placemark>
<Placemark><name>HOST02</name><description>221202 PORT HOST (Girona)
posicio de les: 04/08/2018 23:14:57</description><styleUrl>#w_grocP</styleUrl><Point><coordinates>2.62429475784302,41.7482507228851,0</coordinates></Point></Placemark>
<Placemark><name>HOST03</name><description>221203 PORT HOST (Girona)
posicio de les: 04/08/2018 23:14:29</description><styleUrl>#w_grocP</styleUrl><Point><coordinates>2.62435913085938,41.7483901977539,0</coordinates></Point></Placemark>
<Placemark><name>21230</name><description>221230 BRP HOST (Girona)
posicio de les: 04/08/2018 23:12:50</description><styleUrl>#w_grocC</styleUrl><Point><coordinates>2.62447714805603,41.7482721805573,0</coordinates></Point></Placemark>
<Placemark><name>HOST57</name><description>221257 PORT.COM HOST (Girona)
posicio de les: 04/08/2018 23:14:32</description><styleUrl>#w_verdP</styleUrl><Point><coordinates>2.62457370758057,41.7481219768524,0</coordinates></Point></Placemark>
<Placemark><name>21290</name><description>221290 UPC HOST (Girona)
posicio de les: 04/08/2018 23:15:05</description><styleUrl>#w_verd</styleUrl><Point><coordinates>2.62460589408875,41.7475962638855,0</coordinates></Point></Placemark>
<Placemark><name>JONQ03</name><description>221303 PORT JONQ (Girona)
posicio de les: 04/08/2018 23:14:20</description><styleUrl>#w_grocP</styleUrl><Point><coordinates>2.87644386291504,42.4120008945465,0</coordinates></Point></Placemark>
<Placemark><name>JONQ56</name><description>221356 PORT.COM JONQ (Girona)
posicio de les: 04/08/2018 23:15:25</description><styleUrl>#w_verdP</styleUrl><Point><coordinates>2.87445902824402,42.4062824249268,0</coordinates></Point></Placemark>
<Placemark><name>21434</name><description>221434 BFP LLAN (Girona)
posicio de les: 04/08/2018 23:11:22</description><styleUrl>#w_grocC</styleUrl><Point><coordinates>2.87149786949158,42.4060356616974,0</coordinates></Point></Placemark>
<Placemark><name>LLAN57</name><description>221457 PORT.COM LLAN (Girona)
posicio de les: 04/08/2018 23:10:17</description><styleUrl>#w_grocP</styleUrl><Point><coordinates>3.15346240997314,42.3574662208557,0</coordinates></Point></Placemark>
<Placemark><name>VILJ59</name><description>221459 BSAL LLAN (Girona)
posicio de les: 04/08/2018 23:14:05</description><styleUrl>#w_verdB</styleUrl><Point><coordinates>2.87176609039307,42.4062502384186,0</coordinates></Point></Placemark>
<Placemark><name>LLOR05</name><description>221505 PORT LLOR (Girona)
posicio de les: 04/08/2018 23:13:56</description><styleUrl>#w_verdP</styleUrl><Point><coordinates>2.83591032028198,41.6995739936829,0</coordinates></Point></Placemark>
<Placemark><name>21630</name><description>221630 BRP MACA (Girona)
posicio de les: 04/08/2018 23:13:45</description><styleUrl>#w_grocC</styleUrl><Point><coordinates>2.75272965431213,41.7795467376709,0</coordinates></Point></Placemark>
<Placemark><name>OLOT56</name><description>221756 PORT.COM OLOT (Girona)
posicio de les: 04/08/2018 23:15:08</description><styleUrl>#w_grocP</styleUrl><Point><coordinates>2.47437000274658,42.1900105476379,0</coordinates></Point></Placemark>
<Placemark><name>PALA56</name><description>221856 PORT.COM PALA (Girona)
posicio de les: 04/08/2018 23:15:04</description><styleUrl>#w_verdP</styleUrl><Point><coordinates>3.15532922744751,41.925276517868,0</coordinates></Point></Placemark>
<Placemark><name>RIPO03</name><description>222103 PORT RIPO (Girona)
posicio de les: 04/08/2018 23:15:47</description><styleUrl>#w_verdP</styleUrl><Point><coordinates>2.16841578483582,42.2146010398865,0</coordinates></Point></Placemark>
<Placemark><name>22130</name><description>222130 BRP RIPO (Girona)
posicio de les: 04/08/2018 23:12:32</description><styleUrl>#w_grocC</styleUrl><Point><coordinates>2.16739654541016,42.2153198719025,0</coordinates></Point></Placemark>
<Placemark><name>RIPO56</name><description>222156 PORT.COM RIPO (Girona)
posicio de les: 04/08/2018 23:14:04</description><styleUrl>#w_verdP</styleUrl><Point><coordinates>2.17047572135925,42.2136032581329,0</coordinates></Point></Placemark>
<Placemark><name>ROSE56</name><description>222256 PORT.COM ROSE (Girona)
posicio de les: 04/08/2018 23:14:26</description><styleUrl>#w_verdP</styleUrl><Point><coordinates>3.16116571426392,42.276463508606,0</coordinates></Point></Placemark>
<Placemark><name>TORR56</name><description>222656 PORT.COM TORR (Girona)
posicio de les: 04/08/2018 23:14:15</description><styleUrl>#w_grocP</styleUrl><Point><coordinates>3.16709876060486,42.0478212833405,0</coordinates></Point></Placemark>
<Placemark><name>VALL57</name><description>222857 PORT.COM VALL (Girona)
posicio de les: 04/08/2018 23:15:11</description><styleUrl>#w_verdP</styleUrl><Point><coordinates>3.0316686630249,41.8087720870972,0</coordinates></Point></Placemark>
<Placemark><name>I308</name><description>227308 P.GUAITA GUAITA
posicio de les: 04/08/2018 23:15:04</description><styleUrl>#w_verdP</styleUrl><Point><coordinates>3.15561890602112,41.925812959671,0</coordinates></Point></Placemark>
<Placemark><name>D9REG</name><description>228049  SERVEIS REGIÓ
posicio de les: 04/08/2018 23:13:24</description><styleUrl>#w_groc</styleUrl><Point><coordinates>2.80621290206909,41.9598770141602,0</coordinates></Point></Placemark>
<Placemark><name>D0REL</name><description>230010 P.CG REGIÓ
posicio de les: 04/08/2018 23:13:45</description><styleUrl>#w_verdP</styleUrl><Point><coordinates>0.604323148727417,41.6233885288239,0</coordinates></Point></Placemark>
<Placemark><name>30084</name><description>230084  REGIÓ
posicio de les: 04/08/2018 23:15:45</description><styleUrl>#w_verd</styleUrl><Point><coordinates>0.60975193977356,41.622154712677,0</coordinates></Point></Placemark>
<Placemark><name>30091</name><description>230091  REGIÓ
posicio de les: 04/08/2018 23:11:12</description><styleUrl>#w_groc</styleUrl><Point><coordinates>0.605438947677612,41.6241180896759,0</coordinates></Point></Placemark>
<Placemark><name>30092</name><description>230092  REGIÓ
posicio de les: 04/08/2018 23:14:34</description><styleUrl>#w_verd</styleUrl><Point><coordinates>0.605342388153076,41.6233777999878,0</coordinates></Point></Placemark>
<Placemark><name>ALMA01</name><description>230301 PORT ALMA (Lleida)
posicio de les: 04/08/2018 23:14:59</description><styleUrl>#w_grocP</styleUrl><Point><coordinates>0.433734655380249,41.7319750785828,0</coordinates></Point></Placemark>
<Placemark><name>ALMA02</name><description>230302 PORT ALMA (Lleida)
posicio de les: 04/08/2018 23:14:28</description><styleUrl>#w_grocP</styleUrl><Point><coordinates>0.433799028396606,41.7318999767303,0</coordinates></Point></Placemark>
<Placemark><name>ALME01</name><description>230401 PORT ALME (Lleida)
posicio de les: 04/08/2018 23:15:10</description><styleUrl>#w_grocP</styleUrl><Point><coordinates>0.569014549255371,41.7922604084015,0</coordinates></Point></Placemark>
<Placemark><name>BORG05</name><description>230705 PORT BORG (Lleida)
posicio de les: 04/08/2018 23:14:58</description><styleUrl>#w_grocP</styleUrl><Point><coordinates>0.844895839691162,41.5074419975281,0</coordinates></Point></Placemark>
<Placemark><name>BORG06</name><description>230706 PORT BORG (Lleida)
posicio de les: 04/08/2018 23:14:03</description><styleUrl>#w_grocP</styleUrl><Point><coordinates>0.844810009002686,41.5073025226593,0</coordinates></Point></Placemark>
<Placemark><name>BORG56</name><description>230756 PORT.COM BORG (Lleida)
posicio de les: 04/08/2018 23:14:32</description><styleUrl>#w_verdP</styleUrl><Point><coordinates>0.844810009002686,41.5069270133972,0</coordinates></Point></Placemark>
<Placemark><name>GUIS05</name><description>231405 PORT GUIS (Lleida)
posicio de les: 04/08/2018 23:15:27</description><styleUrl>#w_grocP</styleUrl><Point><coordinates>1.28288984298706,41.7822396755219,0</coordinates></Point></Placemark>
<Placemark><name>31430</name><description>231430 BRP GUIS (Lleida)
posicio de les: 04/08/2018 23:12:11</description><styleUrl>#w_grocC</styleUrl><Point><coordinates>1.28305077552795,41.7821431159973,0</coordinates></Point></Placemark>
<Placemark><name>MOLL07</name><description>232007 PORT MOLL (Lleida)
posicio de les: 04/08/2018 23:14:01</description><styleUrl>#w_verdP</styleUrl><Point><coordinates>0.898454189300537,41.6367995738983,0</coordinates></Point></Placemark>
<Placemark><name>MOLL56</name><description>232056 PORT.COM MOLL (Lleida)
posicio de les: 04/08/2018 23:14:20</description><styleUrl>#w_verdP</styleUrl><Point><coordinates>0.898743867874146,41.6363918781281,0</coordinates></Point></Placemark>
<Placemark><name>32090</name><description>232090 UPC MOLL (Lleida)
posicio de les: 04/08/2018 23:13:18</description><styleUrl>#w_groc</styleUrl><Point><coordinates>0.898261070251465,41.6364991664886,0</coordinates></Point></Placemark>
<Placemark><name>OLIA01</name><description>232201 PORT OLIA (Lleida)
posicio de les: 04/08/2018 23:14:11</description><styleUrl>#w_grocP</styleUrl><Point><coordinates>1.31388545036316,42.0643544197083,0</coordinates></Point></Placemark>
<Placemark><name>32230</name><description>232230 BRP OLIA (Lleida)
posicio de les: 04/08/2018 23:11:22</description><styleUrl>#w_grocC</styleUrl><Point><coordinates>1.31289839744568,42.0642578601837,0</coordinates></Point></Placemark>
<Placemark><name>32234</name><description>232234 BFP OLIA (Lleida)
posicio de les: 04/08/2018 23:14:17</description><styleUrl>#w_grocC</styleUrl><Point><coordinates>1.31190061569214,42.0662534236908,0</coordinates></Point></Placemark>
<Placemark><name>POBL01</name><description>232401 PORT POBL (Lleida)
posicio de les: 04/08/2018 23:14:52</description><styleUrl>#w_verdP</styleUrl><Point><coordinates>0.964254140853882,42.2391378879547,0</coordinates></Point></Placemark>
<Placemark><name>PONT56</name><description>232556 PORT.COM PONT (Lleida)
posicio de les: 04/08/2018 23:14:32</description><styleUrl>#w_verdP</styleUrl><Point><coordinates>0.739742517471313,42.4105203151703,0</coordinates></Point></Placemark>
<Placemark><name>PONS01</name><description>232601 PORT PONS (Lleida)
posicio de les: 04/08/2018 23:15:32</description><styleUrl>#w_verdP</styleUrl><Point><coordinates>1.18321895599365,41.8863844871521,0</coordinates></Point></Placemark>
<Placemark><name>32630</name><description>232630 BRP PONS (Lleida)
posicio de les: 04/08/2018 23:13:23</description><styleUrl>#w_grocC</styleUrl><Point><coordinates>1.17541909217834,41.8751513957977,0</coordinates></Point></Placemark>
<Placemark><name>PONS56</name><description>232656 PORT.COM PONS (Lleida)
posicio de les: 04/08/2018 23:13:48</description><styleUrl>#w_grocP</styleUrl><Point><coordinates>1.17482900619507,41.8756449222565,0</coordinates></Point></Placemark>
<Placemark><name>SEU09</name><description>232909 PORT SEU (Lleida)
posicio de les: 04/08/2018 23:14:17</description><styleUrl>#w_verdP</styleUrl><Point><coordinates>1.47167444229126,42.3603630065918,0</coordinates></Point></Placemark>
<Placemark><name>TREM10</name><description>233310 PORT TREM (Lleida)
posicio de les: 04/08/2018 23:14:23</description><styleUrl>#w_grocP</styleUrl><Point><coordinates>0.889216661453247,42.1646475791931,0</coordinates></Point></Placemark>
<Placemark><name>40081</name><description>240081  REGIÓ
posicio de les: 04/08/2018 23:11:53</description><styleUrl>#w_groc</styleUrl><Point><coordinates>2.11263656616211,41.5023994445801,0</coordinates></Point></Placemark>
<Placemark><name>40091</name><description>240091  REGIÓ
posicio de les: 04/08/2018 23:12:27</description><styleUrl>#w_groc</styleUrl><Point><coordinates>2.11289405822754,41.5040624141693,0</coordinates></Point></Placemark>
<Placemark><name>40240</name><description>240240 BUP BAD (Metro. Nord)
posicio de les: 04/08/2018 23:11:39</description><styleUrl>#w_grocC</styleUrl><Point><coordinates>2.220139503479,41.4384663105011,0</coordinates></Point></Placemark>
<Placemark><name>40290</name><description>240290 UPC BAD (Metro. Nord)
posicio de les: 04/08/2018 23:12:43</description><styleUrl>#w_groc</styleUrl><Point><coordinates>2.03502416610718,41.4739680290222,0</coordinates></Point></Placemark>
<Placemark><name>CER03</name><description>240503 PORT CER (Metro. Nord)
posicio de les: 04/08/2018 23:15:48</description><styleUrl>#w_grocP</styleUrl><Point><coordinates>2.11158514022827,41.5025389194489,0</coordinates></Point></Placemark>
<Placemark><name>GRA05</name><description>240605 PORT GRA (Metro. Nord)
posicio de les: 04/08/2018 23:14:35</description><styleUrl>#w_verdP</styleUrl><Point><coordinates>2.27559685707092,41.5902471542358,0</coordinates></Point></Placemark>
<Placemark><name>GRA07</name><description>240607 PORT GRA (Metro. Nord)
posicio de les: 04/08/2018 23:15:16</description><styleUrl>#w_verdP</styleUrl><Point><coordinates>2.2746741771698,41.5899574756622,0</coordinates></Point></Placemark>
<Placemark><name>MOL03</name><description>241003 PORT MOL (Metro. Nord)
posicio de les: 04/08/2018 23:12:29</description><styleUrl>#w_verdP</styleUrl><Point><coordinates>2.20140695571899,41.537150144577,0</coordinates></Point></Placemark>
<Placemark><name>41034</name><description>241034 BFP MOL (Metro. Nord)
posicio de les: 04/08/2018 23:15:48</description><styleUrl>#w_verdC</styleUrl><Point><coordinates>2.20241546630859,41.5370321273804,0</coordinates></Point></Placemark>
<Placemark><name>241040</name><description>241040 BUP MOL (Metro. Nord)
posicio de les: 04/08/2018 23:12:45</description><styleUrl>#w_grocC</styleUrl><Point><coordinates>2.20198631286621,41.5373432636261,0</coordinates></Point></Placemark>
<Placemark><name>241048</name><description>241048 BUL MOL (Metro. Nord)
posicio de les: 04/08/2018 23:11:25</description><styleUrl>#w_grocC</styleUrl><Point><coordinates>2.20206141471863,41.5368497371674,0</coordinates></Point></Placemark>
<Placemark><name>MFI01</name><description>241101 PORT MFI (Metro. Nord)
posicio de les: 04/08/2018 23:12:57</description><styleUrl>#w_grocP</styleUrl><Point><coordinates>2.27161645889282,41.7162466049194,0</coordinates></Point></Placemark>
<Placemark><name>SAB01</name><description>241401 PORT SAB (Metro. Nord)
posicio de les: 04/08/2018 23:14:48</description><styleUrl>#w_verdP</styleUrl><Point><coordinates>2.10224032402039,41.5134286880493,0</coordinates></Point></Placemark>
<Placemark><name>41448</name><description>241448 BUL SAB (Metro. Nord)
posicio de les: 04/08/2018 23:11:28</description><styleUrl>#w_grocC</styleUrl><Point><coordinates>2.10213303565979,41.5131604671478,0</coordinates></Point></Placemark>
<Placemark><name>SAB56</name><description>241456 PORT.COM SAB (Metro. Nord)
posicio de les: 04/08/2018 23:12:40</description><styleUrl>#w_verdP</styleUrl><Point><coordinates>2.10384964942932,41.5424394607544,0</coordinates></Point></Placemark>
<Placemark><name>SCE08</name><description>241608 PORT SCE (Metro. Nord)
posicio de les: 04/08/2018 23:14:03</description><styleUrl>#w_verdP</styleUrl><Point><coordinates>2.50706076622009,41.6951215267181,0</coordinates></Point></Placemark>
<Placemark><name>SCG07</name><description>241807 PORT SCG (Metro. Nord)
posicio de les: 04/08/2018 23:15:37</description><styleUrl>#w_verdP</styleUrl><Point><coordinates>2.20854163169861,41.4636361598969,0</coordinates></Point></Placemark>
<Placemark><name>TER11</name><description>242011 PORT TER (Metro. Nord)
posicio de les: 04/08/2018 23:14:51</description><styleUrl>#w_grocP</styleUrl><Point><coordinates>2.02618360519409,41.5681350231171,0</coordinates></Point></Placemark>
<Placemark><name>TER56</name><description>242056 PORT.COM TER (Metro. Nord)
posicio de les: 04/08/2018 23:14:19</description><styleUrl>#w_verdP</styleUrl><Point><coordinates>2.02635526657104,41.5683174133301,0</coordinates></Point></Placemark>
<Placemark><name>50093</name><description>250093  REGIÓ
posicio de les: 04/08/2018 23:15:49</description><styleUrl>#w_verd</styleUrl><Point><coordinates>2.10003018379211,41.38028383255,0</coordinates></Point></Placemark>
<Placemark><name>COR56</name><description>250456 PORT.COM COR (Metro. Sud)
posicio de les: 04/08/2018 23:13:02</description><styleUrl>#w_verdP</styleUrl><Point><coordinates>2.07056879997253,41.3600277900696,0</coordinates></Point></Placemark>
<Placemark><name>50490</name><description>250490 UPC COR (Metro. Sud)
posicio de les: 04/08/2018 23:12:40</description><styleUrl>#w_groc</styleUrl><Point><coordinates>2.07025766372681,41.3625812530518,0</coordinates></Point></Placemark>
<Placemark><name>GAV02</name><description>250502 PORT GAV (Metro. Sud)
posicio de les: 04/08/2018 23:14:19</description><styleUrl>#w_verdP</styleUrl><Point><coordinates>1.98990941047668,41.3000214099884,0</coordinates></Point></Placemark>
<Placemark><name>GAV56</name><description>250556 PORT.COM GAV (Metro. Sud)
posicio de les: 04/08/2018 23:14:41</description><styleUrl>#w_verdP</styleUrl><Point><coordinates>1.99025273323059,41.3001394271851,0</coordinates></Point></Placemark>
<Placemark><name>HOS06</name><description>250706 PORT HOS (Metro. Sud)
posicio de les: 04/08/2018 23:15:15</description><styleUrl>#w_verdP</styleUrl><Point><coordinates>2.10564136505127,41.3698983192444,0</coordinates></Point></Placemark>
<Placemark><name>HOS14</name><description>250714 PORT HOS (Metro. Sud)
posicio de les: 04/08/2018 23:13:30</description><styleUrl>#w_verdP</styleUrl><Point><coordinates>2.10603833198547,41.3699841499329,0</coordinates></Point></Placemark>
<Placemark><name>HOS56</name><description>250756 PORT.COM HOS (Metro. Sud)
posicio de les: 04/08/2018 23:12:33</description><styleUrl>#w_grocP</styleUrl><Point><coordinates>2.10578083992004,41.3699305057526,0</coordinates></Point></Placemark>
<Placemark><name>HOS57</name><description>250757 PORT.COM HOS (Metro. Sud)
posicio de les: 04/08/2018 23:15:31</description><styleUrl>#w_grocP</styleUrl><Point><coordinates>2.10661768913269,41.3703489303589,0</coordinates></Point></Placemark>
<Placemark><name>50790</name><description>250790 UPC HOS (Metro. Sud)
posicio de les: 04/08/2018 23:14:42</description><styleUrl>#w_groc</styleUrl><Point><coordinates>2.10593104362488,41.3698983192444,0</coordinates></Point></Placemark>
<Placemark><name>MAR57</name><description>251057 PORT.COM MAR (Metro. Sud)
posicio de les: 04/08/2018 23:15:52</description><styleUrl>#w_grocP</styleUrl><Point><coordinates>1.90785527229309,41.4986765384674,0</coordinates></Point></Placemark>
<Placemark><name>PLL06</name><description>251206 PORT PLL (Metro. Sud)
posicio de les: 04/08/2018 23:13:59</description><styleUrl>#w_verdP</styleUrl><Point><coordinates>2.08124399185181,41.317423582077,0</coordinates></Point></Placemark>
<Placemark><name>SBOI57</name><description>251357 PORT.COM SBOI (Metro. Sud)
posicio de les: 04/08/2018 23:13:51</description><styleUrl>#w_verdP</styleUrl><Point><coordinates>2.03413367271423,41.3226056098938,0</coordinates></Point></Placemark>
<Placemark><name>SFE02</name><description>251502 PORT SFE (Metro. Sud)
posicio de les: 04/08/2018 23:14:32</description><styleUrl>#w_verdP</styleUrl><Point><coordinates>2.04302787780762,41.3891458511353,0</coordinates></Point></Placemark>
<Placemark><name>SFE03</name><description>251503 PORT SFE (Metro. Sud)
posicio de les: 04/08/2018 23:13:48</description><styleUrl>#w_verdP</styleUrl><Point><coordinates>2.04274892807007,41.3887917995453,0</coordinates></Point></Placemark>
<Placemark><name>SFE57</name><description>251557 PORT.COM SFE (Metro. Sud)
posicio de les: 04/08/2018 23:13:42</description><styleUrl>#w_verdP</styleUrl><Point><coordinates>2.04298496246338,41.3884592056274,0</coordinates></Point></Placemark>
<Placemark><name>RET12</name><description>260012 P.Tec REGIÓ
posicio de les: 04/08/2018 23:14:32</description><styleUrl>#w_verdP</styleUrl><Point><coordinates>1.19245648384094,41.2026035785675,0</coordinates></Point></Placemark>
<Placemark><name>GE0RET</name><description>260013 P.Tec REGIÓ
posicio de les: 04/08/2018 23:14:17</description><styleUrl>#w_verdP</styleUrl><Point><coordinates>1.18479609489441,41.1345827579498,0</coordinates></Point></Placemark>
<Placemark><name>GE600</name><description>260017 P.Tec REGIÓ
posicio de les: 04/08/2018 23:15:15</description><styleUrl>#w_verdP</styleUrl><Point><coordinates>1.18565440177917,41.1345934867859,0</coordinates></Point></Placemark>
<Placemark><name>60092</name><description>260092  REGIÓ
posicio de les: 04/08/2018 23:12:27</description><styleUrl>#w_verd</styleUrl><Point><coordinates>1.19213461875916,41.2021315097809,0</coordinates></Point></Placemark>
<Placemark><name>CAMB06</name><description>260206 PORT CAMB (Tarragona)
posicio de les: 04/08/2018 23:14:06</description><styleUrl>#w_verdP</styleUrl><Point><coordinates>1.04043960571289,41.0767436027527,0</coordinates></Point></Placemark>
<Placemark><name>FALS06</name><description>260406 PORT FALS (Tarragona)
posicio de les: 04/08/2018 23:14:06</description><styleUrl>#w_grocP</styleUrl><Point><coordinates>0.823534727096558,41.1473500728607,0</coordinates></Point></Placemark>
<Placemark><name>260508</name><description>260508 PORT HOSP (Tarragona)
posicio de les: 04/08/2018 23:14:53</description><styleUrl>#w_grocP</styleUrl><Point><coordinates>0.919933319091797,40.9937024116516,0</coordinates></Point></Placemark>
<Placemark><name>REUS03</name><description>260803 PORT REUS (Tarragona)
posicio de les: 04/08/2018 23:15:50</description><styleUrl>#w_verdP</styleUrl><Point><coordinates>1.11870646476746,41.150815486908,0</coordinates></Point></Placemark>
<Placemark><name>REUS12</name><description>260812 PORT REUS (Tarragona)
posicio de les: 04/08/2018 23:14:45</description><styleUrl>#w_verdP</styleUrl><Point><coordinates>1.11706495285034,41.1518776416779,0</coordinates></Point></Placemark>
<Placemark><name>REUS56</name><description>260856 PORT.COM REUS (Tarragona)
posicio de les: 04/08/2018 23:14:53</description><styleUrl>#w_verdP</styleUrl><Point><coordinates>1.11809492111206,41.1507511138916,0</coordinates></Point></Placemark>
<Placemark><name>61248</name><description>261248 BUL TARR (Tarragona)
posicio de les: 04/08/2018 23:13:52</description><styleUrl>#w_verdC</styleUrl><Point><coordinates>1.22168183326721,41.1137902736664,0</coordinates></Point></Placemark>
<Placemark><name>E00RETE</name><description>270014 P.Tec REGIÓ
posicio de les: 04/08/2018 23:14:47</description><styleUrl>#w_grocP</styleUrl><Point><coordinates>0.513288974761963,40.8193051815033,0</coordinates></Point></Placemark>
<Placemark><name>AMET06</name><description>272006 PORT AMET (Terres de l'Ebre)
posicio de les: 04/08/2018 23:15:45</description><styleUrl>#w_grocP</styleUrl><Point><coordinates>0.792603492736816,40.8892571926117,0</coordinates></Point></Placemark>
<Placemark><name>ASCO56</name><description>272256 PORT.COM ASCO (Terres de l'Ebre)
posicio de les: 04/08/2018 23:15:04</description><styleUrl>#w_grocP</styleUrl><Point><coordinates>0.568864345550537,41.1878085136414,0</coordinates></Point></Placemark>
<Placemark><name>GAND56</name><description>272656 PORT.COM GAND (Terres de l'Ebre)
posicio de les: 04/08/2018 23:14:24</description><styleUrl>#w_grocP</styleUrl><Point><coordinates>0.439131259918213,41.058429479599,0</coordinates></Point></Placemark>
<Placemark><name>MORA57</name><description>272857 PORT.COM MORA (Terres de l'Ebre)
posicio de les: 04/08/2018 23:13:14</description><styleUrl>#w_grocP</styleUrl><Point><coordinates>0.629857778549194,41.0863351821899,0</coordinates></Point></Placemark>
<Placemark><name>ULLD08</name><description>273108 PORT ULLD (Terres de l'Ebre)
posicio de les: 04/08/2018 23:14:24</description><styleUrl>#w_verdP</styleUrl><Point><coordinates>0.358139276504517,40.6088161468506,0</coordinates></Point></Placemark>
</Folder>
<Folder>
<name>Descarregues</name>
</Folder>
<Style id="w_verdP_n"><IconStyle><color>ff00ff00</color><scale>1.0</scale><Icon><href>http://maps.google.com/mapfiles/kml/shapes/man.png</href></Icon><hotSpot x="0.5" y="0" xunits="fraction" yunits="fraction"/></IconStyle><LabelStyle><scale>0.7</scale></LabelStyle></Style>
<Style id="w_verdP_s"><IconStyle><color>ff00ff00</color><scale>1.4</scale><Icon><href>http://maps.google.com/mapfiles/kml/shapes/man.png</href></Icon><hotSpot x="0.5" y="0" xunits="fraction" yunits="fraction"/></IconStyle><LabelStyle><scale>0.7</scale></LabelStyle></Style>
<StyleMap id="w_verdP"><Pair><key>normal</key><styleUrl>#w_verdP_n</styleUrl></Pair><Pair><key>highlight</key><styleUrl>#w_verdP_s</styleUrl></Pair></StyleMap>
<Style id="w_verd_n"><IconStyle><color>ff00ff00</color><scale>0.7</scale><Icon><href>http://maps.google.com/mapfiles/kml/shapes/cabs.png</href></Icon><hotSpot x="0.5" y="0" xunits="fraction" yunits="fraction"/></IconStyle><LabelStyle><scale>0.7</scale></LabelStyle></Style>
<Style id="w_verd_s"><IconStyle><color>ff00ff00</color><scale>1.0</scale><Icon><href>http://maps.google.com/mapfiles/kml/shapes/cabs.png</href></Icon><hotSpot x="0.5" y="0" xunits="fraction" yunits="fraction"/></IconStyle><LabelStyle><scale>0.7</scale></LabelStyle></Style>
<StyleMap id="w_verd"><Pair><key>normal</key><styleUrl>#w_verd_n</styleUrl></Pair><Pair><key>highlight</key><styleUrl>#w_verd_s</styleUrl></Pair></StyleMap>
<Style id="w_verdC_n"><IconStyle><color>ff00ff00</color><scale>1.0</scale><Icon><href>http://maps.google.com/mapfiles/kml/shapes/truck.png</href></Icon><hotSpot x="0.5" y="0" xunits="fraction" yunits="fraction"/></IconStyle><LabelStyle><scale>0.7</scale></LabelStyle></Style>
<Style id="w_verdC_s"><IconStyle><color>ff00ff00</color><scale>1.4</scale><Icon><href>http://maps.google.com/mapfiles/kml/shapes/truck.png</href></Icon><hotSpot x="0.5" y="0" xunits="fraction" yunits="fraction"/></IconStyle><LabelStyle><scale>0.7</scale></LabelStyle></Style>
<StyleMap id="w_verdC"><Pair><key>normal</key><styleUrl>#w_verdC_n</styleUrl></Pair><Pair><key>highlight</key><styleUrl>#w_verdC_s</styleUrl></Pair></StyleMap>
<Style id="w_verdH_n"><IconStyle><color>ff0000ff</color><scale>1.2</scale><Icon><href>http://maps.google.com/mapfiles/kml/shapes/heliport.png</href></Icon><hotSpot x="0.5" y="0" xunits="fraction" yunits="fraction"/></IconStyle><LabelStyle><scale>0.7</scale></LabelStyle></Style>
<Style id="w_verdH_s"><IconStyle><color>ff0000ff</color><scale>1.4</scale><Icon><href>http://maps.google.com/mapfiles/kml/shapes/heliport.png</href></Icon><hotSpot x="0.5" y="0" xunits="fraction" yunits="fraction"/></IconStyle><LabelStyle><scale>0.7</scale></LabelStyle></Style>
<StyleMap id="w_verdH"><Pair><key>normal</key><styleUrl>#w_verdH_n</styleUrl></Pair><Pair><key>highlight</key><styleUrl>#w_verdH_s</styleUrl></Pair></StyleMap>
<Style id="w_verdA_n"><IconStyle><color>ff0000ff</color><scale>1.2</scale><Icon><href>http://maps.google.com/mapfiles/kml/shapes/airports.png</href></Icon><hotSpot x="0.5" y="0" xunits="fraction" yunits="fraction"/></IconStyle><LabelStyle><scale>0.7</scale></LabelStyle></Style>
<Style id="w_verdA_s"><IconStyle><color>ff0000ff</color><scale>1.4</scale><Icon><href>http://maps.google.com/mapfiles/kml/shapes/airports.png</href></Icon><hotSpot x="0.5" y="0" xunits="fraction" yunits="fraction"/></IconStyle><LabelStyle><scale>0.7</scale></LabelStyle></Style>
<StyleMap id="w_verdA"><Pair><key>normal</key><styleUrl>#w_verdA_n</styleUrl></Pair><Pair><key>highlight</key><styleUrl>#w_verdA_s</styleUrl></Pair></StyleMap>
<Style id="w_verdB_n"><IconStyle><color>ff00ff00</color><scale>1.0</scale><Icon><href>http://maps.google.com/mapfiles/kml/shapes/sailing.png</href></Icon><hotSpot x="0.5" y="0" xunits="fraction" yunits="fraction"/></IconStyle><LabelStyle><scale>0.7</scale></LabelStyle></Style>
<Style id="w_verdB_s"><IconStyle><color>ff00ff00</color><scale>1.4</scale><Icon><href>http://maps.google.com/mapfiles/kml/shapes/sailing.png</href></Icon><hotSpot x="0.5" y="0" xunits="fraction" yunits="fraction"/></IconStyle><LabelStyle><scale>0.7</scale></LabelStyle></Style>
<StyleMap id="w_verdB"><Pair><key>normal</key><styleUrl>#w_verdBAR_n</styleUrl></Pair><Pair><key>highlight</key><styleUrl>#w_verdBAR_s</styleUrl></Pair></StyleMap>
<Style id="w_grocP_n"><IconStyle><color>ff00ffff</color><scale>1.0</scale><Icon><href>http://maps.google.com/mapfiles/kml/shapes/man.png</href></Icon><hotSpot x="0.5" y="0" xunits="fraction" yunits="fraction"/></IconStyle><LabelStyle><scale>0.7</scale></LabelStyle></Style>
<Style id="w_grocP_s"><IconStyle><color>ff00ffff</color><scale>1.4</scale><Icon><href>http://maps.google.com/mapfiles/kml/shapes/man.png</href></Icon><hotSpot x="0.5" y="0" xunits="fraction" yunits="fraction"/></IconStyle><LabelStyle><scale>0.7</scale></LabelStyle></Style>
<StyleMap id="w_grocP"><Pair><key>normal</key><styleUrl>#w_grocP_n</styleUrl></Pair><Pair><key>highlight</key><styleUrl>#w_grocP_s</styleUrl></Pair></StyleMap>
<Style id="w_groc_n"><IconStyle><color>ff00ffff</color><scale>0.7</scale><Icon><href>http://maps.google.com/mapfiles/kml/shapes/cabs.png</href></Icon><hotSpot x="0.5" y="0" xunits="fraction" yunits="fraction"/></IconStyle><LabelStyle><scale>0.7</scale></LabelStyle></Style>
<Style id="w_groc_s"><IconStyle><color>ff00ffff</color><scale>1.0</scale><Icon><href>http://maps.google.com/mapfiles/kml/shapes/cabs.png</href></Icon><hotSpot x="0.5" y="0" xunits="fraction" yunits="fraction"/></IconStyle><LabelStyle><scale>0.7</scale></LabelStyle></Style>
<StyleMap id="w_groc"><Pair><key>normal</key><styleUrl>#w_groc_n</styleUrl></Pair><Pair><key>highlight</key><styleUrl>#w_groc_s</styleUrl></Pair></StyleMap>
<Style id="w_grocC_n"><IconStyle><color>ff00ffff</color><scale>1.0</scale><Icon><href>http://maps.google.com/mapfiles/kml/shapes/truck.png</href></Icon><hotSpot x="0.5" y="0" xunits="fraction" yunits="fraction"/></IconStyle><LabelStyle><scale>0.7</scale></LabelStyle></Style>
<Style id="w_grocC_s"><IconStyle><color>ff00ffff</color><scale>1.4</scale><Icon><href>http://maps.google.com/mapfiles/kml/shapes/truck.png</href></Icon><hotSpot x="0.5" y="0" xunits="fraction" yunits="fraction"/></IconStyle><LabelStyle><scale>0.7</scale></LabelStyle></Style>
<StyleMap id="w_grocC"><Pair><key>normal</key><styleUrl>#w_grocC_n</styleUrl></Pair><Pair><key>highlight</key><styleUrl>#w_grocC_s</styleUrl></Pair></StyleMap>
<Style id="w_grocH_n"><IconStyle><color>ff0000ff</color><scale>1.2</scale><Icon><href>http://maps.google.com/mapfiles/kml/shapes/heliport.png</href></Icon><hotSpot x="0.5" y="0" xunits="fraction" yunits="fraction"/></IconStyle><LabelStyle><scale>0.7</scale></LabelStyle></Style>
<Style id="w_grocH_s"><IconStyle><color>ff0000ff</color><scale>1.4</scale><Icon><href>http://maps.google.com/mapfiles/kml/shapes/heliport.png</href></Icon><hotSpot x="0.5" y="0" xunits="fraction" yunits="fraction"/></IconStyle><LabelStyle><scale>0.7</scale></LabelStyle></Style>
<StyleMap id="w_grocH"><Pair><key>normal</key><styleUrl>#w_grocH_n</styleUrl></Pair><Pair><key>highlight</key><styleUrl>#w_grocH_s</styleUrl></Pair></StyleMap>
<Style id="w_grocA_n"><IconStyle><color>ff0000ff</color><scale>1.2</scale><Icon><href>http://maps.google.com/mapfiles/kml/shapes/airports.png</href></Icon><hotSpot x="0.5" y="0" xunits="fraction" yunits="fraction"/></IconStyle><LabelStyle><scale>0.7</scale></LabelStyle></Style>
<Style id="w_grocA_s"><IconStyle><color>ff0000ff</color><scale>1.4</scale><Icon><href>http://maps.google.com/mapfiles/kml/shapes/airports.png</href></Icon><hotSpot x="0.5" y="0" xunits="fraction" yunits="fraction"/></IconStyle><LabelStyle><scale>0.7</scale></LabelStyle></Style>
<StyleMap id="w_grocA"><Pair><key>normal</key><styleUrl>#w_grocA_n</styleUrl></Pair><Pair><key>highlight</key><styleUrl>#w_grocA_s</styleUrl></Pair></StyleMap>
<Style id="w_grocB_n"><IconStyle><color>ff00ffff</color><scale>1.0</scale><Icon><href>http://maps.google.com/mapfiles/kml/shapes/sailing.png</href></Icon><hotSpot x="0.5" y="0" xunits="fraction" yunits="fraction"/></IconStyle><LabelStyle><scale>0.7</scale></LabelStyle></Style>
<Style id="w_grocB_s"><IconStyle><color>ff00ffff</color><scale>1.4</scale><Icon><href>http://maps.google.com/mapfiles/kml/shapes/sailing.png</href></Icon><hotSpot x="0.5" y="0" xunits="fraction" yunits="fraction"/></IconStyle><LabelStyle><scale>0.7</scale></LabelStyle></Style>
<StyleMap id="w_grocB"><Pair><key>normal</key><styleUrl>#w_grocBAR_n</styleUrl></Pair><Pair><key>highlight</key><styleUrl>#w_grocBAR_s</styleUrl></Pair></StyleMap>
<Style id="w_vermellP_n"><IconStyle><color>ff0000ff</color><scale>1.0</scale><Icon><href>http://maps.google.com/mapfiles/kml/shapes/man.png</href></Icon><hotSpot x="0.5" y="0" xunits="fraction" yunits="fraction"/></IconStyle><LabelStyle><scale>0.7</scale></LabelStyle></Style>
<Style id="w_vermellP_s"><IconStyle><color>ff0000ff</color><scale>1.4</scale><Icon><href>http://maps.google.com/mapfiles/kml/shapes/man.png</href></Icon><hotSpot x="0.5" y="0" xunits="fraction" yunits="fraction"/></IconStyle><LabelStyle><scale>0.7</scale></LabelStyle></Style>
<StyleMap id="w_vermellP"><Pair><key>normal</key><styleUrl>#w_vermellP_n</styleUrl></Pair><Pair><key>highlight</key><styleUrl>#w_vermellP_s</styleUrl></Pair></StyleMap>
<Style id="w_vermell_n"><IconStyle><color>ff0000ff</color><scale>0.7</scale><Icon><href>http://maps.google.com/mapfiles/kml/shapes/cabs.png</href></Icon><hotSpot x="0.5" y="0" xunits="fraction" yunits="fraction"/></IconStyle><LabelStyle><scale>0.7</scale></LabelStyle></Style>
<Style id="w_vermell_s"><IconStyle><color>ff0000ff</color><scale>1.0</scale><Icon><href>http://maps.google.com/mapfiles/kml/shapes/cabs.png</href></Icon><hotSpot x="0.5" y="0" xunits="fraction" yunits="fraction"/></IconStyle><LabelStyle><scale>0.7</scale></LabelStyle></Style>
<StyleMap id="w_vermell"><Pair><key>normal</key><styleUrl>#w_vermell_n</styleUrl></Pair><Pair><key>highlight</key><styleUrl>#w_vermell_s</styleUrl></Pair></StyleMap>
<Style id="w_vermellC_n"><IconStyle><color>ff0000ff</color><scale>1.0</scale><Icon><href>http://maps.google.com/mapfiles/kml/shapes/truck.png</href></Icon><hotSpot x="0.5" y="0" xunits="fraction" yunits="fraction"/></IconStyle><LabelStyle><scale>0.7</scale></LabelStyle></Style>
<Style id="w_vermellC_s"><IconStyle><color>ff0000ff</color><scale>1.4</scale><Icon><href>http://maps.google.com/mapfiles/kml/shapes/truck.png</href></Icon><hotSpot x="0.5" y="0" xunits="fraction" yunits="fraction"/></IconStyle><LabelStyle><scale>0.7</scale></LabelStyle></Style>
<StyleMap id="w_vermellC"><Pair><key>normal</key><styleUrl>#w_vermellC_n</styleUrl></Pair><Pair><key>highlight</key><styleUrl>#w_vermellC_s</styleUrl></Pair></StyleMap>
<Style id="w_vermellH_n"><IconStyle><color>ff0000ff</color><scale>1.2</scale><Icon><href>http://maps.google.com/mapfiles/kml/shapes/heliport.png</href></Icon><hotSpot x="0.5" y="0" xunits="fraction" yunits="fraction"/></IconStyle><LabelStyle><scale>0.7</scale></LabelStyle></Style>
<Style id="w_vermellH_s"><IconStyle><color>ff0000ff</color><scale>1.4</scale><Icon><href>http://maps.google.com/mapfiles/kml/shapes/heliport.png</href></Icon><hotSpot x="0.5" y="0" xunits="fraction" yunits="fraction"/></IconStyle><LabelStyle><scale>0.7</scale></LabelStyle></Style>
<StyleMap id="w_vermellH"><Pair><key>normal</key><styleUrl>#w_vermellH_n</styleUrl></Pair><Pair><key>highlight</key><styleUrl>#w_vermellH_s</styleUrl></Pair></StyleMap>
<Style id="w_vermellA_n"><IconStyle><color>ff0000ff</color><scale>1.2</scale><Icon><href>http://maps.google.com/mapfiles/kml/shapes/airports.png</href></Icon><hotSpot x="0.5" y="0" xunits="fraction" yunits="fraction"/></IconStyle><LabelStyle><scale>0.7</scale></LabelStyle></Style>
<Style id="w_vermellA_s"><IconStyle><color>ff0000ff</color><scale>1.4</scale><Icon><href>http://maps.google.com/mapfiles/kml/shapes/airports.png</href></Icon><hotSpot x="0.5" y="0" xunits="fraction" yunits="fraction"/></IconStyle><LabelStyle><scale>0.7</scale></LabelStyle></Style>
<StyleMap id="w_vermellA"><Pair><key>normal</key><styleUrl>#w_vermellA_n</styleUrl></Pair><Pair><key>highlight</key><styleUrl>#w_vermellA_s</styleUrl></Pair></StyleMap>
<Style id="w_vermellB_n"><IconStyle><color>ff0000ff</color><scale>1.0</scale><Icon><href>http://maps.google.com/mapfiles/kml/shapes/sailing.png</href></Icon><hotSpot x="0.5" y="0" xunits="fraction" yunits="fraction"/></IconStyle><LabelStyle><scale>0.7</scale></LabelStyle></Style>
<Style id="w_vermellB_s"><IconStyle><color>ff0000ff</color><scale>1.4</scale><Icon><href>http://maps.google.com/mapfiles/kml/shapes/sailing.png</href></Icon><hotSpot x="0.5" y="0" xunits="fraction" yunits="fraction"/></IconStyle><LabelStyle><scale>0.7</scale></LabelStyle></Style>
<StyleMap id="w_vermellB"><Pair><key>normal</key><styleUrl>#w_vermellBAR_n</styleUrl></Pair><Pair><key>highlight</key><styleUrl>#w_vermellBAR_s</styleUrl></Pair></StyleMap>
<Style id="w_descarrega"><IconStyle><color>ff00ffff</color><scale>0.5</scale><Icon><href>http://maps.google.com/mapfiles/kml/shapes/road_shield3.png</href></Icon></IconStyle><LabelStyle><scale>0.7</scale></LabelStyle></Style><Style id="actuacio"><IconStyle><color>ff00ffff</color><scale>0.8</scale><Icon><href>http://maps.google.com/mapfiles/kml/shapes/caution.png</href></Icon></IconStyle><LabelStyle><scale>0.7</scale></LabelStyle></Style></Document></kml>