<?xml version="1.0" encoding="UTF-8"?>
<kml xmlns="http://www.opengis.net/kml/2.2" xmlns:gx="http://www.google.com/kml/ext/2.2" xmlns:kml="http://www.opengis.net/kml/2.2" xmlns:atom="http://www.w3.org/2005/Atom">
<Document>
<name>Terminals</name>
<Snippet maxLines="2">Created 04/08/2018 23:30:48</Snippet>
<Folder>
<name>Terminals</name>
<Placemark><name>A0102</name><description>200102 PORT Dept.
posicio de les: 04/08/2018 23:28:52</description><styleUrl>#w_grocP</styleUrl><Point><coordinates>0.79775333404541,42.7075695991516,0</coordinates></Point></Placemark>
<Placemark><name>03373</name><description>203373 GRAE
posicio de les: 04/08/2018 23:26:23</description><styleUrl>#w_groc</styleUrl><Point><coordinates>1.39742016792297,42.5704121589661,0</coordinates></Point></Placemark>
<Placemark><name>GGRAF12</name><description>204212 P.REC
posicio de les: 04/08/2018 23:29:00</description><styleUrl>#w_verdP</styleUrl><Point><coordinates>2.97549247741699,42.0292389392853,0</coordinates></Point></Placemark>
<Placemark><name>OP05087</name><description>205287 OP.AAV
posicio de les: 04/08/2018 23:29:57</description><styleUrl>#w_verdP</styleUrl><Point><coordinates>1.15856409072876,41.1477041244507,0</coordinates></Point></Placemark>
<Placemark><name>VIEL12</name><description>208012 P.PT VARAN
posicio de les: 04/08/2018 23:29:56</description><styleUrl>#w_verdP</styleUrl><Point><coordinates>0.795789957046509,42.7064001560211,0</coordinates></Point></Placemark>
<Placemark><name>VIEL17</name><description>208017 BASE CCA VARAN
posicio de les: 04/08/2018 23:29:50</description><styleUrl>#w_verd</styleUrl><Point><coordinates>0.796723365783691,42.7078914642334,0</coordinates></Point></Placemark>
<Placemark><name>BOSS01</name><description>208101 P.COMODIN VARAN
posicio de les: 04/08/2018 23:29:32</description><styleUrl>#w_verdP</styleUrl><Point><coordinates>0.69263219833374,42.7859115600586,0</coordinates></Point></Placemark>
<Placemark><name>E0REC</name><description>210012 P.Tec REGIÓ
posicio de les: 04/08/2018 23:28:58</description><styleUrl>#w_grocP</styleUrl><Point><coordinates>1.85127139091492,41.7417061328888,0</coordinates></Point></Placemark>
<Placemark><name>BER57</name><description>210357 PORT.COM BER (Centre)
posicio de les: 04/08/2018 23:26:15</description><styleUrl>#w_verdP</styleUrl><Point><coordinates>1.85778379440308,42.103933095932,0</coordinates></Point></Placemark>
<Placemark><name>CAF56</name><description>210456 PORT.COM CAF (Centre)
posicio de les: 04/08/2018 23:30:39</description><styleUrl>#w_verdP</styleUrl><Point><coordinates>1.52740001678467,41.7308485507965,0</coordinates></Point></Placemark>
<Placemark><name>GUA56</name><description>210856 PORT.COM GUA (Centre)
posicio de les: 04/08/2018 23:27:50</description><styleUrl>#w_verdP</styleUrl><Point><coordinates>1.86931729316711,42.2191607952118,0</coordinates></Point></Placemark>
<Placemark><name>PRA07</name><description>211407 PORT PRA (Centre)
posicio de les: 04/08/2018 23:30:17</description><styleUrl>#w_verdP</styleUrl><Point><coordinates>2.03613996505737,42.0079636573792,0</coordinates></Point></Placemark>
<Placemark><name>PUIG01</name><description>211501 PORT PUIG (Centre)
posicio de les: 04/08/2018 23:28:52</description><styleUrl>#w_verdP</styleUrl><Point><coordinates>1.92152380943298,42.4205732345581,0</coordinates></Point></Placemark>
<Placemark><name>20092</name><description>220092  REGIÓ
posicio de les: 04/08/2018 23:30:48</description><styleUrl>#w_verd</styleUrl><Point><coordinates>2.95854091644287,42.2879648208618,0</coordinates></Point></Placemark>
<Placemark><name>20134</name><description>220134 BFP AMER (Girona)
posicio de les: 04/08/2018 23:30:06</description><styleUrl>#w_grocC</styleUrl><Point><coordinates>3.15377354621887,42.3573696613312,0</coordinates></Point></Placemark>
<Placemark><name>BANY07</name><description>220307 PORT BANY (Girona)
posicio de les: 04/08/2018 23:28:39</description><styleUrl>#w_grocP</styleUrl><Point><coordinates>2.78589248657227,42.1176767349243,0</coordinates></Point></Placemark>
<Placemark><name>20330</name><description>220330 BRP BANY (Girona)
posicio de les: 04/08/2018 23:26:18</description><styleUrl>#w_grocC</styleUrl><Point><coordinates>2.78493762016296,42.1176767349243,0</coordinates></Point></Placemark>
<Placemark><name>20434</name><description>220434 BFP PERA (Girona)
posicio de les: 04/08/2018 23:27:18</description><styleUrl>#w_grocC</styleUrl><Point><coordinates>2.8719699382782,42.405252456665,0</coordinates></Point></Placemark>
<Placemark><name>CASS56</name><description>220856 PORT.COM CASS (Girona)
posicio de les: 04/08/2018 23:30:46</description><styleUrl>#w_grocP</styleUrl><Point><coordinates>2.88407206535339,41.8796682357788,0</coordinates></Point></Placemark>
<Placemark><name>FIGU 01</name><description>221001 PORT FIGU (Girona)
posicio de les: 04/08/2018 23:29:33</description><styleUrl>#w_verdP</styleUrl><Point><coordinates>2.87257075309753,42.4066472053528,0</coordinates></Point></Placemark>
<Placemark><name>21034</name><description>221034 BFP FIGU (Girona)
posicio de les: 04/08/2018 23:30:16</description><styleUrl>#w_verdC</styleUrl><Point><coordinates>2.90446758270264,42.132568359375,0</coordinates></Point></Placemark>
<Placemark><name>FIGU56</name><description>221056 PORT.COM FIGU (Girona)
posicio de les: 04/08/2018 23:30:08</description><styleUrl>#w_verdP</styleUrl><Point><coordinates>2.97020316123962,42.2723436355591,0</coordinates></Point></Placemark>
<Placemark><name>GIRO56</name><description>221156 PORT.COM GIRO (Girona)
posicio de les: 04/08/2018 23:29:57</description><styleUrl>#w_verdP</styleUrl><Point><coordinates>2.80645966529846,41.9606709480286,0</coordinates></Point></Placemark>
<Placemark><name>21230</name><description>221230 BRP HOST (Girona)
posicio de les: 04/08/2018 23:27:50</description><styleUrl>#w_grocC</styleUrl><Point><coordinates>2.62450933456421,41.7482936382294,0</coordinates></Point></Placemark>
<Placemark><name>HOST57</name><description>221257 PORT.COM HOST (Girona)
posicio de les: 04/08/2018 23:30:39</description><styleUrl>#w_grocP</styleUrl><Point><coordinates>2.62468099594116,41.7481756210327,0</coordinates></Point></Placemark>
<Placemark><name>JONQ03</name><description>221303 PORT JONQ (Girona)
posicio de les: 04/08/2018 23:30:20</description><styleUrl>#w_grocP</styleUrl><Point><coordinates>2.8764009475708,42.4120652675629,0</coordinates></Point></Placemark>
<Placemark><name>21330</name><description>221330 BRP JONQ (Girona)
posicio de les: 04/08/2018 23:27:46</description><styleUrl>#w_grocC</styleUrl><Point><coordinates>2.88206577301025,42.3982679843903,0</coordinates></Point></Placemark>
<Placemark><name>JONQ56</name><description>221356 PORT.COM JONQ (Girona)
posicio de les: 04/08/2018 23:29:40</description><styleUrl>#w_verdP</styleUrl><Point><coordinates>2.88225889205933,42.3982787132263,0</coordinates></Point></Placemark>
<Placemark><name>21434</name><description>221434 BFP LLAN (Girona)
posicio de les: 04/08/2018 23:27:24</description><styleUrl>#w_grocC</styleUrl><Point><coordinates>2.87189483642578,42.4051773548126,0</coordinates></Point></Placemark>
<Placemark><name>LLAN57</name><description>221457 PORT.COM LLAN (Girona)
posicio de les: 04/08/2018 23:29:51</description><styleUrl>#w_verdP</styleUrl><Point><coordinates>3.15258264541626,42.3583567142487,0</coordinates></Point></Placemark>
<Placemark><name>VILJ59</name><description>221459 BSAL LLAN (Girona)
posicio de les: 04/08/2018 23:29:40</description><styleUrl>#w_grocB</styleUrl><Point><coordinates>2.87189483642578,42.4052631855011,0</coordinates></Point></Placemark>
<Placemark><name>LLOR05</name><description>221505 PORT LLOR (Girona)
posicio de les: 04/08/2018 23:29:46</description><styleUrl>#w_verdP</styleUrl><Point><coordinates>2.83628582954407,41.6994774341583,0</coordinates></Point></Placemark>
<Placemark><name>21630</name><description>221630 BRP MACA (Girona)
posicio de les: 04/08/2018 23:28:45</description><styleUrl>#w_grocC</styleUrl><Point><coordinates>2.75318026542664,41.7796003818512,0</coordinates></Point></Placemark>
<Placemark><name>OLOT56</name><description>221756 PORT.COM OLOT (Girona)
posicio de les: 04/08/2018 23:27:58</description><styleUrl>#w_verdP</styleUrl><Point><coordinates>2.47461676597595,42.1900856494904,0</coordinates></Point></Placemark>
<Placemark><name>PALA56</name><description>221856 PORT.COM PALA (Girona)
posicio de les: 04/08/2018 23:29:43</description><styleUrl>#w_grocP</styleUrl><Point><coordinates>3.15626263618469,41.9262742996216,0</coordinates></Point></Placemark>
<Placemark><name>PALA57</name><description>221857 PORT.COM PALA (Girona)
posicio de les: 04/08/2018 23:30:23</description><styleUrl>#w_grocP</styleUrl><Point><coordinates>3.15598368644714,41.9257915019989,0</coordinates></Point></Placemark>
<Placemark><name>RIPO03</name><description>222103 PORT RIPO (Girona)
posicio de les: 04/08/2018 23:29:25</description><styleUrl>#w_grocP</styleUrl><Point><coordinates>2.16807246208191,42.2149336338043,0</coordinates></Point></Placemark>
<Placemark><name>22130</name><description>222130 BRP RIPO (Girona)
posicio de les: 04/08/2018 23:27:32</description><styleUrl>#w_grocC</styleUrl><Point><coordinates>2.16770768165588,42.2150087356567,0</coordinates></Point></Placemark>
<Placemark><name>RIPO56</name><description>222156 PORT.COM RIPO (Girona)
posicio de les: 04/08/2018 23:26:19</description><styleUrl>#w_verdP</styleUrl><Point><coordinates>2.16810464859009,42.2151482105255,0</coordinates></Point></Placemark>
<Placemark><name>ROSE56</name><description>222256 PORT.COM ROSE (Girona)
posicio de les: 04/08/2018 23:30:04</description><styleUrl>#w_verdP</styleUrl><Point><coordinates>3.16068291664124,42.2762060165405,0</coordinates></Point></Placemark>
<Placemark><name>TORR56</name><description>222656 PORT.COM TORR (Girona)
posicio de les: 04/08/2018 23:28:23</description><styleUrl>#w_grocP</styleUrl><Point><coordinates>3.16729187965393,42.0480680465698,0</coordinates></Point></Placemark>
<Placemark><name>VALL57</name><description>222857 PORT.COM VALL (Girona)
posicio de les: 04/08/2018 23:29:11</description><styleUrl>#w_grocP</styleUrl><Point><coordinates>3.03167939186096,41.8087828159332,0</coordinates></Point></Placemark>
<Placemark><name>I308</name><description>227308 P.GUAITA GUAITA
posicio de les: 04/08/2018 23:26:02</description><styleUrl>#w_verdP</styleUrl><Point><coordinates>3.15674543380737,41.9258451461792,0</coordinates></Point></Placemark>
<Placemark><name>D9REG</name><description>228049  SERVEIS REGIÓ
posicio de les: 04/08/2018 23:27:41</description><styleUrl>#w_verd</styleUrl><Point><coordinates>2.80643820762634,41.9604027271271,0</coordinates></Point></Placemark>
<Placemark><name>D0REL</name><description>230010 P.CG REGIÓ
posicio de les: 04/08/2018 23:28:32</description><styleUrl>#w_verdP</styleUrl><Point><coordinates>0.604827404022217,41.623592376709,0</coordinates></Point></Placemark>
<Placemark><name>30091</name><description>230091  REGIÓ
posicio de les: 04/08/2018 23:26:12</description><styleUrl>#w_groc</styleUrl><Point><coordinates>0.605438947677612,41.6241180896759,0</coordinates></Point></Placemark>
<Placemark><name>30092</name><description>230092  REGIÓ
posicio de les: 04/08/2018 23:29:34</description><styleUrl>#w_verd</styleUrl><Point><coordinates>0.605342388153076,41.6233777999878,0</coordinates></Point></Placemark>
<Placemark><name>ALMA01</name><description>230301 PORT ALMA (Lleida)
posicio de les: 04/08/2018 23:28:56</description><styleUrl>#w_grocP</styleUrl><Point><coordinates>0.433884859085083,41.7320072650909,0</coordinates></Point></Placemark>
<Placemark><name>ALMA02</name><description>230302 PORT ALMA (Lleida)
posicio de les: 04/08/2018 23:30:26</description><styleUrl>#w_grocP</styleUrl><Point><coordinates>0.433852672576904,41.7317926883698,0</coordinates></Point></Placemark>
<Placemark><name>ALME01</name><description>230401 PORT ALME (Lleida)
posicio de les: 04/08/2018 23:27:08</description><styleUrl>#w_verdP</styleUrl><Point><coordinates>0.56904673576355,41.7923891544342,0</coordinates></Point></Placemark>
<Placemark><name>BORG05</name><description>230705 PORT BORG (Lleida)
posicio de les: 04/08/2018 23:28:54</description><styleUrl>#w_grocP</styleUrl><Point><coordinates>0.844573974609375,41.5073132514954,0</coordinates></Point></Placemark>
<Placemark><name>BORG06</name><description>230706 PORT BORG (Lleida)
posicio de les: 04/08/2018 23:30:04</description><styleUrl>#w_grocP</styleUrl><Point><coordinates>0.844928026199341,41.507248878479,0</coordinates></Point></Placemark>
<Placemark><name>BORG56</name><description>230756 PORT.COM BORG (Lleida)
posicio de les: 04/08/2018 23:28:37</description><styleUrl>#w_verdP</styleUrl><Point><coordinates>0.845046043395996,41.5067982673645,0</coordinates></Point></Placemark>
<Placemark><name>GUIS05</name><description>231405 PORT GUIS (Lleida)
posicio de les: 04/08/2018 23:29:29</description><styleUrl>#w_grocP</styleUrl><Point><coordinates>1.28264307975769,41.7821860313416,0</coordinates></Point></Placemark>
<Placemark><name>31430</name><description>231430 BRP GUIS (Lleida)
posicio de les: 04/08/2018 23:27:11</description><styleUrl>#w_grocC</styleUrl><Point><coordinates>1.28285765647888,41.7821538448334,0</coordinates></Point></Placemark>
<Placemark><name>MOLL07</name><description>232007 PORT MOLL (Lleida)
posicio de les: 04/08/2018 23:30:14</description><styleUrl>#w_verdP</styleUrl><Point><coordinates>0.89837908744812,41.6367888450623,0</coordinates></Point></Placemark>
<Placemark><name>MOLL56</name><description>232056 PORT.COM MOLL (Lleida)
posicio de les: 04/08/2018 23:28:20</description><styleUrl>#w_verdP</styleUrl><Point><coordinates>0.898400545120239,41.6366493701935,0</coordinates></Point></Placemark>
<Placemark><name>32090</name><description>232090 UPC MOLL (Lleida)
posicio de les: 04/08/2018 23:28:18</description><styleUrl>#w_groc</styleUrl><Point><coordinates>0.898261070251465,41.6364991664886,0</coordinates></Point></Placemark>
<Placemark><name>OLIA01</name><description>232201 PORT OLIA (Lleida)
posicio de les: 04/08/2018 23:26:06</description><styleUrl>#w_verdP</styleUrl><Point><coordinates>1.31400346755981,42.0643436908722,0</coordinates></Point></Placemark>
<Placemark><name>32230</name><description>232230 BRP OLIA (Lleida)
posicio de les: 04/08/2018 23:26:22</description><styleUrl>#w_grocC</styleUrl><Point><coordinates>1.31288766860962,42.0642471313477,0</coordinates></Point></Placemark>
<Placemark><name>32234</name><description>232234 BFP OLIA (Lleida)
posicio de les: 04/08/2018 23:29:17</description><styleUrl>#w_grocC</styleUrl><Point><coordinates>1.31183624267578,42.066296339035,0</coordinates></Point></Placemark>
<Placemark><name>POBL01</name><description>232401 PORT POBL (Lleida)
posicio de les: 04/08/2018 23:29:04</description><styleUrl>#w_grocP</styleUrl><Point><coordinates>0.964146852493286,42.2392129898071,0</coordinates></Point></Placemark>
<Placemark><name>PONT56</name><description>232556 PORT.COM PONT (Lleida)
posicio de les: 04/08/2018 23:30:31</description><styleUrl>#w_verdP</styleUrl><Point><coordinates>0.739678144454956,42.4105632305145,0</coordinates></Point></Placemark>
<Placemark><name>PONS01</name><description>232601 PORT PONS (Lleida)
posicio de les: 04/08/2018 23:29:34</description><styleUrl>#w_grocP</styleUrl><Point><coordinates>1.17495775222778,41.8756771087646,0</coordinates></Point></Placemark>
<Placemark><name>32630</name><description>232630 BRP PONS (Lleida)
posicio de les: 04/08/2018 23:28:23</description><styleUrl>#w_grocC</styleUrl><Point><coordinates>1.17547273635864,41.8750011920929,0</coordinates></Point></Placemark>
<Placemark><name>PONS56</name><description>232656 PORT.COM PONS (Lleida)
posicio de les: 04/08/2018 23:29:36</description><styleUrl>#w_grocP</styleUrl><Point><coordinates>1.17485046386719,41.8755698204041,0</coordinates></Point></Placemark>
<Placemark><name>SEU09</name><description>232909 PORT SEU (Lleida)
posicio de les: 04/08/2018 23:30:27</description><styleUrl>#w_verdP</styleUrl><Point><coordinates>1.47178173065186,42.3605346679688,0</coordinates></Point></Placemark>
<Placemark><name>TREM10</name><description>233310 PORT TREM (Lleida)
posicio de les: 04/08/2018 23:30:22</description><styleUrl>#w_grocP</styleUrl><Point><coordinates>0.889216661453247,42.1646475791931,0</coordinates></Point></Placemark>
<Placemark><name>40081</name><description>240081  REGIÓ
posicio de les: 04/08/2018 23:26:53</description><styleUrl>#w_groc</styleUrl><Point><coordinates>2.11263656616211,41.5023994445801,0</coordinates></Point></Placemark>
<Placemark><name>40091</name><description>240091  REGIÓ
posicio de les: 04/08/2018 23:27:27</description><styleUrl>#w_groc</styleUrl><Point><coordinates>2.11289405822754,41.5040624141693,0</coordinates></Point></Placemark>
<Placemark><name>40240</name><description>240240 BUP BAD (Metro. Nord)
posicio de les: 04/08/2018 23:26:40</description><styleUrl>#w_grocC</styleUrl><Point><coordinates>2.22021460533142,41.4383912086487,0</coordinates></Point></Placemark>
<Placemark><name>40290</name><description>240290 UPC BAD (Metro. Nord)
posicio de les: 04/08/2018 23:27:43</description><styleUrl>#w_groc</styleUrl><Point><coordinates>2.03425168991089,41.4737963676453,0</coordinates></Point></Placemark>
<Placemark><name>CER03</name><description>240503 PORT CER (Metro. Nord)
posicio de les: 04/08/2018 23:30:05</description><styleUrl>#w_verdP</styleUrl><Point><coordinates>2.1117889881134,41.5023243427277,0</coordinates></Point></Placemark>
<Placemark><name>GRA05</name><description>240605 PORT GRA (Metro. Nord)
posicio de les: 04/08/2018 23:30:35</description><styleUrl>#w_grocP</styleUrl><Point><coordinates>2.27503895759583,41.5906548500061,0</coordinates></Point></Placemark>
<Placemark><name>GRA07</name><description>240607 PORT GRA (Metro. Nord)
posicio de les: 04/08/2018 23:25:37</description><styleUrl>#w_verdP</styleUrl><Point><coordinates>2.27493166923523,41.5906119346619,0</coordinates></Point></Placemark>
<Placemark><name>MOL03</name><description>241003 PORT MOL (Metro. Nord)
posicio de les: 04/08/2018 23:27:08</description><styleUrl>#w_verdP</styleUrl><Point><coordinates>2.20142841339111,41.5372574329376,0</coordinates></Point></Placemark>
<Placemark><name>41034</name><description>241034 BFP MOL (Metro. Nord)
posicio de les: 04/08/2018 23:30:48</description><styleUrl>#w_verdC</styleUrl><Point><coordinates>2.20241546630859,41.5370321273804,0</coordinates></Point></Placemark>
<Placemark><name>241040</name><description>241040 BUP MOL (Metro. Nord)
posicio de les: 04/08/2018 23:27:45</description><styleUrl>#w_grocC</styleUrl><Point><coordinates>2.20198631286621,41.5373432636261,0</coordinates></Point></Placemark>
<Placemark><name>241048</name><description>241048 BUL MOL (Metro. Nord)
posicio de les: 04/08/2018 23:26:25</description><styleUrl>#w_grocC</styleUrl><Point><coordinates>2.20206141471863,41.5368497371674,0</coordinates></Point></Placemark>
<Placemark><name>MFI01</name><description>241101 PORT MFI (Metro. Nord)
posicio de les: 04/08/2018 23:30:52</description><styleUrl>#w_grocP</styleUrl><Point><coordinates>2.27186322212219,41.7164719104767,0</coordinates></Point></Placemark>
<Placemark><name>SAB01</name><description>241401 PORT SAB (Metro. Nord)
posicio de les: 04/08/2018 23:30:00</description><styleUrl>#w_verdP</styleUrl><Point><coordinates>2.10413932800293,41.5423536300659,0</coordinates></Point></Placemark>
<Placemark><name>SAB06</name><description>241406 PORT SAB (Metro. Nord)
posicio de les: 04/08/2018 23:28:28</description><styleUrl>#w_verdP</styleUrl><Point><coordinates>2.1038281917572,41.5424609184265,0</coordinates></Point></Placemark>
<Placemark><name>SAB56</name><description>241456 PORT.COM SAB (Metro. Nord)
posicio de les: 04/08/2018 23:28:40</description><styleUrl>#w_verdP</styleUrl><Point><coordinates>2.10310935974121,41.5421712398529,0</coordinates></Point></Placemark>
<Placemark><name>SCE08</name><description>241608 PORT SCE (Metro. Nord)
posicio de les: 04/08/2018 23:30:21</description><styleUrl>#w_grocP</styleUrl><Point><coordinates>2.50714659690857,41.6947031021118,0</coordinates></Point></Placemark>
<Placemark><name>SCG07</name><description>241807 PORT SCG (Metro. Nord)
posicio de les: 04/08/2018 23:29:24</description><styleUrl>#w_verdP</styleUrl><Point><coordinates>2.20953941345215,41.4630997180939,0</coordinates></Point></Placemark>
<Placemark><name>TER11</name><description>242011 PORT TER (Metro. Nord)
posicio de les: 04/08/2018 23:29:35</description><styleUrl>#w_verdP</styleUrl><Point><coordinates>2.02684879302979,41.5677380561829,0</coordinates></Point></Placemark>
<Placemark><name>TER56</name><description>242056 PORT.COM TER (Metro. Nord)
posicio de les: 04/08/2018 23:28:22</description><styleUrl>#w_verdP</styleUrl><Point><coordinates>2.02629089355469,41.5681993961334,0</coordinates></Point></Placemark>
<Placemark><name>50093</name><description>250093  REGIÓ
posicio de les: 04/08/2018 23:30:26</description><styleUrl>#w_verd</styleUrl><Point><coordinates>2.10003018379211,41.38028383255,0</coordinates></Point></Placemark>
<Placemark><name>50490</name><description>250490 UPC COR (Metro. Sud)
posicio de les: 04/08/2018 23:27:40</description><styleUrl>#w_groc</styleUrl><Point><coordinates>2.07025766372681,41.3625812530518,0</coordinates></Point></Placemark>
<Placemark><name>GAV02</name><description>250502 PORT GAV (Metro. Sud)
posicio de les: 04/08/2018 23:28:16</description><styleUrl>#w_grocP</styleUrl><Point><coordinates>1.99145436286926,41.3001501560211,0</coordinates></Point></Placemark>
<Placemark><name>GAV56</name><description>250556 PORT.COM GAV (Metro. Sud)
posicio de les: 04/08/2018 23:28:17</description><styleUrl>#w_grocP</styleUrl><Point><coordinates>1.98990941047668,41.2998819351196,0</coordinates></Point></Placemark>
<Placemark><name>HOS06</name><description>250706 PORT HOS (Metro. Sud)
posicio de les: 04/08/2018 23:29:15</description><styleUrl>#w_verdP</styleUrl><Point><coordinates>2.10588812828064,41.3697159290314,0</coordinates></Point></Placemark>
<Placemark><name>HOS56</name><description>250756 PORT.COM HOS (Metro. Sud)
posicio de les: 04/08/2018 23:29:37</description><styleUrl>#w_verdP</styleUrl><Point><coordinates>2.10563063621521,41.3698661327362,0</coordinates></Point></Placemark>
<Placemark><name>HOS57</name><description>250757 PORT.COM HOS (Metro. Sud)
posicio de les: 04/08/2018 23:27:25</description><styleUrl>#w_verdP</styleUrl><Point><coordinates>2.10792660713196,41.3708531856537,0</coordinates></Point></Placemark>
<Placemark><name>50790</name><description>250790 UPC HOS (Metro. Sud)
posicio de les: 04/08/2018 23:29:42</description><styleUrl>#w_groc</styleUrl><Point><coordinates>2.10575938224792,41.3699519634247,0</coordinates></Point></Placemark>
<Placemark><name>PLL06</name><description>251206 PORT PLL (Metro. Sud)
posicio de les: 04/08/2018 23:29:59</description><styleUrl>#w_verdP</styleUrl><Point><coordinates>2.08207011222839,41.3167476654053,0</coordinates></Point></Placemark>
<Placemark><name>SBOI57</name><description>251357 PORT.COM SBOI (Metro. Sud)
posicio de les: 04/08/2018 23:29:14</description><styleUrl>#w_verdP</styleUrl><Point><coordinates>2.03428387641907,41.3226163387299,0</coordinates></Point></Placemark>
<Placemark><name>SFE02</name><description>251502 PORT SFE (Metro. Sud)
posicio de les: 04/08/2018 23:26:53</description><styleUrl>#w_verdP</styleUrl><Point><coordinates>2.04282402992249,41.3883948326111,0</coordinates></Point></Placemark>
<Placemark><name>SFE03</name><description>251503 PORT SFE (Metro. Sud)
posicio de les: 04/08/2018 23:29:48</description><styleUrl>#w_verdP</styleUrl><Point><coordinates>2.04281330108643,41.3885772228241,0</coordinates></Point></Placemark>
<Placemark><name>SFE57</name><description>251557 PORT.COM SFE (Metro. Sud)
posicio de les: 04/08/2018 23:30:16</description><styleUrl>#w_verdP</styleUrl><Point><coordinates>2.04304933547974,41.3884270191193,0</coordinates></Point></Placemark>
<Placemark><name>51948</name><description>251948 BUL VIL (Metro. Sud)
posicio de les: 04/08/2018 23:27:37</description><styleUrl>#w_verdC</styleUrl><Point><coordinates>1.71690344810486,41.2186539173126,0</coordinates></Point></Placemark>
<Placemark><name>RET12</name><description>260012 P.Tec REGIÓ
posicio de les: 04/08/2018 23:29:41</description><styleUrl>#w_verdP</styleUrl><Point><coordinates>1.20791673660278,41.1878299713135,0</coordinates></Point></Placemark>
<Placemark><name>GE0RET</name><description>260013 P.Tec REGIÓ
posicio de les: 04/08/2018 23:30:10</description><styleUrl>#w_verdP</styleUrl><Point><coordinates>1.18479609489441,41.1345827579498,0</coordinates></Point></Placemark>
<Placemark><name>GE600</name><description>260017 P.Tec REGIÓ
posicio de les: 04/08/2018 23:29:15</description><styleUrl>#w_verdP</styleUrl><Point><coordinates>1.18553638458252,41.1348402500153,0</coordinates></Point></Placemark>
<Placemark><name>60092</name><description>260092  REGIÓ
posicio de les: 04/08/2018 23:28:43</description><styleUrl>#w_verd</styleUrl><Point><coordinates>1.20828151702881,41.1879372596741,0</coordinates></Point></Placemark>
<Placemark><name>CAMB06</name><description>260206 PORT CAMB (Tarragona)
posicio de les: 04/08/2018 23:30:13</description><styleUrl>#w_grocP</styleUrl><Point><coordinates>1.04060053825378,41.0767436027527,0</coordinates></Point></Placemark>
<Placemark><name>FALS06</name><description>260406 PORT FALS (Tarragona)
posicio de les: 04/08/2018 23:28:12</description><styleUrl>#w_verdP</styleUrl><Point><coordinates>0.823534727096558,41.1475431919098,0</coordinates></Point></Placemark>
<Placemark><name>260508</name><description>260508 PORT HOSP (Tarragona)
posicio de les: 04/08/2018 23:30:49</description><styleUrl>#w_verdP</styleUrl><Point><coordinates>0.919944047927856,40.9937024116516,0</coordinates></Point></Placemark>
<Placemark><name>REUS03</name><description>260803 PORT REUS (Tarragona)
posicio de les: 04/08/2018 23:30:00</description><styleUrl>#w_verdP</styleUrl><Point><coordinates>1.11804127693176,41.1512231826782,0</coordinates></Point></Placemark>
<Placemark><name>REUS12</name><description>260812 PORT REUS (Tarragona)
posicio de les: 04/08/2018 23:29:20</description><styleUrl>#w_verdP</styleUrl><Point><coordinates>1.11793398857117,41.1509335041046,0</coordinates></Point></Placemark>
<Placemark><name>REUS56</name><description>260856 PORT.COM REUS (Tarragona)
posicio de les: 04/08/2018 23:29:41</description><styleUrl>#w_verdP</styleUrl><Point><coordinates>1.11826658248901,41.1516094207764,0</coordinates></Point></Placemark>
<Placemark><name>E00RETE</name><description>270014 P.Tec REGIÓ
posicio de les: 04/08/2018 23:30:47</description><styleUrl>#w_grocP</styleUrl><Point><coordinates>0.513310432434082,40.8192944526672,0</coordinates></Point></Placemark>
<Placemark><name>AMET06</name><description>272006 PORT AMET (Terres de l'Ebre)
posicio de les: 04/08/2018 23:30:04</description><styleUrl>#w_verdP</styleUrl><Point><coordinates>0.793279409408569,40.8895468711853,0</coordinates></Point></Placemark>
<Placemark><name>ASCO56</name><description>272256 PORT.COM ASCO (Terres de l'Ebre)
posicio de les: 04/08/2018 23:29:06</description><styleUrl>#w_grocP</styleUrl><Point><coordinates>0.568692684173584,41.1879587173462,0</coordinates></Point></Placemark>
<Placemark><name>GAND56</name><description>272656 PORT.COM GAND (Terres de l'Ebre)
posicio de les: 04/08/2018 23:30:24</description><styleUrl>#w_grocP</styleUrl><Point><coordinates>0.439174175262451,41.0587084293365,0</coordinates></Point></Placemark>
<Placemark><name>MORA57</name><description>272857 PORT.COM MORA (Terres de l'Ebre)
posicio de les: 04/08/2018 23:29:18</description><styleUrl>#w_verdP</styleUrl><Point><coordinates>0.629686117172241,41.0862922668457,0</coordinates></Point></Placemark>
<Placemark><name>ULLD08</name><description>273108 PORT ULLD (Terres de l'Ebre)
posicio de les: 04/08/2018 23:30:23</description><styleUrl>#w_verdP</styleUrl><Point><coordinates>0.358150005340576,40.6088483333588,0</coordinates></Point></Placemark>
</Folder>
<Folder>
<name>Descarregues</name>
</Folder>
<Style id="w_verdP_n"><IconStyle><color>ff00ff00</color><scale>1.0</scale><Icon><href>http://maps.google.com/mapfiles/kml/shapes/man.png</href></Icon><hotSpot x="0.5" y="0" xunits="fraction" yunits="fraction"/></IconStyle><LabelStyle><scale>0.7</scale></LabelStyle></Style>
<Style id="w_verdP_s"><IconStyle><color>ff00ff00</color><scale>1.4</scale><Icon><href>http://maps.google.com/mapfiles/kml/shapes/man.png</href></Icon><hotSpot x="0.5" y="0" xunits="fraction" yunits="fraction"/></IconStyle><LabelStyle><scale>0.7</scale></LabelStyle></Style>
<StyleMap id="w_verdP"><Pair><key>normal</key><styleUrl>#w_verdP_n</styleUrl></Pair><Pair><key>highlight</key><styleUrl>#w_verdP_s</styleUrl></Pair></StyleMap>
<Style id="w_verd_n"><IconStyle><color>ff00ff00</color><scale>0.7</scale><Icon><href>http://maps.google.com/mapfiles/kml/shapes/cabs.png</href></Icon><hotSpot x="0.5" y="0" xunits="fraction" yunits="fraction"/></IconStyle><LabelStyle><scale>0.7</scale></LabelStyle></Style>
<Style id="w_verd_s"><IconStyle><color>ff00ff00</color><scale>1.0</scale><Icon><href>http://maps.google.com/mapfiles/kml/shapes/cabs.png</href></Icon><hotSpot x="0.5" y="0" xunits="fraction" yunits="fraction"/></IconStyle><LabelStyle><scale>0.7</scale></LabelStyle></Style>
<StyleMap id="w_verd"><Pair><key>normal</key><styleUrl>#w_verd_n</styleUrl></Pair><Pair><key>highlight</key><styleUrl>#w_verd_s</styleUrl></Pair></StyleMap>
<Style id="w_verdC_n"><IconStyle><color>ff00ff00</color><scale>1.0</scale><Icon><href>http://maps.google.com/mapfiles/kml/shapes/truck.png</href></Icon><hotSpot x="0.5" y="0" xunits="fraction" yunits="fraction"/></IconStyle><LabelStyle><scale>0.7</scale></LabelStyle></Style>
<Style id="w_verdC_s"><IconStyle><color>ff00ff00</color><scale>1.4</scale><Icon><href>http://maps.google.com/mapfiles/kml/shapes/truck.png</href></Icon><hotSpot x="0.5" y="0" xunits="fraction" yunits="fraction"/></IconStyle><LabelStyle><scale>0.7</scale></LabelStyle></Style>
<StyleMap id="w_verdC"><Pair><key>normal</key><styleUrl>#w_verdC_n</styleUrl></Pair><Pair><key>highlight</key><styleUrl>#w_verdC_s</styleUrl></Pair></StyleMap>
<Style id="w_verdH_n"><IconStyle><color>ff0000ff</color><scale>1.2</scale><Icon><href>http://maps.google.com/mapfiles/kml/shapes/heliport.png</href></Icon><hotSpot x="0.5" y="0" xunits="fraction" yunits="fraction"/></IconStyle><LabelStyle><scale>0.7</scale></LabelStyle></Style>
<Style id="w_verdH_s"><IconStyle><color>ff0000ff</color><scale>1.4</scale><Icon><href>http://maps.google.com/mapfiles/kml/shapes/heliport.png</href></Icon><hotSpot x="0.5" y="0" xunits="fraction" yunits="fraction"/></IconStyle><LabelStyle><scale>0.7</scale></LabelStyle></Style>
<StyleMap id="w_verdH"><Pair><key>normal</key><styleUrl>#w_verdH_n</styleUrl></Pair><Pair><key>highlight</key><styleUrl>#w_verdH_s</styleUrl></Pair></StyleMap>
<Style id="w_verdA_n"><IconStyle><color>ff0000ff</color><scale>1.2</scale><Icon><href>http://maps.google.com/mapfiles/kml/shapes/airports.png</href></Icon><hotSpot x="0.5" y="0" xunits="fraction" yunits="fraction"/></IconStyle><LabelStyle><scale>0.7</scale></LabelStyle></Style>
<Style id="w_verdA_s"><IconStyle><color>ff0000ff</color><scale>1.4</scale><Icon><href>http://maps.google.com/mapfiles/kml/shapes/airports.png</href></Icon><hotSpot x="0.5" y="0" xunits="fraction" yunits="fraction"/></IconStyle><LabelStyle><scale>0.7</scale></LabelStyle></Style>
<StyleMap id="w_verdA"><Pair><key>normal</key><styleUrl>#w_verdA_n</styleUrl></Pair><Pair><key>highlight</key><styleUrl>#w_verdA_s</styleUrl></Pair></StyleMap>
<Style id="w_verdB_n"><IconStyle><color>ff00ff00</color><scale>1.0</scale><Icon><href>http://maps.google.com/mapfiles/kml/shapes/sailing.png</href></Icon><hotSpot x="0.5" y="0" xunits="fraction" yunits="fraction"/></IconStyle><LabelStyle><scale>0.7</scale></LabelStyle></Style>
<Style id="w_verdB_s"><IconStyle><color>ff00ff00</color><scale>1.4</scale><Icon><href>http://maps.google.com/mapfiles/kml/shapes/sailing.png</href></Icon><hotSpot x="0.5" y="0" xunits="fraction" yunits="fraction"/></IconStyle><LabelStyle><scale>0.7</scale></LabelStyle></Style>
<StyleMap id="w_verdB"><Pair><key>normal</key><styleUrl>#w_verdBAR_n</styleUrl></Pair><Pair><key>highlight</key><styleUrl>#w_verdBAR_s</styleUrl></Pair></StyleMap>
<Style id="w_grocP_n"><IconStyle><color>ff00ffff</color><scale>1.0</scale><Icon><href>http://maps.google.com/mapfiles/kml/shapes/man.png</href></Icon><hotSpot x="0.5" y="0" xunits="fraction" yunits="fraction"/></IconStyle><LabelStyle><scale>0.7</scale></LabelStyle></Style>
<Style id="w_grocP_s"><IconStyle><color>ff00ffff</color><scale>1.4</scale><Icon><href>http://maps.google.com/mapfiles/kml/shapes/man.png</href></Icon><hotSpot x="0.5" y="0" xunits="fraction" yunits="fraction"/></IconStyle><LabelStyle><scale>0.7</scale></LabelStyle></Style>
<StyleMap id="w_grocP"><Pair><key>normal</key><styleUrl>#w_grocP_n</styleUrl></Pair><Pair><key>highlight</key><styleUrl>#w_grocP_s</styleUrl></Pair></StyleMap>
<Style id="w_groc_n"><IconStyle><color>ff00ffff</color><scale>0.7</scale><Icon><href>http://maps.google.com/mapfiles/kml/shapes/cabs.png</href></Icon><hotSpot x="0.5" y="0" xunits="fraction" yunits="fraction"/></IconStyle><LabelStyle><scale>0.7</scale></LabelStyle></Style>
<Style id="w_groc_s"><IconStyle><color>ff00ffff</color><scale>1.0</scale><Icon><href>http://maps.google.com/mapfiles/kml/shapes/cabs.png</href></Icon><hotSpot x="0.5" y="0" xunits="fraction" yunits="fraction"/></IconStyle><LabelStyle><scale>0.7</scale></LabelStyle></Style>
<StyleMap id="w_groc"><Pair><key>normal</key><styleUrl>#w_groc_n</styleUrl></Pair><Pair><key>highlight</key><styleUrl>#w_groc_s</styleUrl></Pair></StyleMap>
<Style id="w_grocC_n"><IconStyle><color>ff00ffff</color><scale>1.0</scale><Icon><href>http://maps.google.com/mapfiles/kml/shapes/truck.png</href></Icon><hotSpot x="0.5" y="0" xunits="fraction" yunits="fraction"/></IconStyle><LabelStyle><scale>0.7</scale></LabelStyle></Style>
<Style id="w_grocC_s"><IconStyle><color>ff00ffff</color><scale>1.4</scale><Icon><href>http://maps.google.com/mapfiles/kml/shapes/truck.png</href></Icon><hotSpot x="0.5" y="0" xunits="fraction" yunits="fraction"/></IconStyle><LabelStyle><scale>0.7</scale></LabelStyle></Style>
<StyleMap id="w_grocC"><Pair><key>normal</key><styleUrl>#w_grocC_n</styleUrl></Pair><Pair><key>highlight</key><styleUrl>#w_grocC_s</styleUrl></Pair></StyleMap>
<Style id="w_grocH_n"><IconStyle><color>ff0000ff</color><scale>1.2</scale><Icon><href>http://maps.google.com/mapfiles/kml/shapes/heliport.png</href></Icon><hotSpot x="0.5" y="0" xunits="fraction" yunits="fraction"/></IconStyle><LabelStyle><scale>0.7</scale></LabelStyle></Style>
<Style id="w_grocH_s"><IconStyle><color>ff0000ff</color><scale>1.4</scale><Icon><href>http://maps.google.com/mapfiles/kml/shapes/heliport.png</href></Icon><hotSpot x="0.5" y="0" xunits="fraction" yunits="fraction"/></IconStyle><LabelStyle><scale>0.7</scale></LabelStyle></Style>
<StyleMap id="w_grocH"><Pair><key>normal</key><styleUrl>#w_grocH_n</styleUrl></Pair><Pair><key>highlight</key><styleUrl>#w_grocH_s</styleUrl></Pair></StyleMap>
<Style id="w_grocA_n"><IconStyle><color>ff0000ff</color><scale>1.2</scale><Icon><href>http://maps.google.com/mapfiles/kml/shapes/airports.png</href></Icon><hotSpot x="0.5" y="0" xunits="fraction" yunits="fraction"/></IconStyle><LabelStyle><scale>0.7</scale></LabelStyle></Style>
<Style id="w_grocA_s"><IconStyle><color>ff0000ff</color><scale>1.4</scale><Icon><href>http://maps.google.com/mapfiles/kml/shapes/airports.png</href></Icon><hotSpot x="0.5" y="0" xunits="fraction" yunits="fraction"/></IconStyle><LabelStyle><scale>0.7</scale></LabelStyle></Style>
<StyleMap id="w_grocA"><Pair><key>normal</key><styleUrl>#w_grocA_n</styleUrl></Pair><Pair><key>highlight</key><styleUrl>#w_grocA_s</styleUrl></Pair></StyleMap>
<Style id="w_grocB_n"><IconStyle><color>ff00ffff</color><scale>1.0</scale><Icon><href>http://maps.google.com/mapfiles/kml/shapes/sailing.png</href></Icon><hotSpot x="0.5" y="0" xunits="fraction" yunits="fraction"/></IconStyle><LabelStyle><scale>0.7</scale></LabelStyle></Style>
<Style id="w_grocB_s"><IconStyle><color>ff00ffff</color><scale>1.4</scale><Icon><href>http://maps.google.com/mapfiles/kml/shapes/sailing.png</href></Icon><hotSpot x="0.5" y="0" xunits="fraction" yunits="fraction"/></IconStyle><LabelStyle><scale>0.7</scale></LabelStyle></Style>
<StyleMap id="w_grocB"><Pair><key>normal</key><styleUrl>#w_grocBAR_n</styleUrl></Pair><Pair><key>highlight</key><styleUrl>#w_grocBAR_s</styleUrl></Pair></StyleMap>
<Style id="w_vermellP_n"><IconStyle><color>ff0000ff</color><scale>1.0</scale><Icon><href>http://maps.google.com/mapfiles/kml/shapes/man.png</href></Icon><hotSpot x="0.5" y="0" xunits="fraction" yunits="fraction"/></IconStyle><LabelStyle><scale>0.7</scale></LabelStyle></Style>
<Style id="w_vermellP_s"><IconStyle><color>ff0000ff</color><scale>1.4</scale><Icon><href>http://maps.google.com/mapfiles/kml/shapes/man.png</href></Icon><hotSpot x="0.5" y="0" xunits="fraction" yunits="fraction"/></IconStyle><LabelStyle><scale>0.7</scale></LabelStyle></Style>
<StyleMap id="w_vermellP"><Pair><key>normal</key><styleUrl>#w_vermellP_n</styleUrl></Pair><Pair><key>highlight</key><styleUrl>#w_vermellP_s</styleUrl></Pair></StyleMap>
<Style id="w_vermell_n"><IconStyle><color>ff0000ff</color><scale>0.7</scale><Icon><href>http://maps.google.com/mapfiles/kml/shapes/cabs.png</href></Icon><hotSpot x="0.5" y="0" xunits="fraction" yunits="fraction"/></IconStyle><LabelStyle><scale>0.7</scale></LabelStyle></Style>
<Style id="w_vermell_s"><IconStyle><color>ff0000ff</color><scale>1.0</scale><Icon><href>http://maps.google.com/mapfiles/kml/shapes/cabs.png</href></Icon><hotSpot x="0.5" y="0" xunits="fraction" yunits="fraction"/></IconStyle><LabelStyle><scale>0.7</scale></LabelStyle></Style>
<StyleMap id="w_vermell"><Pair><key>normal</key><styleUrl>#w_vermell_n</styleUrl></Pair><Pair><key>highlight</key><styleUrl>#w_vermell_s</styleUrl></Pair></StyleMap>
<Style id="w_vermellC_n"><IconStyle><color>ff0000ff</color><scale>1.0</scale><Icon><href>http://maps.google.com/mapfiles/kml/shapes/truck.png</href></Icon><hotSpot x="0.5" y="0" xunits="fraction" yunits="fraction"/></IconStyle><LabelStyle><scale>0.7</scale></LabelStyle></Style>
<Style id="w_vermellC_s"><IconStyle><color>ff0000ff</color><scale>1.4</scale><Icon><href>http://maps.google.com/mapfiles/kml/shapes/truck.png</href></Icon><hotSpot x="0.5" y="0" xunits="fraction" yunits="fraction"/></IconStyle><LabelStyle><scale>0.7</scale></LabelStyle></Style>
<StyleMap id="w_vermellC"><Pair><key>normal</key><styleUrl>#w_vermellC_n</styleUrl></Pair><Pair><key>highlight</key><styleUrl>#w_vermellC_s</styleUrl></Pair></StyleMap>
<Style id="w_vermellH_n"><IconStyle><color>ff0000ff</color><scale>1.2</scale><Icon><href>http://maps.google.com/mapfiles/kml/shapes/heliport.png</href></Icon><hotSpot x="0.5" y="0" xunits="fraction" yunits="fraction"/></IconStyle><LabelStyle><scale>0.7</scale></LabelStyle></Style>
<Style id="w_vermellH_s"><IconStyle><color>ff0000ff</color><scale>1.4</scale><Icon><href>http://maps.google.com/mapfiles/kml/shapes/heliport.png</href></Icon><hotSpot x="0.5" y="0" xunits="fraction" yunits="fraction"/></IconStyle><LabelStyle><scale>0.7</scale></LabelStyle></Style>
<StyleMap id="w_vermellH"><Pair><key>normal</key><styleUrl>#w_vermellH_n</styleUrl></Pair><Pair><key>highlight</key><styleUrl>#w_vermellH_s</styleUrl></Pair></StyleMap>
<Style id="w_vermellA_n"><IconStyle><color>ff0000ff</color><scale>1.2</scale><Icon><href>http://maps.google.com/mapfiles/kml/shapes/airports.png</href></Icon><hotSpot x="0.5" y="0" xunits="fraction" yunits="fraction"/></IconStyle><LabelStyle><scale>0.7</scale></LabelStyle></Style>
<Style id="w_vermellA_s"><IconStyle><color>ff0000ff</color><scale>1.4</scale><Icon><href>http://maps.google.com/mapfiles/kml/shapes/airports.png</href></Icon><hotSpot x="0.5" y="0" xunits="fraction" yunits="fraction"/></IconStyle><LabelStyle><scale>0.7</scale></LabelStyle></Style>
<StyleMap id="w_vermellA"><Pair><key>normal</key><styleUrl>#w_vermellA_n</styleUrl></Pair><Pair><key>highlight</key><styleUrl>#w_vermellA_s</styleUrl></Pair></StyleMap>
<Style id="w_vermellB_n"><IconStyle><color>ff0000ff</color><scale>1.0</scale><Icon><href>http://maps.google.com/mapfiles/kml/shapes/sailing.png</href></Icon><hotSpot x="0.5" y="0" xunits="fraction" yunits="fraction"/></IconStyle><LabelStyle><scale>0.7</scale></LabelStyle></Style>
<Style id="w_vermellB_s"><IconStyle><color>ff0000ff</color><scale>1.4</scale><Icon><href>http://maps.google.com/mapfiles/kml/shapes/sailing.png</href></Icon><hotSpot x="0.5" y="0" xunits="fraction" yunits="fraction"/></IconStyle><LabelStyle><scale>0.7</scale></LabelStyle></Style>
<StyleMap id="w_vermellB"><Pair><key>normal</key><styleUrl>#w_vermellBAR_n</styleUrl></Pair><Pair><key>highlight</key><styleUrl>#w_vermellBAR_s</styleUrl></Pair></StyleMap>
<Style id="w_descarrega"><IconStyle><color>ff00ffff</color><scale>0.5</scale><Icon><href>http://maps.google.com/mapfiles/kml/shapes/road_shield3.png</href></Icon></IconStyle><LabelStyle><scale>0.7</scale></LabelStyle></Style><Style id="actuacio"><IconStyle><color>ff00ffff</color><scale>0.8</scale><Icon><href>http://maps.google.com/mapfiles/kml/shapes/caution.png</href></Icon></IconStyle><LabelStyle><scale>0.7</scale></LabelStyle></Style></Document></kml>