<?xml version="1.0" encoding="UTF-8"?>
<kml xmlns="http://www.opengis.net/kml/2.2" xmlns:gx="http://www.google.com/kml/ext/2.2" xmlns:kml="http://www.opengis.net/kml/2.2" xmlns:atom="http://www.w3.org/2005/Atom">
<Document>
<name>Terminals</name>
<Snippet maxLines="2">Created 04/08/2018 04:20:40</Snippet>
<Folder>
<name>Terminals</name>
<Placemark><name>OP05081</name><description>205281 OP.AAV
posicio de les: 04/08/2018 04:19:33</description><styleUrl>#w_verdP</styleUrl><Point><coordinates>2.10693955421448,41.5176773071289,0</coordinates></Point></Placemark>
<Placemark><name>VIEL12</name><description>208012 P.PT VARAN
posicio de les: 04/08/2018 04:18:51</description><styleUrl>#w_grocP</styleUrl><Point><coordinates>0.801218748092651,42.6994907855988,0</coordinates></Point></Placemark>
<Placemark><name>VIEL17</name><description>208017 BASE CCA VARAN
posicio de les: 04/08/2018 04:20:17</description><styleUrl>#w_groc</styleUrl><Point><coordinates>0.796540975570679,42.707998752594,0</coordinates></Point></Placemark>
<Placemark><name>10071</name><description>210071  REGIÓ
posicio de les: 04/08/2018 04:20:37</description><styleUrl>#w_verd</styleUrl><Point><coordinates>1.85397505760193,41.7425858974457,0</coordinates></Point></Placemark>
<Placemark><name>BER57</name><description>210357 PORT.COM BER (Centre)
posicio de les: 04/08/2018 04:20:06</description><styleUrl>#w_verdP</styleUrl><Point><coordinates>1.85771942138672,42.1039974689484,0</coordinates></Point></Placemark>
<Placemark><name>211130</name><description>211130 BRP MOI (Centre)
posicio de les: 04/08/2018 04:17:04</description><styleUrl>#w_grocC</styleUrl><Point><coordinates>2.08642601966858,41.8117332458496,0</coordinates></Point></Placemark>
<Placemark><name>PRA07</name><description>211407 PORT PRA (Centre)
posicio de les: 04/08/2018 04:19:44</description><styleUrl>#w_verdP</styleUrl><Point><coordinates>2.03627943992615,42.0081782341003,0</coordinates></Point></Placemark>
<Placemark><name>SOLS05</name><description>211905 PORT SOLS (Centre)
posicio de les: 04/08/2018 04:19:38</description><styleUrl>#w_verdP</styleUrl><Point><coordinates>1.5120255947113,41.9893705844879,0</coordinates></Point></Placemark>
<Placemark><name>VIC04</name><description>212104 PORT VIC (Centre)
posicio de les: 04/08/2018 04:18:57</description><styleUrl>#w_verdP</styleUrl><Point><coordinates>2.26935267448425,41.9418525695801,0</coordinates></Point></Placemark>
<Placemark><name>20091</name><description>220091  REGIÓ
posicio de les: 04/08/2018 04:19:58</description><styleUrl>#w_groc</styleUrl><Point><coordinates>2.80622363090515,41.9600701332092,0</coordinates></Point></Placemark>
<Placemark><name>20134</name><description>220134 BFP AMER (Girona)
posicio de les: 04/08/2018 04:17:56</description><styleUrl>#w_grocC</styleUrl><Point><coordinates>3.15331220626831,42.3575735092163,0</coordinates></Point></Placemark>
<Placemark><name>220656</name><description>220656 PORT.COM CALO (Girona)
posicio de les: 04/08/2018 04:20:28</description><styleUrl>#w_grocP</styleUrl><Point><coordinates>3.074551820755,41.8522560596466,0</coordinates></Point></Placemark>
<Placemark><name>CASS04</name><description>220804 PORT CASS (Girona)
posicio de les: 04/08/2018 04:18:38</description><styleUrl>#w_verdP</styleUrl><Point><coordinates>2.88294553756714,41.87952876091,0</coordinates></Point></Placemark>
<Placemark><name>20830</name><description>220830 BRP CASS (Girona)
posicio de les: 04/08/2018 04:20:34</description><styleUrl>#w_verdC</styleUrl><Point><coordinates>2.88443684577942,41.8798506259918,0</coordinates></Point></Placemark>
<Placemark><name>CASS56</name><description>220856 PORT.COM CASS (Girona)
posicio de les: 04/08/2018 04:19:50</description><styleUrl>#w_grocP</styleUrl><Point><coordinates>2.88412570953369,41.8796038627625,0</coordinates></Point></Placemark>
<Placemark><name>GIRO06</name><description>221106 PORT GIRO (Girona)
posicio de les: 04/08/2018 04:17:02</description><styleUrl>#w_verdP</styleUrl><Point><coordinates>2.8066098690033,41.960391998291,0</coordinates></Point></Placemark>
<Placemark><name>JONQ56</name><description>221356 PORT.COM JONQ (Girona)
posicio de les: 04/08/2018 04:20:05</description><styleUrl>#w_grocP</styleUrl><Point><coordinates>2.87639021873474,42.4120223522186,0</coordinates></Point></Placemark>
<Placemark><name>LLAN57</name><description>221457 PORT.COM LLAN (Girona)
posicio de les: 04/08/2018 04:20:20</description><styleUrl>#w_verdP</styleUrl><Point><coordinates>3.15315127372742,42.3566079139709,0</coordinates></Point></Placemark>
<Placemark><name>LLOR56</name><description>221556 PORT.COM LLOR (Girona)
posicio de les: 04/08/2018 04:15:04</description><styleUrl>#w_verdP</styleUrl><Point><coordinates>2.83584594726563,41.6995739936829,0</coordinates></Point></Placemark>
<Placemark><name>MAÇA57</name><description>221657 PORT.COM MACA (Girona)
posicio de les: 04/08/2018 04:19:27</description><styleUrl>#w_grocP</styleUrl><Point><coordinates>2.75290131568909,41.7792892456055,0</coordinates></Point></Placemark>
<Placemark><name>OLOT01</name><description>221701 PORT OLOT (Girona)
posicio de les: 04/08/2018 04:19:29</description><styleUrl>#w_verdP</styleUrl><Point><coordinates>3.16084384918213,42.2764205932617,0</coordinates></Point></Placemark>
<Placemark><name>OLOT56</name><description>221756 PORT.COM OLOT (Girona)
posicio de les: 04/08/2018 04:18:07</description><styleUrl>#w_verdP</styleUrl><Point><coordinates>2.47502446174622,42.1898925304413,0</coordinates></Point></Placemark>
<Placemark><name>OLOT57</name><description>221757 PORT.COM OLOT (Girona)
posicio de les: 04/08/2018 04:20:15</description><styleUrl>#w_verdP</styleUrl><Point><coordinates>2.47488498687744,42.1889698505402,0</coordinates></Point></Placemark>
<Placemark><name>PALA56</name><description>221856 PORT.COM PALA (Girona)
posicio de les: 04/08/2018 04:20:38</description><styleUrl>#w_grocP</styleUrl><Point><coordinates>3.15639138221741,41.9260811805725,0</coordinates></Point></Placemark>
<Placemark><name>RIPO56</name><description>222156 PORT.COM RIPO (Girona)
posicio de les: 04/08/2018 04:19:23</description><styleUrl>#w_verdP</styleUrl><Point><coordinates>2.16845870018005,42.2151374816895,0</coordinates></Point></Placemark>
<Placemark><name>ROSE57</name><description>222257 PORT.COM ROSE (Girona)
posicio de les: 04/08/2018 04:18:59</description><styleUrl>#w_grocP</styleUrl><Point><coordinates>3.16104769706726,42.2762703895569,0</coordinates></Point></Placemark>
<Placemark><name>22430</name><description>222430 BRP SHIL (Girona)
posicio de les: 04/08/2018 04:19:36</description><styleUrl>#w_grocC</styleUrl><Point><coordinates>3.03181886672974,41.8088579177856,0</coordinates></Point></Placemark>
<Placemark><name>VALL57</name><description>222857 PORT.COM VALL (Girona)
posicio de les: 04/08/2018 04:19:17</description><styleUrl>#w_grocP</styleUrl><Point><coordinates>3.0316150188446,41.8088471889496,0</coordinates></Point></Placemark>
<Placemark><name>22890</name><description>222890 UPC VALL (Girona)
posicio de les: 04/08/2018 04:18:16</description><styleUrl>#w_groc</styleUrl><Point><coordinates>3.03174376487732,41.8088150024414,0</coordinates></Point></Placemark>
<Placemark><name>D0REL</name><description>230010 P.CG REGIÓ
posicio de les: 04/08/2018 04:18:59</description><styleUrl>#w_verdP</styleUrl><Point><coordinates>0.6047523021698,41.6233563423157,0</coordinates></Point></Placemark>
<Placemark><name>30082</name><description>230082  REGIÓ
posicio de les: 04/08/2018 04:15:56</description><styleUrl>#w_groc</styleUrl><Point><coordinates>0.805134773254395,41.7987084388733,0</coordinates></Point></Placemark>
<Placemark><name>BALA57</name><description>230657 PORT.COM BALA (Lleida)
posicio de les: 04/08/2018 04:18:33</description><styleUrl>#w_grocP</styleUrl><Point><coordinates>0.805596113204956,41.7992448806763,0</coordinates></Point></Placemark>
<Placemark><name>BORG01</name><description>230701 PORT BORG (Lleida)
posicio de les: 04/08/2018 04:19:19</description><styleUrl>#w_grocP</styleUrl><Point><coordinates>0.844756364822388,41.5068519115448,0</coordinates></Point></Placemark>
<Placemark><name>BORG06</name><description>230706 PORT BORG (Lleida)
posicio de les: 04/08/2018 04:19:23</description><styleUrl>#w_verdP</styleUrl><Point><coordinates>0.844992399215698,41.5074634552002,0</coordinates></Point></Placemark>
<Placemark><name>BORG56</name><description>230756 PORT.COM BORG (Lleida)
posicio de les: 04/08/2018 04:18:55</description><styleUrl>#w_verdP</styleUrl><Point><coordinates>0.844734907150269,41.5071952342987,0</coordinates></Point></Placemark>
<Placemark><name>CERV08</name><description>230908 PORT CERV (Lleida)
posicio de les: 04/08/2018 04:19:41</description><styleUrl>#w_verdP</styleUrl><Point><coordinates>1.26517653465271,41.6716146469116,0</coordinates></Point></Placemark>
<Placemark><name>ISON56</name><description>231556 PORT.COM ISON (Lleida)
posicio de les: 04/08/2018 04:19:22</description><styleUrl>#w_verdP</styleUrl><Point><coordinates>1.04882955551147,42.1191143989563,0</coordinates></Point></Placemark>
<Placemark><name>MOLL07</name><description>232007 PORT MOLL (Lleida)
posicio de les: 04/08/2018 04:19:37</description><styleUrl>#w_verdP</styleUrl><Point><coordinates>0.898100137710571,41.6363489627838,0</coordinates></Point></Placemark>
<Placemark><name>32031</name><description>232031 BRP MOLL (Lleida)
posicio de les: 04/08/2018 04:19:52</description><styleUrl>#w_grocC</styleUrl><Point><coordinates>0.898218154907227,41.6363918781281,0</coordinates></Point></Placemark>
<Placemark><name>POBL01</name><description>232401 PORT POBL (Lleida)
posicio de les: 04/08/2018 04:19:19</description><styleUrl>#w_grocP</styleUrl><Point><coordinates>0.964436531066895,42.2389233112335,0</coordinates></Point></Placemark>
<Placemark><name>REMN11</name><description>240011 P.Tec REGIÓ
posicio de les: 04/08/2018 04:20:30</description><styleUrl>#w_verdP</styleUrl><Point><coordinates>2.11197137832642,41.5020453929901,0</coordinates></Point></Placemark>
<Placemark><name>40081</name><description>240081  REGIÓ
posicio de les: 04/08/2018 04:16:53</description><styleUrl>#w_groc</styleUrl><Point><coordinates>2.11236834526062,41.5022492408752,0</coordinates></Point></Placemark>
<Placemark><name>40091</name><description>240091  REGIÓ
posicio de les: 04/08/2018 04:17:59</description><styleUrl>#w_verd</styleUrl><Point><coordinates>2.11168169975281,41.5026247501373,0</coordinates></Point></Placemark>
<Placemark><name>40148</name><description>240148 BUL ARE (Metro. Nord)
posicio de les: 04/08/2018 04:20:41</description><styleUrl>#w_verdC</styleUrl><Point><coordinates>2.54559874534607,41.5919637680054,0</coordinates></Point></Placemark>
<Placemark><name>40290</name><description>240290 UPC BAD (Metro. Nord)
posicio de les: 04/08/2018 04:17:27</description><styleUrl>#w_groc</styleUrl><Point><coordinates>2.20918536186218,41.4632821083069,0</coordinates></Point></Placemark>
<Placemark><name>CER06</name><description>240506 PORT CER (Metro. Nord)
posicio de les: 04/08/2018 04:20:33</description><styleUrl>#w_verdP</styleUrl><Point><coordinates>2.11179971694946,41.5023565292358,0</coordinates></Point></Placemark>
<Placemark><name>40690</name><description>240690 UPC GRA (Metro. Nord)
posicio de les: 04/08/2018 04:18:46</description><styleUrl>#w_verd</styleUrl><Point><coordinates>2.42250680923462,41.53191447258,0</coordinates></Point></Placemark>
<Placemark><name>MAT07</name><description>240907 PORT MAT (Metro. Nord)
posicio de les: 04/08/2018 04:20:07</description><styleUrl>#w_verdP</styleUrl><Point><coordinates>2.48477697372437,41.5593266487122,0</coordinates></Point></Placemark>
<Placemark><name>240950</name><description>240950 FSV/FRQ/FER/FRM/FRA/FSA MAT (Metro. Nord)
posicio de les: 04/08/2018 04:20:41</description><styleUrl>#w_verdC</styleUrl><Point><coordinates>2.47486352920532,41.5591013431549,0</coordinates></Point></Placemark>
<Placemark><name>MOL03</name><description>241003 PORT MOL (Metro. Nord)
posicio de les: 04/08/2018 04:18:28</description><styleUrl>#w_verdP</styleUrl><Point><coordinates>2.20150351524353,41.536602973938,0</coordinates></Point></Placemark>
<Placemark><name>241040</name><description>241040 BUP MOL (Metro. Nord)
posicio de les: 04/08/2018 04:20:34</description><styleUrl>#w_verdC</styleUrl><Point><coordinates>2.21034407615662,41.5253913402557,0</coordinates></Point></Placemark>
<Placemark><name>241048</name><description>241048 BUL MOL (Metro. Nord)
posicio de les: 04/08/2018 04:20:32</description><styleUrl>#w_verdC</styleUrl><Point><coordinates>2.23004221916199,41.5632319450378,0</coordinates></Point></Placemark>
<Placemark><name>MOL56</name><description>241056 PORT.COM MOL (Metro. Nord)
posicio de les: 04/08/2018 04:19:59</description><styleUrl>#w_verdP</styleUrl><Point><coordinates>2.23156571388245,41.5615046024323,0</coordinates></Point></Placemark>
<Placemark><name>RUB01</name><description>241301 PORT RUB (Metro. Nord)
posicio de les: 04/08/2018 04:17:23</description><styleUrl>#w_verdP</styleUrl><Point><coordinates>2.0354962348938,41.4739680290222,0</coordinates></Point></Placemark>
<Placemark><name>41848</name><description>241848 BUL SCG (Metro. Nord)
posicio de les: 04/08/2018 04:19:49</description><styleUrl>#w_grocC</styleUrl><Point><coordinates>2.20914244651794,41.4632713794708,0</coordinates></Point></Placemark>
<Placemark><name>241858</name><description>241858 BSAL SCG (Metro. Nord)
posicio de les: 04/08/2018 04:20:26</description><styleUrl>#w_grocB</styleUrl><Point><coordinates>2.20946431159973,41.4632821083069,0</coordinates></Point></Placemark>
<Placemark><name>242040</name><description>242040 BUP TER (Metro. Nord)
posicio de les: 04/08/2018 04:18:46</description><styleUrl>#w_grocC</styleUrl><Point><coordinates>2.02612996101379,41.5679311752319,0</coordinates></Point></Placemark>
<Placemark><name>D3REMN</name><description>248043  SERVEIS REGIÓ
posicio de les: 04/08/2018 04:14:53</description><styleUrl>#w_verd</styleUrl><Point><coordinates>2.11246490478516,41.502571105957,0</coordinates></Point></Placemark>
<Placemark><name>50093</name><description>250093  REGIÓ
posicio de les: 04/08/2018 04:17:37</description><styleUrl>#w_groc</styleUrl><Point><coordinates>2.03419804573059,41.3228952884674,0</coordinates></Point></Placemark>
<Placemark><name>GAV09</name><description>250509 PORT GAV (Metro. Sud)
posicio de les: 04/08/2018 04:17:54</description><styleUrl>#w_verdP</styleUrl><Point><coordinates>1.98982357978821,41.3014268875122,0</coordinates></Point></Placemark>
<Placemark><name>50530</name><description>250530 BRP GAV (Metro. Sud)
posicio de les: 04/08/2018 04:20:39</description><styleUrl>#w_grocC</styleUrl><Point><coordinates>1.9926130771637,41.3096344470978,0</coordinates></Point></Placemark>
<Placemark><name>GAV57</name><description>250557 PORT.COM GAV (Metro. Sud)
posicio de les: 04/08/2018 04:20:00</description><styleUrl>#w_verdP</styleUrl><Point><coordinates>1.99393272399902,41.3105571269989,0</coordinates></Point></Placemark>
<Placemark><name>MAR01</name><description>251001 PORT MAR (Metro. Sud)
posicio de les: 04/08/2018 04:19:57</description><styleUrl>#w_verdP</styleUrl><Point><coordinates>1.90778017044067,41.4992129802704,0</coordinates></Point></Placemark>
<Placemark><name>MAR10</name><description>251010 PORT MAR (Metro. Sud)
posicio de les: 04/08/2018 04:20:02</description><styleUrl>#w_verdP</styleUrl><Point><coordinates>1.90788745880127,41.4988374710083,0</coordinates></Point></Placemark>
<Placemark><name>251040</name><description>251040 BUP MAR (Metro. Sud)
posicio de les: 04/08/2018 04:20:11</description><styleUrl>#w_verdC</styleUrl><Point><coordinates>1.87747120857239,41.5246081352234,0</coordinates></Point></Placemark>
<Placemark><name>MAR56</name><description>251056 PORT.COM MAR (Metro. Sud)
posicio de les: 04/08/2018 04:20:05</description><styleUrl>#w_verdP</styleUrl><Point><coordinates>1.87775015830994,41.5244257450104,0</coordinates></Point></Placemark>
<Placemark><name>51060</name><description>251060 AEA/AES/ABA MAR (Metro. Sud)
posicio de les: 04/08/2018 04:16:47</description><styleUrl>#w_verdC</styleUrl><Point><coordinates>1.87690258026123,41.5249300003052,0</coordinates></Point></Placemark>
<Placemark><name>SBOI02</name><description>251302 PORT SBOI (Metro. Sud)
posicio de les: 04/08/2018 04:19:36</description><styleUrl>#w_grocP</styleUrl><Point><coordinates>2.03449845314026,41.3230347633362,0</coordinates></Point></Placemark>
<Placemark><name>SFE03</name><description>251503 PORT SFE (Metro. Sud)
posicio de les: 04/08/2018 04:19:55</description><styleUrl>#w_verdP</styleUrl><Point><coordinates>2.04293131828308,41.3890278339386,0</coordinates></Point></Placemark>
<Placemark><name>VIF03</name><description>251803 PORT VIF (Metro. Sud)
posicio de les: 04/08/2018 04:19:41</description><styleUrl>#w_grocP</styleUrl><Point><coordinates>1.70477986335754,41.3559401035309,0</coordinates></Point></Placemark>
<Placemark><name>60086</name><description>260086  REGIÓ
posicio de les: 04/08/2018 04:20:38</description><styleUrl>#w_verd</styleUrl><Point><coordinates>1.11335277557373,41.2511944770813,0</coordinates></Point></Placemark>
<Placemark><name>260508</name><description>260508 PORT HOSP (Tarragona)
posicio de les: 04/08/2018 04:19:13</description><styleUrl>#w_verdP</styleUrl><Point><coordinates>0.91984748840332,40.9936487674713,0</coordinates></Point></Placemark>
<Placemark><name>60848</name><description>260848 BUL REUS (Tarragona)
posicio de les: 04/08/2018 04:20:38</description><styleUrl>#w_verdC</styleUrl><Point><coordinates>1.11279487609863,41.2512481212616,0</coordinates></Point></Placemark>
<Placemark><name>TARR01</name><description>261201 PORT TARR (Tarragona)
posicio de les: 04/08/2018 04:19:30</description><styleUrl>#w_grocP</styleUrl><Point><coordinates>1.18502140045166,41.1345720291138,0</coordinates></Point></Placemark>
<Placemark><name>SCRET</name><description>268001 P.COMODIN SERVEIS REGIÓ
posicio de les: 04/08/2018 04:18:03</description><styleUrl>#w_verdP</styleUrl><Point><coordinates>1.18545055389404,41.1341750621796,0</coordinates></Point></Placemark>
<Placemark><name>E00RETE</name><description>270014 P.Tec REGIÓ
posicio de les: 04/08/2018 04:20:29</description><styleUrl>#w_verdP</styleUrl><Point><coordinates>0.51336407661438,40.8192408084869,0</coordinates></Point></Placemark>
<Placemark><name>MORA06</name><description>272806 PORT MORA (Terres de l'Ebre)
posicio de les: 04/08/2018 04:19:10</description><styleUrl>#w_verdP</styleUrl><Point><coordinates>0.629857778549194,41.0862386226654,0</coordinates></Point></Placemark>
<Placemark><name>ULLD08</name><description>273108 PORT ULLD (Terres de l'Ebre)
posicio de les: 04/08/2018 04:19:36</description><styleUrl>#w_grocP</styleUrl><Point><coordinates>0.358214378356934,40.6085801124573,0</coordinates></Point></Placemark>
</Folder>
<Folder>
<name>Descarregues</name>
</Folder>
<Style id="w_verdP_n"><IconStyle><color>ff00ff00</color><scale>1.0</scale><Icon><href>http://maps.google.com/mapfiles/kml/shapes/man.png</href></Icon><hotSpot x="0.5" y="0" xunits="fraction" yunits="fraction"/></IconStyle><LabelStyle><scale>0.7</scale></LabelStyle></Style>
<Style id="w_verdP_s"><IconStyle><color>ff00ff00</color><scale>1.4</scale><Icon><href>http://maps.google.com/mapfiles/kml/shapes/man.png</href></Icon><hotSpot x="0.5" y="0" xunits="fraction" yunits="fraction"/></IconStyle><LabelStyle><scale>0.7</scale></LabelStyle></Style>
<StyleMap id="w_verdP"><Pair><key>normal</key><styleUrl>#w_verdP_n</styleUrl></Pair><Pair><key>highlight</key><styleUrl>#w_verdP_s</styleUrl></Pair></StyleMap>
<Style id="w_verd_n"><IconStyle><color>ff00ff00</color><scale>0.7</scale><Icon><href>http://maps.google.com/mapfiles/kml/shapes/cabs.png</href></Icon><hotSpot x="0.5" y="0" xunits="fraction" yunits="fraction"/></IconStyle><LabelStyle><scale>0.7</scale></LabelStyle></Style>
<Style id="w_verd_s"><IconStyle><color>ff00ff00</color><scale>1.0</scale><Icon><href>http://maps.google.com/mapfiles/kml/shapes/cabs.png</href></Icon><hotSpot x="0.5" y="0" xunits="fraction" yunits="fraction"/></IconStyle><LabelStyle><scale>0.7</scale></LabelStyle></Style>
<StyleMap id="w_verd"><Pair><key>normal</key><styleUrl>#w_verd_n</styleUrl></Pair><Pair><key>highlight</key><styleUrl>#w_verd_s</styleUrl></Pair></StyleMap>
<Style id="w_verdC_n"><IconStyle><color>ff00ff00</color><scale>1.0</scale><Icon><href>http://maps.google.com/mapfiles/kml/shapes/truck.png</href></Icon><hotSpot x="0.5" y="0" xunits="fraction" yunits="fraction"/></IconStyle><LabelStyle><scale>0.7</scale></LabelStyle></Style>
<Style id="w_verdC_s"><IconStyle><color>ff00ff00</color><scale>1.4</scale><Icon><href>http://maps.google.com/mapfiles/kml/shapes/truck.png</href></Icon><hotSpot x="0.5" y="0" xunits="fraction" yunits="fraction"/></IconStyle><LabelStyle><scale>0.7</scale></LabelStyle></Style>
<StyleMap id="w_verdC"><Pair><key>normal</key><styleUrl>#w_verdC_n</styleUrl></Pair><Pair><key>highlight</key><styleUrl>#w_verdC_s</styleUrl></Pair></StyleMap>
<Style id="w_verdH_n"><IconStyle><color>ff0000ff</color><scale>1.2</scale><Icon><href>http://maps.google.com/mapfiles/kml/shapes/heliport.png</href></Icon><hotSpot x="0.5" y="0" xunits="fraction" yunits="fraction"/></IconStyle><LabelStyle><scale>0.7</scale></LabelStyle></Style>
<Style id="w_verdH_s"><IconStyle><color>ff0000ff</color><scale>1.4</scale><Icon><href>http://maps.google.com/mapfiles/kml/shapes/heliport.png</href></Icon><hotSpot x="0.5" y="0" xunits="fraction" yunits="fraction"/></IconStyle><LabelStyle><scale>0.7</scale></LabelStyle></Style>
<StyleMap id="w_verdH"><Pair><key>normal</key><styleUrl>#w_verdH_n</styleUrl></Pair><Pair><key>highlight</key><styleUrl>#w_verdH_s</styleUrl></Pair></StyleMap>
<Style id="w_verdA_n"><IconStyle><color>ff0000ff</color><scale>1.2</scale><Icon><href>http://maps.google.com/mapfiles/kml/shapes/airports.png</href></Icon><hotSpot x="0.5" y="0" xunits="fraction" yunits="fraction"/></IconStyle><LabelStyle><scale>0.7</scale></LabelStyle></Style>
<Style id="w_verdA_s"><IconStyle><color>ff0000ff</color><scale>1.4</scale><Icon><href>http://maps.google.com/mapfiles/kml/shapes/airports.png</href></Icon><hotSpot x="0.5" y="0" xunits="fraction" yunits="fraction"/></IconStyle><LabelStyle><scale>0.7</scale></LabelStyle></Style>
<StyleMap id="w_verdA"><Pair><key>normal</key><styleUrl>#w_verdA_n</styleUrl></Pair><Pair><key>highlight</key><styleUrl>#w_verdA_s</styleUrl></Pair></StyleMap>
<Style id="w_verdB_n"><IconStyle><color>ff00ff00</color><scale>1.0</scale><Icon><href>http://maps.google.com/mapfiles/kml/shapes/sailing.png</href></Icon><hotSpot x="0.5" y="0" xunits="fraction" yunits="fraction"/></IconStyle><LabelStyle><scale>0.7</scale></LabelStyle></Style>
<Style id="w_verdB_s"><IconStyle><color>ff00ff00</color><scale>1.4</scale><Icon><href>http://maps.google.com/mapfiles/kml/shapes/sailing.png</href></Icon><hotSpot x="0.5" y="0" xunits="fraction" yunits="fraction"/></IconStyle><LabelStyle><scale>0.7</scale></LabelStyle></Style>
<StyleMap id="w_verdB"><Pair><key>normal</key><styleUrl>#w_verdBAR_n</styleUrl></Pair><Pair><key>highlight</key><styleUrl>#w_verdBAR_s</styleUrl></Pair></StyleMap>
<Style id="w_grocP_n"><IconStyle><color>ff00ffff</color><scale>1.0</scale><Icon><href>http://maps.google.com/mapfiles/kml/shapes/man.png</href></Icon><hotSpot x="0.5" y="0" xunits="fraction" yunits="fraction"/></IconStyle><LabelStyle><scale>0.7</scale></LabelStyle></Style>
<Style id="w_grocP_s"><IconStyle><color>ff00ffff</color><scale>1.4</scale><Icon><href>http://maps.google.com/mapfiles/kml/shapes/man.png</href></Icon><hotSpot x="0.5" y="0" xunits="fraction" yunits="fraction"/></IconStyle><LabelStyle><scale>0.7</scale></LabelStyle></Style>
<StyleMap id="w_grocP"><Pair><key>normal</key><styleUrl>#w_grocP_n</styleUrl></Pair><Pair><key>highlight</key><styleUrl>#w_grocP_s</styleUrl></Pair></StyleMap>
<Style id="w_groc_n"><IconStyle><color>ff00ffff</color><scale>0.7</scale><Icon><href>http://maps.google.com/mapfiles/kml/shapes/cabs.png</href></Icon><hotSpot x="0.5" y="0" xunits="fraction" yunits="fraction"/></IconStyle><LabelStyle><scale>0.7</scale></LabelStyle></Style>
<Style id="w_groc_s"><IconStyle><color>ff00ffff</color><scale>1.0</scale><Icon><href>http://maps.google.com/mapfiles/kml/shapes/cabs.png</href></Icon><hotSpot x="0.5" y="0" xunits="fraction" yunits="fraction"/></IconStyle><LabelStyle><scale>0.7</scale></LabelStyle></Style>
<StyleMap id="w_groc"><Pair><key>normal</key><styleUrl>#w_groc_n</styleUrl></Pair><Pair><key>highlight</key><styleUrl>#w_groc_s</styleUrl></Pair></StyleMap>
<Style id="w_grocC_n"><IconStyle><color>ff00ffff</color><scale>1.0</scale><Icon><href>http://maps.google.com/mapfiles/kml/shapes/truck.png</href></Icon><hotSpot x="0.5" y="0" xunits="fraction" yunits="fraction"/></IconStyle><LabelStyle><scale>0.7</scale></LabelStyle></Style>
<Style id="w_grocC_s"><IconStyle><color>ff00ffff</color><scale>1.4</scale><Icon><href>http://maps.google.com/mapfiles/kml/shapes/truck.png</href></Icon><hotSpot x="0.5" y="0" xunits="fraction" yunits="fraction"/></IconStyle><LabelStyle><scale>0.7</scale></LabelStyle></Style>
<StyleMap id="w_grocC"><Pair><key>normal</key><styleUrl>#w_grocC_n</styleUrl></Pair><Pair><key>highlight</key><styleUrl>#w_grocC_s</styleUrl></Pair></StyleMap>
<Style id="w_grocH_n"><IconStyle><color>ff0000ff</color><scale>1.2</scale><Icon><href>http://maps.google.com/mapfiles/kml/shapes/heliport.png</href></Icon><hotSpot x="0.5" y="0" xunits="fraction" yunits="fraction"/></IconStyle><LabelStyle><scale>0.7</scale></LabelStyle></Style>
<Style id="w_grocH_s"><IconStyle><color>ff0000ff</color><scale>1.4</scale><Icon><href>http://maps.google.com/mapfiles/kml/shapes/heliport.png</href></Icon><hotSpot x="0.5" y="0" xunits="fraction" yunits="fraction"/></IconStyle><LabelStyle><scale>0.7</scale></LabelStyle></Style>
<StyleMap id="w_grocH"><Pair><key>normal</key><styleUrl>#w_grocH_n</styleUrl></Pair><Pair><key>highlight</key><styleUrl>#w_grocH_s</styleUrl></Pair></StyleMap>
<Style id="w_grocA_n"><IconStyle><color>ff0000ff</color><scale>1.2</scale><Icon><href>http://maps.google.com/mapfiles/kml/shapes/airports.png</href></Icon><hotSpot x="0.5" y="0" xunits="fraction" yunits="fraction"/></IconStyle><LabelStyle><scale>0.7</scale></LabelStyle></Style>
<Style id="w_grocA_s"><IconStyle><color>ff0000ff</color><scale>1.4</scale><Icon><href>http://maps.google.com/mapfiles/kml/shapes/airports.png</href></Icon><hotSpot x="0.5" y="0" xunits="fraction" yunits="fraction"/></IconStyle><LabelStyle><scale>0.7</scale></LabelStyle></Style>
<StyleMap id="w_grocA"><Pair><key>normal</key><styleUrl>#w_grocA_n</styleUrl></Pair><Pair><key>highlight</key><styleUrl>#w_grocA_s</styleUrl></Pair></StyleMap>
<Style id="w_grocB_n"><IconStyle><color>ff00ffff</color><scale>1.0</scale><Icon><href>http://maps.google.com/mapfiles/kml/shapes/sailing.png</href></Icon><hotSpot x="0.5" y="0" xunits="fraction" yunits="fraction"/></IconStyle><LabelStyle><scale>0.7</scale></LabelStyle></Style>
<Style id="w_grocB_s"><IconStyle><color>ff00ffff</color><scale>1.4</scale><Icon><href>http://maps.google.com/mapfiles/kml/shapes/sailing.png</href></Icon><hotSpot x="0.5" y="0" xunits="fraction" yunits="fraction"/></IconStyle><LabelStyle><scale>0.7</scale></LabelStyle></Style>
<StyleMap id="w_grocB"><Pair><key>normal</key><styleUrl>#w_grocBAR_n</styleUrl></Pair><Pair><key>highlight</key><styleUrl>#w_grocBAR_s</styleUrl></Pair></StyleMap>
<Style id="w_vermellP_n"><IconStyle><color>ff0000ff</color><scale>1.0</scale><Icon><href>http://maps.google.com/mapfiles/kml/shapes/man.png</href></Icon><hotSpot x="0.5" y="0" xunits="fraction" yunits="fraction"/></IconStyle><LabelStyle><scale>0.7</scale></LabelStyle></Style>
<Style id="w_vermellP_s"><IconStyle><color>ff0000ff</color><scale>1.4</scale><Icon><href>http://maps.google.com/mapfiles/kml/shapes/man.png</href></Icon><hotSpot x="0.5" y="0" xunits="fraction" yunits="fraction"/></IconStyle><LabelStyle><scale>0.7</scale></LabelStyle></Style>
<StyleMap id="w_vermellP"><Pair><key>normal</key><styleUrl>#w_vermellP_n</styleUrl></Pair><Pair><key>highlight</key><styleUrl>#w_vermellP_s</styleUrl></Pair></StyleMap>
<Style id="w_vermell_n"><IconStyle><color>ff0000ff</color><scale>0.7</scale><Icon><href>http://maps.google.com/mapfiles/kml/shapes/cabs.png</href></Icon><hotSpot x="0.5" y="0" xunits="fraction" yunits="fraction"/></IconStyle><LabelStyle><scale>0.7</scale></LabelStyle></Style>
<Style id="w_vermell_s"><IconStyle><color>ff0000ff</color><scale>1.0</scale><Icon><href>http://maps.google.com/mapfiles/kml/shapes/cabs.png</href></Icon><hotSpot x="0.5" y="0" xunits="fraction" yunits="fraction"/></IconStyle><LabelStyle><scale>0.7</scale></LabelStyle></Style>
<StyleMap id="w_vermell"><Pair><key>normal</key><styleUrl>#w_vermell_n</styleUrl></Pair><Pair><key>highlight</key><styleUrl>#w_vermell_s</styleUrl></Pair></StyleMap>
<Style id="w_vermellC_n"><IconStyle><color>ff0000ff</color><scale>1.0</scale><Icon><href>http://maps.google.com/mapfiles/kml/shapes/truck.png</href></Icon><hotSpot x="0.5" y="0" xunits="fraction" yunits="fraction"/></IconStyle><LabelStyle><scale>0.7</scale></LabelStyle></Style>
<Style id="w_vermellC_s"><IconStyle><color>ff0000ff</color><scale>1.4</scale><Icon><href>http://maps.google.com/mapfiles/kml/shapes/truck.png</href></Icon><hotSpot x="0.5" y="0" xunits="fraction" yunits="fraction"/></IconStyle><LabelStyle><scale>0.7</scale></LabelStyle></Style>
<StyleMap id="w_vermellC"><Pair><key>normal</key><styleUrl>#w_vermellC_n</styleUrl></Pair><Pair><key>highlight</key><styleUrl>#w_vermellC_s</styleUrl></Pair></StyleMap>
<Style id="w_vermellH_n"><IconStyle><color>ff0000ff</color><scale>1.2</scale><Icon><href>http://maps.google.com/mapfiles/kml/shapes/heliport.png</href></Icon><hotSpot x="0.5" y="0" xunits="fraction" yunits="fraction"/></IconStyle><LabelStyle><scale>0.7</scale></LabelStyle></Style>
<Style id="w_vermellH_s"><IconStyle><color>ff0000ff</color><scale>1.4</scale><Icon><href>http://maps.google.com/mapfiles/kml/shapes/heliport.png</href></Icon><hotSpot x="0.5" y="0" xunits="fraction" yunits="fraction"/></IconStyle><LabelStyle><scale>0.7</scale></LabelStyle></Style>
<StyleMap id="w_vermellH"><Pair><key>normal</key><styleUrl>#w_vermellH_n</styleUrl></Pair><Pair><key>highlight</key><styleUrl>#w_vermellH_s</styleUrl></Pair></StyleMap>
<Style id="w_vermellA_n"><IconStyle><color>ff0000ff</color><scale>1.2</scale><Icon><href>http://maps.google.com/mapfiles/kml/shapes/airports.png</href></Icon><hotSpot x="0.5" y="0" xunits="fraction" yunits="fraction"/></IconStyle><LabelStyle><scale>0.7</scale></LabelStyle></Style>
<Style id="w_vermellA_s"><IconStyle><color>ff0000ff</color><scale>1.4</scale><Icon><href>http://maps.google.com/mapfiles/kml/shapes/airports.png</href></Icon><hotSpot x="0.5" y="0" xunits="fraction" yunits="fraction"/></IconStyle><LabelStyle><scale>0.7</scale></LabelStyle></Style>
<StyleMap id="w_vermellA"><Pair><key>normal</key><styleUrl>#w_vermellA_n</styleUrl></Pair><Pair><key>highlight</key><styleUrl>#w_vermellA_s</styleUrl></Pair></StyleMap>
<Style id="w_vermellB_n"><IconStyle><color>ff0000ff</color><scale>1.0</scale><Icon><href>http://maps.google.com/mapfiles/kml/shapes/sailing.png</href></Icon><hotSpot x="0.5" y="0" xunits="fraction" yunits="fraction"/></IconStyle><LabelStyle><scale>0.7</scale></LabelStyle></Style>
<Style id="w_vermellB_s"><IconStyle><color>ff0000ff</color><scale>1.4</scale><Icon><href>http://maps.google.com/mapfiles/kml/shapes/sailing.png</href></Icon><hotSpot x="0.5" y="0" xunits="fraction" yunits="fraction"/></IconStyle><LabelStyle><scale>0.7</scale></LabelStyle></Style>
<StyleMap id="w_vermellB"><Pair><key>normal</key><styleUrl>#w_vermellBAR_n</styleUrl></Pair><Pair><key>highlight</key><styleUrl>#w_vermellBAR_s</styleUrl></Pair></StyleMap>
<Style id="w_descarrega"><IconStyle><color>ff00ffff</color><scale>0.5</scale><Icon><href>http://maps.google.com/mapfiles/kml/shapes/road_shield3.png</href></Icon></IconStyle><LabelStyle><scale>0.7</scale></LabelStyle></Style><Style id="actuacio"><IconStyle><color>ff00ffff</color><scale>0.8</scale><Icon><href>http://maps.google.com/mapfiles/kml/shapes/caution.png</href></Icon></IconStyle><LabelStyle><scale>0.7</scale></LabelStyle></Style></Document></kml>