<?xml version="1.0" encoding="UTF-8"?>
<kml xmlns="http://www.opengis.net/kml/2.2" xmlns:gx="http://www.google.com/kml/ext/2.2" xmlns:kml="http://www.opengis.net/kml/2.2" xmlns:atom="http://www.w3.org/2005/Atom">
<Document>
<name>Terminals</name>
<Snippet maxLines="2">Created 08/08/2018 01:19:39</Snippet>
<Folder>
<name>Terminals</name>
<Placemark><name>LGRAE02</name><description>203302 GRAE
posicio de les: 08/08/2018 01:18:37</description><styleUrl>#w_verdP</styleUrl><Point><coordinates>1.20686531066895,42.5935649871826,0</coordinates></Point></Placemark>
<Placemark><name>LGRAE03</name><description>203303 GRAE
posicio de les: 08/08/2018 01:19:11</description><styleUrl>#w_verdP</styleUrl><Point><coordinates>1.20648980140686,42.5937581062317,0</coordinates></Point></Placemark>
<Placemark><name>LGRAE13</name><description>203313 GRAE
posicio de les: 08/08/2018 01:19:10</description><styleUrl>#w_verdP</styleUrl><Point><coordinates>1.23352646827698,42.620644569397,0</coordinates></Point></Placemark>
<Placemark><name>03372</name><description>203372 GRAE
posicio de les: 08/08/2018 01:17:15</description><styleUrl>#w_verd</styleUrl><Point><coordinates>1.23326897621155,42.6197111606598,0</coordinates></Point></Placemark>
<Placemark><name>GGRAF03</name><description>204203 P.UT
posicio de les: 08/08/2018 01:19:32</description><styleUrl>#w_verdP</styleUrl><Point><coordinates>2.80648112297058,41.9604349136353,0</coordinates></Point></Placemark>
<Placemark><name>GGRAF04</name><description>204204 P.UT
posicio de les: 08/08/2018 01:19:27</description><styleUrl>#w_grocP</styleUrl><Point><coordinates>2.80640602111816,41.9602847099304,0</coordinates></Point></Placemark>
<Placemark><name>GGRAF07</name><description>204207 P.UT
posicio de les: 08/08/2018 01:19:29</description><styleUrl>#w_verdP</styleUrl><Point><coordinates>2.80607342720032,41.9610786437988,0</coordinates></Point></Placemark>
<Placemark><name>LGRAF02</name><description>204302 P.UT
posicio de les: 08/08/2018 01:19:17</description><styleUrl>#w_verdP</styleUrl><Point><coordinates>0.889045000076294,42.1642184257507,0</coordinates></Point></Placemark>
<Placemark><name>05178</name><description>205178 BRAVO
posicio de les: 08/08/2018 01:17:55</description><styleUrl>#w_verd</styleUrl><Point><coordinates>2.09556698799133,41.8182241916656,0</coordinates></Point></Placemark>
<Placemark><name>VIEL12</name><description>208012 P.PT VARAN
posicio de les: 08/08/2018 01:17:59</description><styleUrl>#w_grocP</styleUrl><Point><coordinates>0.801315307617188,42.6996088027954,0</coordinates></Point></Placemark>
<Placemark><name>VIEL17</name><description>208017 BASE CCA VARAN
posicio de les: 08/08/2018 01:19:13</description><styleUrl>#w_groc</styleUrl><Point><coordinates>0.796583890914917,42.7080416679382,0</coordinates></Point></Placemark>
<Placemark><name>GE0REC</name><description>210013 P.Tec REGIÓ
posicio de les: 08/08/2018 01:16:27</description><styleUrl>#w_verdP</styleUrl><Point><coordinates>1.85103535652161,41.7412126064301,0</coordinates></Point></Placemark>
<Placemark><name>10071</name><description>210071  REGIÓ
posicio de les: 08/08/2018 01:19:16</description><styleUrl>#w_verd</styleUrl><Point><coordinates>1.85160398483276,41.7413628101349,0</coordinates></Point></Placemark>
<Placemark><name>10072</name><description>210072  REGIÓ
posicio de les: 08/08/2018 01:14:46</description><styleUrl>#w_groc</styleUrl><Point><coordinates>1.85153961181641,41.7413306236267,0</coordinates></Point></Placemark>
<Placemark><name>10082</name><description>210082  REGIÓ
posicio de les: 08/08/2018 01:17:54</description><styleUrl>#w_groc</styleUrl><Point><coordinates>1.51275515556335,41.9894886016846,0</coordinates></Point></Placemark>
<Placemark><name>CAR05</name><description>210505 PORT CAR (Centre)
posicio de les: 08/08/2018 01:19:08</description><styleUrl>#w_verdP</styleUrl><Point><coordinates>1.70438289642334,41.8995487689972,0</coordinates></Point></Placemark>
<Placemark><name>CAB56</name><description>210656 PORT.COM CAB (Centre)
posicio de les: 08/08/2018 01:19:25</description><styleUrl>#w_grocP</styleUrl><Point><coordinates>1.68522119522095,41.6658747196198,0</coordinates></Point></Placemark>
<Placemark><name>MAN03</name><description>211003 PORT MAN (Centre)
posicio de les: 08/08/2018 01:18:49</description><styleUrl>#w_verdP</styleUrl><Point><coordinates>1.86707496643066,41.7632818222046,0</coordinates></Point></Placemark>
<Placemark><name>11040</name><description>211040 BUP MAN (Centre)
posicio de les: 08/08/2018 01:18:58</description><styleUrl>#w_grocC</styleUrl><Point><coordinates>1.86689257621765,41.7632174491882,0</coordinates></Point></Placemark>
<Placemark><name>11090</name><description>211090 UPC MAN (Centre)
posicio de les: 08/08/2018 01:19:38</description><styleUrl>#w_verd</styleUrl><Point><coordinates>1.87869429588318,41.7674016952515,0</coordinates></Point></Placemark>
<Placemark><name>MOI6</name><description>211106 PORT MOI (Centre)
posicio de les: 08/08/2018 01:17:51</description><styleUrl>#w_verdP</styleUrl><Point><coordinates>2.08652257919312,41.8117439746857,0</coordinates></Point></Placemark>
<Placemark><name>PRA03</name><description>211403 PORT PRA (Centre)
posicio de les: 08/08/2018 01:18:18</description><styleUrl>#w_verdP</styleUrl><Point><coordinates>2.03602194786072,42.0084249973297,0</coordinates></Point></Placemark>
<Placemark><name>PRA07</name><description>211407 PORT PRA (Centre)
posicio de les: 08/08/2018 01:16:13</description><styleUrl>#w_verdP</styleUrl><Point><coordinates>2.0360004901886,42.0080065727234,0</coordinates></Point></Placemark>
<Placemark><name>TOR02</name><description>212002 PORT TOR (Centre)
posicio de les: 08/08/2018 01:17:38</description><styleUrl>#w_verdP</styleUrl><Point><coordinates>2.26746439933777,42.0483899116516,0</coordinates></Point></Placemark>
<Placemark><name>12030</name><description>212030 BRP TOR (Centre)
posicio de les: 08/08/2018 01:19:27</description><styleUrl>#w_grocC</styleUrl><Point><coordinates>2.26793646812439,42.0481431484222,0</coordinates></Point></Placemark>
<Placemark><name>217224</name><description>217224 P.GUAITA GUAITA
posicio de les: 08/08/2018 01:16:58</description><styleUrl>#w_verdP</styleUrl><Point><coordinates>2.03656911849976,42.0080709457397,0</coordinates></Point></Placemark>
<Placemark><name>E0REG</name><description>220012 P.Tec REGIÓ
posicio de les: 08/08/2018 01:18:21</description><styleUrl>#w_verdP</styleUrl><Point><coordinates>3.16079020500183,42.2764205932617,0</coordinates></Point></Placemark>
<Placemark><name>AMER57</name><description>220157 PORT.COM AMER (Girona)
posicio de les: 08/08/2018 01:19:08</description><styleUrl>#w_verdP</styleUrl><Point><coordinates>2.59604573249817,42.0113432407379,0</coordinates></Point></Placemark>
<Placemark><name>CASS56</name><description>220856 PORT.COM CASS (Girona)
posicio de les: 08/08/2018 01:18:47</description><styleUrl>#w_grocP</styleUrl><Point><coordinates>2.88438320159912,41.8793678283691,0</coordinates></Point></Placemark>
<Placemark><name>20880</name><description>220880 UPCL/USL CASS (Girona)
posicio de les: 08/08/2018 01:15:22</description><styleUrl>#w_verd</styleUrl><Point><coordinates>2.88375020027161,41.8769216537476,0</coordinates></Point></Placemark>
<Placemark><name>20930</name><description>220930 BRP ESCA (Girona)
posicio de les: 08/08/2018 01:17:59</description><styleUrl>#w_grocC</styleUrl><Point><coordinates>3.1271767616272,42.1153485774994,0</coordinates></Point></Placemark>
<Placemark><name>21031</name><description>221031 BRP FIGU (Girona)
posicio de les: 08/08/2018 01:15:16</description><styleUrl>#w_verdC</styleUrl><Point><coordinates>2.47509956359863,42.1903431415558,0</coordinates></Point></Placemark>
<Placemark><name>GIRO56</name><description>221156 PORT.COM GIRO (Girona)
posicio de les: 08/08/2018 01:18:08</description><styleUrl>#w_verdP</styleUrl><Point><coordinates>2.80597686767578,41.9601988792419,0</coordinates></Point></Placemark>
<Placemark><name>21190</name><description>221190 UPC GIRO (Girona)
posicio de les: 08/08/2018 01:19:30</description><styleUrl>#w_groc</styleUrl><Point><coordinates>2.80671715736389,41.9601774215698,0</coordinates></Point></Placemark>
<Placemark><name>JONQ56</name><description>221356 PORT.COM JONQ (Girona)
posicio de les: 08/08/2018 01:19:06</description><styleUrl>#w_grocP</styleUrl><Point><coordinates>2.87654042243958,42.4120545387268,0</coordinates></Point></Placemark>
<Placemark><name>LLAN57</name><description>221457 PORT.COM LLAN (Girona)
posicio de les: 08/08/2018 01:17:47</description><styleUrl>#w_verdP</styleUrl><Point><coordinates>3.15304398536682,42.3571872711182,0</coordinates></Point></Placemark>
<Placemark><name>LLOR56</name><description>221556 PORT.COM LLOR (Girona)
posicio de les: 08/08/2018 01:16:02</description><styleUrl>#w_verdP</styleUrl><Point><coordinates>2.83354997634888,41.7205381393433,0</coordinates></Point></Placemark>
<Placemark><name>21630</name><description>221630 BRP MACA (Girona)
posicio de les: 08/08/2018 01:15:23</description><styleUrl>#w_grocC</styleUrl><Point><coordinates>2.75307297706604,41.779557466507,0</coordinates></Point></Placemark>
<Placemark><name>21655</name><description>221655 FSV/FRQ/FER/FRM/FRA/FSA MACA (Girona)
posicio de les: 08/08/2018 01:15:29</description><styleUrl>#w_grocC</styleUrl><Point><coordinates>2.75304079055786,41.7794287204742,0</coordinates></Point></Placemark>
<Placemark><name>MAÇA57</name><description>221657 PORT.COM MACA (Girona)
posicio de les: 08/08/2018 01:19:25</description><styleUrl>#w_grocP</styleUrl><Point><coordinates>2.7530300617218,41.7795038223267,0</coordinates></Point></Placemark>
<Placemark><name>OLOT56</name><description>221756 PORT.COM OLOT (Girona)
posicio de les: 08/08/2018 01:18:26</description><styleUrl>#w_verdP</styleUrl><Point><coordinates>2.47454166412354,42.1900641918182,0</coordinates></Point></Placemark>
<Placemark><name>OLOT57</name><description>221757 PORT.COM OLOT (Girona)
posicio de les: 08/08/2018 01:16:20</description><styleUrl>#w_verdP</styleUrl><Point><coordinates>2.4758505821228,42.1899247169495,0</coordinates></Point></Placemark>
<Placemark><name>PALA56</name><description>221856 PORT.COM PALA (Girona)
posicio de les: 08/08/2018 01:19:18</description><styleUrl>#w_verdP</styleUrl><Point><coordinates>3.1561553478241,41.9257271289825,0</coordinates></Point></Placemark>
<Placemark><name>21890</name><description>221890 UPC PALA (Girona)
posicio de les: 08/08/2018 01:18:42</description><styleUrl>#w_groc</styleUrl><Point><coordinates>3.15657377243042,41.9258236885071,0</coordinates></Point></Placemark>
<Placemark><name>RIPO56</name><description>222156 PORT.COM RIPO (Girona)
posicio de les: 08/08/2018 01:16:59</description><styleUrl>#w_verdP</styleUrl><Point><coordinates>2.16846942901611,42.2149229049683,0</coordinates></Point></Placemark>
<Placemark><name>ROSE06</name><description>222206 PORT ROSE (Girona)
posicio de les: 08/08/2018 01:19:22</description><styleUrl>#w_verdP</styleUrl><Point><coordinates>3.16045761108398,42.2764098644257,0</coordinates></Point></Placemark>
<Placemark><name>VALL57</name><description>222857 PORT.COM VALL (Girona)
posicio de les: 08/08/2018 01:17:37</description><styleUrl>#w_grocP</styleUrl><Point><coordinates>3.0317223072052,41.8086326122284,0</coordinates></Point></Placemark>
<Placemark><name>I308</name><description>227308 P.GUAITA GUAITA
posicio de les: 08/08/2018 01:19:36</description><styleUrl>#w_verdP</styleUrl><Point><coordinates>3.15675616264343,41.9262099266052,0</coordinates></Point></Placemark>
<Placemark><name>D3REG</name><description>228043  SERVEIS REGIÓ
posicio de les: 08/08/2018 01:18:19</description><styleUrl>#w_verd</styleUrl><Point><coordinates>2.8066098690033,41.9598662853241,0</coordinates></Point></Placemark>
<Placemark><name>D0REL</name><description>230010 P.CG REGIÓ
posicio de les: 08/08/2018 01:18:05</description><styleUrl>#w_verdP</styleUrl><Point><coordinates>0.60474157333374,41.6237962245941,0</coordinates></Point></Placemark>
<Placemark><name>RELL12</name><description>230012 P.Tec REGIÓ
posicio de les: 08/08/2018 01:15:58</description><styleUrl>#w_verdP</styleUrl><Point><coordinates>1.22835516929626,42.5593185424805,0</coordinates></Point></Placemark>
<Placemark><name>30071</name><description>230071  REGIÓ
posicio de les: 08/08/2018 01:16:04</description><styleUrl>#w_groc</styleUrl><Point><coordinates>1.227947473526,42.5589001178741,0</coordinates></Point></Placemark>
<Placemark><name>30092</name><description>230092  REGIÓ
posicio de les: 08/08/2018 01:17:15</description><styleUrl>#w_groc</styleUrl><Point><coordinates>1.22806549072266,42.558878660202,0</coordinates></Point></Placemark>
<Placemark><name>30096</name><description>230096  REGIÓ
posicio de les: 08/08/2018 01:19:36</description><styleUrl>#w_verd</styleUrl><Point><coordinates>0.845636129379272,41.8028926849365,0</coordinates></Point></Placemark>
<Placemark><name>AGRA01</name><description>230201 PORT AGRA (Lleida)
posicio de les: 08/08/2018 01:15:06</description><styleUrl>#w_grocP</styleUrl><Point><coordinates>1.05024576187134,41.7976784706116,0</coordinates></Point></Placemark>
<Placemark><name>ALMA07</name><description>230307 PORT ALMA (Lleida)
posicio de les: 08/08/2018 01:19:04</description><styleUrl>#w_verdP</styleUrl><Point><coordinates>0.442725419998169,41.7295718193054,0</coordinates></Point></Placemark>
<Placemark><name>30630</name><description>230630 BRP BALA (Lleida)
posicio de les: 08/08/2018 01:19:35</description><styleUrl>#w_verdC</styleUrl><Point><coordinates>0.845003128051758,41.8019914627075,0</coordinates></Point></Placemark>
<Placemark><name>BORG05</name><description>230705 PORT BORG (Lleida)
posicio de les: 08/08/2018 01:18:19</description><styleUrl>#w_grocP</styleUrl><Point><coordinates>0.844788551330566,41.507248878479,0</coordinates></Point></Placemark>
<Placemark><name>LLAV01</name><description>231801 PORT LLAV (Lleida)
posicio de les: 08/08/2018 01:19:10</description><styleUrl>#w_verdP</styleUrl><Point><coordinates>1.23430967330933,42.620290517807,0</coordinates></Point></Placemark>
<Placemark><name>LLAV02</name><description>231802 PORT LLAV (Lleida)
posicio de les: 08/08/2018 01:17:57</description><styleUrl>#w_verdP</styleUrl><Point><coordinates>1.23352646827698,42.6201295852661,0</coordinates></Point></Placemark>
<Placemark><name>31890</name><description>231890 UPC LLAV (Lleida)
posicio de les: 08/08/2018 01:19:12</description><styleUrl>#w_verd</styleUrl><Point><coordinates>1.23445987701416,42.6201617717743,0</coordinates></Point></Placemark>
<Placemark><name>POBL01</name><description>232401 PORT POBL (Lleida)
posicio de les: 08/08/2018 01:17:39</description><styleUrl>#w_grocP</styleUrl><Point><coordinates>0.964897871017456,42.2387194633484,0</coordinates></Point></Placemark>
<Placemark><name>PONS01</name><description>232601 PORT PONS (Lleida)
posicio de les: 08/08/2018 01:18:20</description><styleUrl>#w_verdP</styleUrl><Point><coordinates>1.19593262672424,41.9043231010437,0</coordinates></Point></Placemark>
<Placemark><name>PONS02</name><description>232602 PORT PONS (Lleida)
posicio de les: 08/08/2018 01:16:44</description><styleUrl>#w_grocP</styleUrl><Point><coordinates>1.18392705917358,42.0532929897308,0</coordinates></Point></Placemark>
<Placemark><name>32634</name><description>232634 BFP PONS (Lleida)
posicio de les: 08/08/2018 01:19:20</description><styleUrl>#w_verdC</styleUrl><Point><coordinates>1.17563366889954,42.0466732978821,0</coordinates></Point></Placemark>
<Placemark><name>RIBC02</name><description>232702 PORT RIBC (Lleida)
posicio de les: 08/08/2018 01:17:05</description><styleUrl>#w_verdP</styleUrl><Point><coordinates>1.22796893119812,42.5587177276611,0</coordinates></Point></Placemark>
<Placemark><name>SORT04</name><description>233004 PORT SORT (Lleida)
posicio de les: 08/08/2018 01:19:09</description><styleUrl>#w_verdP</styleUrl><Point><coordinates>1.227947473526,42.5587821006775,0</coordinates></Point></Placemark>
<Placemark><name>SORT08</name><description>233008 PORT SORT (Lleida)
posicio de les: 08/08/2018 01:16:55</description><styleUrl>#w_verdP</styleUrl><Point><coordinates>1.12895250320435,42.4091255664825,0</coordinates></Point></Placemark>
<Placemark><name>TAR02</name><description>233102 PORT TAR (Lleida)
posicio de les: 08/08/2018 01:18:54</description><styleUrl>#w_verdP</styleUrl><Point><coordinates>1.14941239356995,41.6512191295624,0</coordinates></Point></Placemark>
<Placemark><name>GE0REMN</name><description>240013 P.Tec REGIÓ
posicio de les: 08/08/2018 01:18:27</description><styleUrl>#w_verdP</styleUrl><Point><coordinates>2.50670671463013,41.6951215267181,0</coordinates></Point></Placemark>
<Placemark><name>40093</name><description>240093  REGIÓ
posicio de les: 08/08/2018 01:18:04</description><styleUrl>#w_verd</styleUrl><Point><coordinates>2.50797271728516,41.695636510849,0</coordinates></Point></Placemark>
<Placemark><name>40290</name><description>240290 UPC BAD (Metro. Nord)
posicio de les: 08/08/2018 01:17:03</description><styleUrl>#w_groc</styleUrl><Point><coordinates>2.02565789222717,41.5681028366089,0</coordinates></Point></Placemark>
<Placemark><name>CER06</name><description>240506 PORT CER (Metro. Nord)
posicio de les: 08/08/2018 01:17:45</description><styleUrl>#w_verdP</styleUrl><Point><coordinates>2.11201429367065,41.5025496482849,0</coordinates></Point></Placemark>
<Placemark><name>40660</name><description>240660 AEA/AES/ABA GRA (Metro. Nord)
posicio de les: 08/08/2018 01:18:38</description><styleUrl>#w_grocC</styleUrl><Point><coordinates>2.27365493774414,41.5876400470734,0</coordinates></Point></Placemark>
<Placemark><name>MAL02</name><description>240702 PORT MAL (Metro. Nord)
posicio de les: 08/08/2018 01:18:38</description><styleUrl>#w_verdP</styleUrl><Point><coordinates>2.74427533149719,41.6535043716431,0</coordinates></Point></Placemark>
<Placemark><name>MOL03</name><description>241003 PORT MOL (Metro. Nord)
posicio de les: 08/08/2018 01:17:22</description><styleUrl>#w_verdP</styleUrl><Point><coordinates>2.20251202583313,41.5374076366425,0</coordinates></Point></Placemark>
<Placemark><name>MOL11</name><description>241011 PORT MOL (Metro. Nord)
posicio de les: 08/08/2018 01:16:01</description><styleUrl>#w_verdP</styleUrl><Point><coordinates>2.20128893852234,41.5373432636261,0</coordinates></Point></Placemark>
<Placemark><name>41260</name><description>241260 AEA/AES/ABA PIN (Metro. Nord)
posicio de les: 08/08/2018 01:19:02</description><styleUrl>#w_grocC</styleUrl><Point><coordinates>2.27601528167725,41.590461730957,0</coordinates></Point></Placemark>
<Placemark><name>RUB01</name><description>241301 PORT RUB (Metro. Nord)
posicio de les: 08/08/2018 01:18:11</description><styleUrl>#w_verdP</styleUrl><Point><coordinates>2.03503489494324,41.4728844165802,0</coordinates></Point></Placemark>
<Placemark><name>SAB01</name><description>241401 PORT SAB (Metro. Nord)
posicio de les: 08/08/2018 01:18:06</description><styleUrl>#w_verdP</styleUrl><Point><coordinates>2.10410714149475,41.5422141551971,0</coordinates></Point></Placemark>
<Placemark><name>SAB14</name><description>241414 PORT SAB (Metro. Nord)
posicio de les: 08/08/2018 01:18:40</description><styleUrl>#w_verdP</styleUrl><Point><coordinates>2.10399985313416,41.5422999858856,0</coordinates></Point></Placemark>
<Placemark><name>CMSCE11</name><description>241611 PORT SCE (Metro. Nord)
posicio de les: 08/08/2018 01:13:42</description><styleUrl>#w_verdP</styleUrl><Point><coordinates>2.5068998336792,41.6954326629639,0</coordinates></Point></Placemark>
<Placemark><name>41640</name><description>241640 BUP SCE (Metro. Nord)
posicio de les: 08/08/2018 01:19:33</description><styleUrl>#w_grocC</styleUrl><Point><coordinates>2.50710368156433,41.6951215267181,0</coordinates></Point></Placemark>
<Placemark><name>241858</name><description>241858 BSAL SCG (Metro. Nord)
posicio de les: 08/08/2018 01:18:02</description><styleUrl>#w_verdB</styleUrl><Point><coordinates>2.20917463302612,41.4631319046021,0</coordinates></Point></Placemark>
<Placemark><name>TER09</name><description>242009 PORT TER (Metro. Nord)
posicio de les: 08/08/2018 01:17:59</description><styleUrl>#w_verdP</styleUrl><Point><coordinates>2.02576518058777,41.5678989887238,0</coordinates></Point></Placemark>
<Placemark><name>TOD03</name><description>242103 PORT TOD (Metro. Nord)
posicio de les: 08/08/2018 01:18:08</description><styleUrl>#w_verdP</styleUrl><Point><coordinates>2.71634817123413,41.6917848587036,0</coordinates></Point></Placemark>
<Placemark><name>TOD06</name><description>242106 PORT TOD (Metro. Nord)
posicio de les: 08/08/2018 01:18:04</description><styleUrl>#w_verdP</styleUrl><Point><coordinates>2.71647691726685,41.6917526721954,0</coordinates></Point></Placemark>
<Placemark><name>TOD56</name><description>242156 PORT.COM TOD (Metro. Nord)
posicio de les: 08/08/2018 01:15:15</description><styleUrl>#w_verdP</styleUrl><Point><coordinates>2.71620869636536,41.6915810108185,0</coordinates></Point></Placemark>
<Placemark><name>REMS14</name><description>250014 P.Tec REGIÓ
posicio de les: 08/08/2018 01:18:15</description><styleUrl>#w_grocP</styleUrl><Point><coordinates>2.04135417938232,41.3899397850037,0</coordinates></Point></Placemark>
<Placemark><name>50071</name><description>250071  REGIÓ
posicio de les: 08/08/2018 01:18:47</description><styleUrl>#w_groc</styleUrl><Point><coordinates>2.03415513038635,41.3227558135986,0</coordinates></Point></Placemark>
<Placemark><name>50093</name><description>250093  REGIÓ
posicio de les: 08/08/2018 01:18:44</description><styleUrl>#w_groc</styleUrl><Point><coordinates>2.04115033149719,41.3900792598724,0</coordinates></Point></Placemark>
<Placemark><name>COR03</name><description>250403 PORT COR (Metro. Sud)
posicio de les: 08/08/2018 01:17:51</description><styleUrl>#w_verdP</styleUrl><Point><coordinates>2.07084774971008,41.3601350784302,0</coordinates></Point></Placemark>
<Placemark><name>50430</name><description>250430 BRP COR (Metro. Sud)
posicio de les: 08/08/2018 01:16:04</description><styleUrl>#w_verdC</styleUrl><Point><coordinates>2.06758618354797,41.3588798046112,0</coordinates></Point></Placemark>
<Placemark><name>GAV11</name><description>250511 PORT GAV (Metro. Sud)
posicio de les: 08/08/2018 01:15:30</description><styleUrl>#w_verdP</styleUrl><Point><coordinates>1.99036002159119,41.3001179695129,0</coordinates></Point></Placemark>
<Placemark><name>GAV57</name><description>250557 PORT.COM GAV (Metro. Sud)
posicio de les: 08/08/2018 01:16:33</description><styleUrl>#w_verdP</styleUrl><Point><coordinates>1.99053168296814,41.3002574443817,0</coordinates></Point></Placemark>
<Placemark><name>HOS06</name><description>250706 PORT HOS (Metro. Sud)
posicio de les: 08/08/2018 01:18:26</description><styleUrl>#w_grocP</styleUrl><Point><coordinates>2.10615634918213,41.3706815242767,0</coordinates></Point></Placemark>
<Placemark><name>50848</name><description>250848 BUL IGU (Metro. Sud)
posicio de les: 08/08/2018 01:17:08</description><styleUrl>#w_grocC</styleUrl><Point><coordinates>1.61300539970398,41.5873181819916,0</coordinates></Point></Placemark>
<Placemark><name>50890</name><description>250890 UPC IGU (Metro. Sud)
posicio de les: 08/08/2018 01:19:22</description><styleUrl>#w_verd</styleUrl><Point><coordinates>1.60975456237793,41.5910089015961,0</coordinates></Point></Placemark>
<Placemark><name>51030</name><description>251030 BRP MAR (Metro. Sud)
posicio de les: 08/08/2018 01:18:30</description><styleUrl>#w_grocC</styleUrl><Point><coordinates>1.9080913066864,41.4988911151886,0</coordinates></Point></Placemark>
<Placemark><name>MAR56</name><description>251056 PORT.COM MAR (Metro. Sud)
posicio de les: 08/08/2018 01:19:05</description><styleUrl>#w_grocP</styleUrl><Point><coordinates>1.90795183181763,41.4988160133362,0</coordinates></Point></Placemark>
<Placemark><name>MAR57</name><description>251057 PORT.COM MAR (Metro. Sud)
posicio de les: 08/08/2018 01:19:32</description><styleUrl>#w_verdP</styleUrl><Point><coordinates>1.90770506858826,41.4990091323853,0</coordinates></Point></Placemark>
<Placemark><name>SBOI02</name><description>251302 PORT SBOI (Metro. Sud)
posicio de les: 08/08/2018 01:18:02</description><styleUrl>#w_verdP</styleUrl><Point><coordinates>2.03429460525513,41.3228094577789,0</coordinates></Point></Placemark>
<Placemark><name>SBOI04</name><description>251304 PORT SBOI (Metro. Sud)
posicio de les: 08/08/2018 01:18:03</description><styleUrl>#w_grocP</styleUrl><Point><coordinates>2.04100012779236,41.3900256156921,0</coordinates></Point></Placemark>
<Placemark><name>SBOI07</name><description>251307 PORT SBOI (Metro. Sud)
posicio de les: 08/08/2018 01:19:11</description><styleUrl>#w_grocP</styleUrl><Point><coordinates>2.04118251800537,41.3898539543152,0</coordinates></Point></Placemark>
<Placemark><name>SBOI56</name><description>251356 PORT.COM SBOI (Metro. Sud)
posicio de les: 08/08/2018 01:17:51</description><styleUrl>#w_verdP</styleUrl><Point><coordinates>2.03421950340271,41.3227021694183,0</coordinates></Point></Placemark>
<Placemark><name>51530</name><description>251530 BRP SFE (Metro. Sud)
posicio de les: 08/08/2018 01:16:52</description><styleUrl>#w_grocC</styleUrl><Point><coordinates>2.04120397567749,41.3900685310364,0</coordinates></Point></Placemark>
<Placemark><name>SFE56</name><description>251556 PORT.COM SFE (Metro. Sud)
posicio de les: 08/08/2018 01:17:18</description><styleUrl>#w_grocP</styleUrl><Point><coordinates>2.04324245452881,41.3885986804962,0</coordinates></Point></Placemark>
<Placemark><name>SFE57</name><description>251557 PORT.COM SFE (Metro. Sud)
posicio de les: 08/08/2018 01:18:46</description><styleUrl>#w_verdP</styleUrl><Point><coordinates>2.04118251800537,41.3899183273315,0</coordinates></Point></Placemark>
<Placemark><name>SVIC04</name><description>251604 PORT SCC (Metro. Sud)
posicio de les: 08/08/2018 01:19:10</description><styleUrl>#w_verdP</styleUrl><Point><coordinates>2.00629234313965,41.3848435878754,0</coordinates></Point></Placemark>
<Placemark><name>SIT03</name><description>251703 PORT SIT (Metro. Sud)
posicio de les: 08/08/2018 01:19:34</description><styleUrl>#w_verdP</styleUrl><Point><coordinates>1.80927872657776,41.2411415576935,0</coordinates></Point></Placemark>
<Placemark><name>51780</name><description>251780 UPCL/USL SIT (Metro. Sud)
posicio de les: 08/08/2018 01:16:33</description><styleUrl>#w_groc</styleUrl><Point><coordinates>1.7134165763855,41.2200701236725,0</coordinates></Point></Placemark>
<Placemark><name>51948</name><description>251948 BUL VIL (Metro. Sud)
posicio de les: 08/08/2018 01:16:53</description><styleUrl>#w_grocC</styleUrl><Point><coordinates>1.7293918132782,41.2229025363922,0</coordinates></Point></Placemark>
<Placemark><name>D1REMS</name><description>258041  SERVEIS REGIÓ
posicio de les: 08/08/2018 01:19:36</description><styleUrl>#w_verd</styleUrl><Point><coordinates>2.03352212905884,41.3222944736481,0</coordinates></Point></Placemark>
<Placemark><name>HOSP56</name><description>260556 PORT.COM HOSP (Tarragona)
posicio de les: 08/08/2018 01:18:07</description><styleUrl>#w_verdP</styleUrl><Point><coordinates>0.919514894485474,40.9939706325531,0</coordinates></Point></Placemark>
<Placemark><name>60850</name><description>260850 FSV/FRQ/FER/FRM/FRA/FSA REUS (Tarragona)
posicio de les: 08/08/2018 01:18:50</description><styleUrl>#w_verdC</styleUrl><Point><coordinates>1.06323838233948,41.1359989643097,0</coordinates></Point></Placemark>
<Placemark><name>E00RETE</name><description>270014 P.Tec REGIÓ
posicio de les: 08/08/2018 01:18:51</description><styleUrl>#w_verdP</styleUrl><Point><coordinates>0.51335334777832,40.8191978931427,0</coordinates></Point></Placemark>
<Placemark><name>ASCO05</name><description>272205 PORT ASCO (Terres de l'Ebre)
posicio de les: 08/08/2018 01:18:42</description><styleUrl>#w_verdP</styleUrl><Point><coordinates>0.568767786026001,41.187744140625,0</coordinates></Point></Placemark>
<Placemark><name>ULLD08</name><description>273108 PORT ULLD (Terres de l'Ebre)
posicio de les: 08/08/2018 01:18:36</description><styleUrl>#w_verdP</styleUrl><Point><coordinates>0.358214378356934,40.6091272830963,0</coordinates></Point></Placemark>
<Placemark><name>CMTE56</name><description>274556 PORT.COM Parc X
posicio de les: 08/08/2018 01:18:31</description><styleUrl>#w_grocP</styleUrl><Point><coordinates>0.579432249069214,40.689400434494,0</coordinates></Point></Placemark>
<Placemark><name>92078</name><description>292078 UE SST
posicio de les: 08/08/2018 01:17:08</description><styleUrl>#w_groc</styleUrl><Point><coordinates>1.92721009254456,41.4821541309357,0</coordinates></Point></Placemark>
<Placemark><name>93080</name><description>293080 UPCL/USL ESC
posicio de les: 08/08/2018 01:19:19</description><styleUrl>#w_groc</styleUrl><Point><coordinates>2.11266875267029,41.5015196800232,0</coordinates></Point></Placemark>
</Folder>
<Folder>
<name>Descarregues</name>
</Folder>
<Style id="w_verdP_n"><IconStyle><color>ff00ff00</color><scale>1.0</scale><Icon><href>http://maps.google.com/mapfiles/kml/shapes/man.png</href></Icon><hotSpot x="0.5" y="0" xunits="fraction" yunits="fraction"/></IconStyle><LabelStyle><scale>0.7</scale></LabelStyle></Style>
<Style id="w_verdP_s"><IconStyle><color>ff00ff00</color><scale>1.4</scale><Icon><href>http://maps.google.com/mapfiles/kml/shapes/man.png</href></Icon><hotSpot x="0.5" y="0" xunits="fraction" yunits="fraction"/></IconStyle><LabelStyle><scale>0.7</scale></LabelStyle></Style>
<StyleMap id="w_verdP"><Pair><key>normal</key><styleUrl>#w_verdP_n</styleUrl></Pair><Pair><key>highlight</key><styleUrl>#w_verdP_s</styleUrl></Pair></StyleMap>
<Style id="w_verd_n"><IconStyle><color>ff00ff00</color><scale>0.7</scale><Icon><href>http://maps.google.com/mapfiles/kml/shapes/cabs.png</href></Icon><hotSpot x="0.5" y="0" xunits="fraction" yunits="fraction"/></IconStyle><LabelStyle><scale>0.7</scale></LabelStyle></Style>
<Style id="w_verd_s"><IconStyle><color>ff00ff00</color><scale>1.0</scale><Icon><href>http://maps.google.com/mapfiles/kml/shapes/cabs.png</href></Icon><hotSpot x="0.5" y="0" xunits="fraction" yunits="fraction"/></IconStyle><LabelStyle><scale>0.7</scale></LabelStyle></Style>
<StyleMap id="w_verd"><Pair><key>normal</key><styleUrl>#w_verd_n</styleUrl></Pair><Pair><key>highlight</key><styleUrl>#w_verd_s</styleUrl></Pair></StyleMap>
<Style id="w_verdC_n"><IconStyle><color>ff00ff00</color><scale>1.0</scale><Icon><href>http://maps.google.com/mapfiles/kml/shapes/truck.png</href></Icon><hotSpot x="0.5" y="0" xunits="fraction" yunits="fraction"/></IconStyle><LabelStyle><scale>0.7</scale></LabelStyle></Style>
<Style id="w_verdC_s"><IconStyle><color>ff00ff00</color><scale>1.4</scale><Icon><href>http://maps.google.com/mapfiles/kml/shapes/truck.png</href></Icon><hotSpot x="0.5" y="0" xunits="fraction" yunits="fraction"/></IconStyle><LabelStyle><scale>0.7</scale></LabelStyle></Style>
<StyleMap id="w_verdC"><Pair><key>normal</key><styleUrl>#w_verdC_n</styleUrl></Pair><Pair><key>highlight</key><styleUrl>#w_verdC_s</styleUrl></Pair></StyleMap>
<Style id="w_verdH_n"><IconStyle><color>ff0000ff</color><scale>1.2</scale><Icon><href>http://maps.google.com/mapfiles/kml/shapes/heliport.png</href></Icon><hotSpot x="0.5" y="0" xunits="fraction" yunits="fraction"/></IconStyle><LabelStyle><scale>0.7</scale></LabelStyle></Style>
<Style id="w_verdH_s"><IconStyle><color>ff0000ff</color><scale>1.4</scale><Icon><href>http://maps.google.com/mapfiles/kml/shapes/heliport.png</href></Icon><hotSpot x="0.5" y="0" xunits="fraction" yunits="fraction"/></IconStyle><LabelStyle><scale>0.7</scale></LabelStyle></Style>
<StyleMap id="w_verdH"><Pair><key>normal</key><styleUrl>#w_verdH_n</styleUrl></Pair><Pair><key>highlight</key><styleUrl>#w_verdH_s</styleUrl></Pair></StyleMap>
<Style id="w_verdA_n"><IconStyle><color>ff0000ff</color><scale>1.2</scale><Icon><href>http://maps.google.com/mapfiles/kml/shapes/airports.png</href></Icon><hotSpot x="0.5" y="0" xunits="fraction" yunits="fraction"/></IconStyle><LabelStyle><scale>0.7</scale></LabelStyle></Style>
<Style id="w_verdA_s"><IconStyle><color>ff0000ff</color><scale>1.4</scale><Icon><href>http://maps.google.com/mapfiles/kml/shapes/airports.png</href></Icon><hotSpot x="0.5" y="0" xunits="fraction" yunits="fraction"/></IconStyle><LabelStyle><scale>0.7</scale></LabelStyle></Style>
<StyleMap id="w_verdA"><Pair><key>normal</key><styleUrl>#w_verdA_n</styleUrl></Pair><Pair><key>highlight</key><styleUrl>#w_verdA_s</styleUrl></Pair></StyleMap>
<Style id="w_verdB_n"><IconStyle><color>ff00ff00</color><scale>1.0</scale><Icon><href>http://maps.google.com/mapfiles/kml/shapes/sailing.png</href></Icon><hotSpot x="0.5" y="0" xunits="fraction" yunits="fraction"/></IconStyle><LabelStyle><scale>0.7</scale></LabelStyle></Style>
<Style id="w_verdB_s"><IconStyle><color>ff00ff00</color><scale>1.4</scale><Icon><href>http://maps.google.com/mapfiles/kml/shapes/sailing.png</href></Icon><hotSpot x="0.5" y="0" xunits="fraction" yunits="fraction"/></IconStyle><LabelStyle><scale>0.7</scale></LabelStyle></Style>
<StyleMap id="w_verdB"><Pair><key>normal</key><styleUrl>#w_verdBAR_n</styleUrl></Pair><Pair><key>highlight</key><styleUrl>#w_verdBAR_s</styleUrl></Pair></StyleMap>
<Style id="w_grocP_n"><IconStyle><color>ff00ffff</color><scale>1.0</scale><Icon><href>http://maps.google.com/mapfiles/kml/shapes/man.png</href></Icon><hotSpot x="0.5" y="0" xunits="fraction" yunits="fraction"/></IconStyle><LabelStyle><scale>0.7</scale></LabelStyle></Style>
<Style id="w_grocP_s"><IconStyle><color>ff00ffff</color><scale>1.4</scale><Icon><href>http://maps.google.com/mapfiles/kml/shapes/man.png</href></Icon><hotSpot x="0.5" y="0" xunits="fraction" yunits="fraction"/></IconStyle><LabelStyle><scale>0.7</scale></LabelStyle></Style>
<StyleMap id="w_grocP"><Pair><key>normal</key><styleUrl>#w_grocP_n</styleUrl></Pair><Pair><key>highlight</key><styleUrl>#w_grocP_s</styleUrl></Pair></StyleMap>
<Style id="w_groc_n"><IconStyle><color>ff00ffff</color><scale>0.7</scale><Icon><href>http://maps.google.com/mapfiles/kml/shapes/cabs.png</href></Icon><hotSpot x="0.5" y="0" xunits="fraction" yunits="fraction"/></IconStyle><LabelStyle><scale>0.7</scale></LabelStyle></Style>
<Style id="w_groc_s"><IconStyle><color>ff00ffff</color><scale>1.0</scale><Icon><href>http://maps.google.com/mapfiles/kml/shapes/cabs.png</href></Icon><hotSpot x="0.5" y="0" xunits="fraction" yunits="fraction"/></IconStyle><LabelStyle><scale>0.7</scale></LabelStyle></Style>
<StyleMap id="w_groc"><Pair><key>normal</key><styleUrl>#w_groc_n</styleUrl></Pair><Pair><key>highlight</key><styleUrl>#w_groc_s</styleUrl></Pair></StyleMap>
<Style id="w_grocC_n"><IconStyle><color>ff00ffff</color><scale>1.0</scale><Icon><href>http://maps.google.com/mapfiles/kml/shapes/truck.png</href></Icon><hotSpot x="0.5" y="0" xunits="fraction" yunits="fraction"/></IconStyle><LabelStyle><scale>0.7</scale></LabelStyle></Style>
<Style id="w_grocC_s"><IconStyle><color>ff00ffff</color><scale>1.4</scale><Icon><href>http://maps.google.com/mapfiles/kml/shapes/truck.png</href></Icon><hotSpot x="0.5" y="0" xunits="fraction" yunits="fraction"/></IconStyle><LabelStyle><scale>0.7</scale></LabelStyle></Style>
<StyleMap id="w_grocC"><Pair><key>normal</key><styleUrl>#w_grocC_n</styleUrl></Pair><Pair><key>highlight</key><styleUrl>#w_grocC_s</styleUrl></Pair></StyleMap>
<Style id="w_grocH_n"><IconStyle><color>ff0000ff</color><scale>1.2</scale><Icon><href>http://maps.google.com/mapfiles/kml/shapes/heliport.png</href></Icon><hotSpot x="0.5" y="0" xunits="fraction" yunits="fraction"/></IconStyle><LabelStyle><scale>0.7</scale></LabelStyle></Style>
<Style id="w_grocH_s"><IconStyle><color>ff0000ff</color><scale>1.4</scale><Icon><href>http://maps.google.com/mapfiles/kml/shapes/heliport.png</href></Icon><hotSpot x="0.5" y="0" xunits="fraction" yunits="fraction"/></IconStyle><LabelStyle><scale>0.7</scale></LabelStyle></Style>
<StyleMap id="w_grocH"><Pair><key>normal</key><styleUrl>#w_grocH_n</styleUrl></Pair><Pair><key>highlight</key><styleUrl>#w_grocH_s</styleUrl></Pair></StyleMap>
<Style id="w_grocA_n"><IconStyle><color>ff0000ff</color><scale>1.2</scale><Icon><href>http://maps.google.com/mapfiles/kml/shapes/airports.png</href></Icon><hotSpot x="0.5" y="0" xunits="fraction" yunits="fraction"/></IconStyle><LabelStyle><scale>0.7</scale></LabelStyle></Style>
<Style id="w_grocA_s"><IconStyle><color>ff0000ff</color><scale>1.4</scale><Icon><href>http://maps.google.com/mapfiles/kml/shapes/airports.png</href></Icon><hotSpot x="0.5" y="0" xunits="fraction" yunits="fraction"/></IconStyle><LabelStyle><scale>0.7</scale></LabelStyle></Style>
<StyleMap id="w_grocA"><Pair><key>normal</key><styleUrl>#w_grocA_n</styleUrl></Pair><Pair><key>highlight</key><styleUrl>#w_grocA_s</styleUrl></Pair></StyleMap>
<Style id="w_grocB_n"><IconStyle><color>ff00ffff</color><scale>1.0</scale><Icon><href>http://maps.google.com/mapfiles/kml/shapes/sailing.png</href></Icon><hotSpot x="0.5" y="0" xunits="fraction" yunits="fraction"/></IconStyle><LabelStyle><scale>0.7</scale></LabelStyle></Style>
<Style id="w_grocB_s"><IconStyle><color>ff00ffff</color><scale>1.4</scale><Icon><href>http://maps.google.com/mapfiles/kml/shapes/sailing.png</href></Icon><hotSpot x="0.5" y="0" xunits="fraction" yunits="fraction"/></IconStyle><LabelStyle><scale>0.7</scale></LabelStyle></Style>
<StyleMap id="w_grocB"><Pair><key>normal</key><styleUrl>#w_grocBAR_n</styleUrl></Pair><Pair><key>highlight</key><styleUrl>#w_grocBAR_s</styleUrl></Pair></StyleMap>
<Style id="w_vermellP_n"><IconStyle><color>ff0000ff</color><scale>1.0</scale><Icon><href>http://maps.google.com/mapfiles/kml/shapes/man.png</href></Icon><hotSpot x="0.5" y="0" xunits="fraction" yunits="fraction"/></IconStyle><LabelStyle><scale>0.7</scale></LabelStyle></Style>
<Style id="w_vermellP_s"><IconStyle><color>ff0000ff</color><scale>1.4</scale><Icon><href>http://maps.google.com/mapfiles/kml/shapes/man.png</href></Icon><hotSpot x="0.5" y="0" xunits="fraction" yunits="fraction"/></IconStyle><LabelStyle><scale>0.7</scale></LabelStyle></Style>
<StyleMap id="w_vermellP"><Pair><key>normal</key><styleUrl>#w_vermellP_n</styleUrl></Pair><Pair><key>highlight</key><styleUrl>#w_vermellP_s</styleUrl></Pair></StyleMap>
<Style id="w_vermell_n"><IconStyle><color>ff0000ff</color><scale>0.7</scale><Icon><href>http://maps.google.com/mapfiles/kml/shapes/cabs.png</href></Icon><hotSpot x="0.5" y="0" xunits="fraction" yunits="fraction"/></IconStyle><LabelStyle><scale>0.7</scale></LabelStyle></Style>
<Style id="w_vermell_s"><IconStyle><color>ff0000ff</color><scale>1.0</scale><Icon><href>http://maps.google.com/mapfiles/kml/shapes/cabs.png</href></Icon><hotSpot x="0.5" y="0" xunits="fraction" yunits="fraction"/></IconStyle><LabelStyle><scale>0.7</scale></LabelStyle></Style>
<StyleMap id="w_vermell"><Pair><key>normal</key><styleUrl>#w_vermell_n</styleUrl></Pair><Pair><key>highlight</key><styleUrl>#w_vermell_s</styleUrl></Pair></StyleMap>
<Style id="w_vermellC_n"><IconStyle><color>ff0000ff</color><scale>1.0</scale><Icon><href>http://maps.google.com/mapfiles/kml/shapes/truck.png</href></Icon><hotSpot x="0.5" y="0" xunits="fraction" yunits="fraction"/></IconStyle><LabelStyle><scale>0.7</scale></LabelStyle></Style>
<Style id="w_vermellC_s"><IconStyle><color>ff0000ff</color><scale>1.4</scale><Icon><href>http://maps.google.com/mapfiles/kml/shapes/truck.png</href></Icon><hotSpot x="0.5" y="0" xunits="fraction" yunits="fraction"/></IconStyle><LabelStyle><scale>0.7</scale></LabelStyle></Style>
<StyleMap id="w_vermellC"><Pair><key>normal</key><styleUrl>#w_vermellC_n</styleUrl></Pair><Pair><key>highlight</key><styleUrl>#w_vermellC_s</styleUrl></Pair></StyleMap>
<Style id="w_vermellH_n"><IconStyle><color>ff0000ff</color><scale>1.2</scale><Icon><href>http://maps.google.com/mapfiles/kml/shapes/heliport.png</href></Icon><hotSpot x="0.5" y="0" xunits="fraction" yunits="fraction"/></IconStyle><LabelStyle><scale>0.7</scale></LabelStyle></Style>
<Style id="w_vermellH_s"><IconStyle><color>ff0000ff</color><scale>1.4</scale><Icon><href>http://maps.google.com/mapfiles/kml/shapes/heliport.png</href></Icon><hotSpot x="0.5" y="0" xunits="fraction" yunits="fraction"/></IconStyle><LabelStyle><scale>0.7</scale></LabelStyle></Style>
<StyleMap id="w_vermellH"><Pair><key>normal</key><styleUrl>#w_vermellH_n</styleUrl></Pair><Pair><key>highlight</key><styleUrl>#w_vermellH_s</styleUrl></Pair></StyleMap>
<Style id="w_vermellA_n"><IconStyle><color>ff0000ff</color><scale>1.2</scale><Icon><href>http://maps.google.com/mapfiles/kml/shapes/airports.png</href></Icon><hotSpot x="0.5" y="0" xunits="fraction" yunits="fraction"/></IconStyle><LabelStyle><scale>0.7</scale></LabelStyle></Style>
<Style id="w_vermellA_s"><IconStyle><color>ff0000ff</color><scale>1.4</scale><Icon><href>http://maps.google.com/mapfiles/kml/shapes/airports.png</href></Icon><hotSpot x="0.5" y="0" xunits="fraction" yunits="fraction"/></IconStyle><LabelStyle><scale>0.7</scale></LabelStyle></Style>
<StyleMap id="w_vermellA"><Pair><key>normal</key><styleUrl>#w_vermellA_n</styleUrl></Pair><Pair><key>highlight</key><styleUrl>#w_vermellA_s</styleUrl></Pair></StyleMap>
<Style id="w_vermellB_n"><IconStyle><color>ff0000ff</color><scale>1.0</scale><Icon><href>http://maps.google.com/mapfiles/kml/shapes/sailing.png</href></Icon><hotSpot x="0.5" y="0" xunits="fraction" yunits="fraction"/></IconStyle><LabelStyle><scale>0.7</scale></LabelStyle></Style>
<Style id="w_vermellB_s"><IconStyle><color>ff0000ff</color><scale>1.4</scale><Icon><href>http://maps.google.com/mapfiles/kml/shapes/sailing.png</href></Icon><hotSpot x="0.5" y="0" xunits="fraction" yunits="fraction"/></IconStyle><LabelStyle><scale>0.7</scale></LabelStyle></Style>
<StyleMap id="w_vermellB"><Pair><key>normal</key><styleUrl>#w_vermellBAR_n</styleUrl></Pair><Pair><key>highlight</key><styleUrl>#w_vermellBAR_s</styleUrl></Pair></StyleMap>
<Style id="w_descarrega"><IconStyle><color>ff00ffff</color><scale>0.5</scale><Icon><href>http://maps.google.com/mapfiles/kml/shapes/road_shield3.png</href></Icon></IconStyle><LabelStyle><scale>0.7</scale></LabelStyle></Style><Style id="actuacio"><IconStyle><color>ff00ffff</color><scale>0.8</scale><Icon><href>http://maps.google.com/mapfiles/kml/shapes/caution.png</href></Icon></IconStyle><LabelStyle><scale>0.7</scale></LabelStyle></Style></Document></kml>