<?xml version="1.0" encoding="UTF-8"?>
<kml xmlns="http://www.opengis.net/kml/2.2" xmlns:gx="http://www.google.com/kml/ext/2.2" xmlns:kml="http://www.opengis.net/kml/2.2" xmlns:atom="http://www.w3.org/2005/Atom">
<Document>
<name>Terminals</name>
<Snippet maxLines="2">Created 08/08/2018 05:30:54</Snippet>
<Folder>
<name>Terminals</name>
<Placemark><name>GGRAF03</name><description>204203 P.UT
posicio de les: 08/08/2018 05:29:45</description><styleUrl>#w_verdP</styleUrl><Point><coordinates>2.8071141242981,41.9602525234222,0</coordinates></Point></Placemark>
<Placemark><name>GGRAF04</name><description>204204 P.UT
posicio de les: 08/08/2018 05:28:57</description><styleUrl>#w_grocP</styleUrl><Point><coordinates>2.8063952922821,41.9605422019959,0</coordinates></Point></Placemark>
<Placemark><name>GGRAF07</name><description>204207 P.UT
posicio de les: 08/08/2018 05:29:27</description><styleUrl>#w_grocP</styleUrl><Point><coordinates>2.80618071556091,41.9602525234222,0</coordinates></Point></Placemark>
<Placemark><name>LGRAF02</name><description>204302 P.UT
posicio de les: 08/08/2018 05:27:50</description><styleUrl>#w_verdP</styleUrl><Point><coordinates>1.15771651268005,42.0379722118378,0</coordinates></Point></Placemark>
<Placemark><name>LGRAF08</name><description>204308 P.UT
posicio de les: 08/08/2018 05:27:33</description><styleUrl>#w_verdP</styleUrl><Point><coordinates>1.1561393737793,42.0387125015259,0</coordinates></Point></Placemark>
<Placemark><name>04390</name><description>204390 
posicio de les: 08/08/2018 05:30:38</description><styleUrl>#w_verd</styleUrl><Point><coordinates>1.16703987121582,42.0334982872009,0</coordinates></Point></Placemark>
<Placemark><name>05178</name><description>205178 BRAVO
posicio de les: 08/08/2018 05:29:55</description><styleUrl>#w_verd</styleUrl><Point><coordinates>2.09497690200806,41.8185997009277,0</coordinates></Point></Placemark>
<Placemark><name>OP05061</name><description>205261 MAER
posicio de les: 08/08/2018 05:30:00</description><styleUrl>#w_verdP</styleUrl><Point><coordinates>0.987288951873779,41.3119304180145,0</coordinates></Point></Placemark>
<Placemark><name>VIEL12</name><description>208012 P.PT VARAN
posicio de les: 08/08/2018 05:29:59</description><styleUrl>#w_grocP</styleUrl><Point><coordinates>0.801218748092651,42.6996946334839,0</coordinates></Point></Placemark>
<Placemark><name>VIEL17</name><description>208017 BASE CCA VARAN
posicio de les: 08/08/2018 05:29:10</description><styleUrl>#w_groc</styleUrl><Point><coordinates>0.796723365783691,42.7081060409546,0</coordinates></Point></Placemark>
<Placemark><name>10071</name><description>210071  REGIÓ
posicio de les: 08/08/2018 05:29:16</description><styleUrl>#w_groc</styleUrl><Point><coordinates>1.85202240943909,41.7410409450531,0</coordinates></Point></Placemark>
<Placemark><name>10072</name><description>210072  REGIÓ
posicio de les: 08/08/2018 05:29:46</description><styleUrl>#w_groc</styleUrl><Point><coordinates>1.85160398483276,41.7413628101349,0</coordinates></Point></Placemark>
<Placemark><name>10082</name><description>210082  REGIÓ
posicio de les: 08/08/2018 05:30:13</description><styleUrl>#w_groc</styleUrl><Point><coordinates>1.51284098625183,41.9894886016846,0</coordinates></Point></Placemark>
<Placemark><name>CAR05</name><description>210505 PORT CAR (Centre)
posicio de les: 08/08/2018 05:29:33</description><styleUrl>#w_verdP</styleUrl><Point><coordinates>1.70546650886536,41.898078918457,0</coordinates></Point></Placemark>
<Placemark><name>CAB56</name><description>210656 PORT.COM CAB (Centre)
posicio de les: 08/08/2018 05:30:03</description><styleUrl>#w_grocP</styleUrl><Point><coordinates>1.68518900871277,41.665745973587,0</coordinates></Point></Placemark>
<Placemark><name>MAN03</name><description>211003 PORT MAN (Centre)
posicio de les: 08/08/2018 05:30:48</description><styleUrl>#w_verdP</styleUrl><Point><coordinates>1.85255885124207,41.7413628101349,0</coordinates></Point></Placemark>
<Placemark><name>MOI6</name><description>211106 PORT MOI (Centre)
posicio de les: 08/08/2018 05:28:44</description><styleUrl>#w_verdP</styleUrl><Point><coordinates>2.0863401889801,41.8115508556366,0</coordinates></Point></Placemark>
<Placemark><name>PRA03</name><description>211403 PORT PRA (Centre)
posicio de les: 08/08/2018 05:30:29</description><styleUrl>#w_grocP</styleUrl><Point><coordinates>2.03624725341797,42.0080173015594,0</coordinates></Point></Placemark>
<Placemark><name>PRA07</name><description>211407 PORT PRA (Centre)
posicio de les: 08/08/2018 05:29:11</description><styleUrl>#w_verdP</styleUrl><Point><coordinates>2.03612923622131,42.0080494880676,0</coordinates></Point></Placemark>
<Placemark><name>TOR02</name><description>212002 PORT TOR (Centre)
posicio de les: 08/08/2018 05:30:09</description><styleUrl>#w_grocP</styleUrl><Point><coordinates>2.26720690727234,42.0485830307007,0</coordinates></Point></Placemark>
<Placemark><name>12030</name><description>212030 BRP TOR (Centre)
posicio de les: 08/08/2018 05:29:27</description><styleUrl>#w_grocC</styleUrl><Point><coordinates>2.2671103477478,42.0485079288483,0</coordinates></Point></Placemark>
<Placemark><name>217224</name><description>217224 P.GUAITA GUAITA
posicio de les: 08/08/2018 05:30:29</description><styleUrl>#w_grocP</styleUrl><Point><coordinates>2.0365047454834,42.0079636573792,0</coordinates></Point></Placemark>
<Placemark><name>E0REG</name><description>220012 P.Tec REGIÓ
posicio de les: 08/08/2018 05:30:03</description><styleUrl>#w_verdP</styleUrl><Point><coordinates>3.16079020500183,42.2763669490814,0</coordinates></Point></Placemark>
<Placemark><name>AMER57</name><description>220157 PORT.COM AMER (Girona)
posicio de les: 08/08/2018 05:27:41</description><styleUrl>#w_grocP</styleUrl><Point><coordinates>2.5963032245636,42.0104742050171,0</coordinates></Point></Placemark>
<Placemark><name>CASS56</name><description>220856 PORT.COM CASS (Girona)
posicio de les: 08/08/2018 05:28:24</description><styleUrl>#w_grocP</styleUrl><Point><coordinates>2.88427591323853,41.8795073032379,0</coordinates></Point></Placemark>
<Placemark><name>20880</name><description>220880 UPCL/USL CASS (Girona)
posicio de les: 08/08/2018 05:26:02</description><styleUrl>#w_verd</styleUrl><Point><coordinates>2.88549900054932,41.8794643878937,0</coordinates></Point></Placemark>
<Placemark><name>20930</name><description>220930 BRP ESCA (Girona)
posicio de les: 08/08/2018 05:27:59</description><styleUrl>#w_grocC</styleUrl><Point><coordinates>3.12721967697144,42.1153593063354,0</coordinates></Point></Placemark>
<Placemark><name>21190</name><description>221190 UPC GIRO (Girona)
posicio de les: 08/08/2018 05:29:30</description><styleUrl>#w_groc</styleUrl><Point><coordinates>2.80649185180664,41.9606709480286,0</coordinates></Point></Placemark>
<Placemark><name>JONQ56</name><description>221356 PORT.COM JONQ (Girona)
posicio de les: 08/08/2018 05:29:06</description><styleUrl>#w_grocP</styleUrl><Point><coordinates>2.87663698196411,42.4119579792023,0</coordinates></Point></Placemark>
<Placemark><name>LLAN57</name><description>221457 PORT.COM LLAN (Girona)
posicio de les: 08/08/2018 05:30:35</description><styleUrl>#w_verdP</styleUrl><Point><coordinates>3.15306544303894,42.3574340343475,0</coordinates></Point></Placemark>
<Placemark><name>21630</name><description>221630 BRP MACA (Girona)
posicio de les: 08/08/2018 05:30:47</description><styleUrl>#w_grocC</styleUrl><Point><coordinates>2.75298714637756,41.7794501781464,0</coordinates></Point></Placemark>
<Placemark><name>21655</name><description>221655 FSV/FRQ/FER/FRM/FRA/FSA MACA (Girona)
posicio de les: 08/08/2018 05:30:29</description><styleUrl>#w_grocC</styleUrl><Point><coordinates>2.75307297706604,41.7794287204742,0</coordinates></Point></Placemark>
<Placemark><name>MAÇA57</name><description>221657 PORT.COM MACA (Girona)
posicio de les: 08/08/2018 05:29:26</description><styleUrl>#w_grocP</styleUrl><Point><coordinates>2.7531373500824,41.7793536186218,0</coordinates></Point></Placemark>
<Placemark><name>PALA56</name><description>221856 PORT.COM PALA (Girona)
posicio de les: 08/08/2018 05:29:20</description><styleUrl>#w_grocP</styleUrl><Point><coordinates>3.156498670578,41.9256091117859,0</coordinates></Point></Placemark>
<Placemark><name>21890</name><description>221890 UPC PALA (Girona)
posicio de les: 08/08/2018 05:28:42</description><styleUrl>#w_groc</styleUrl><Point><coordinates>3.15632700920105,41.9258451461792,0</coordinates></Point></Placemark>
<Placemark><name>RIPO56</name><description>222156 PORT.COM RIPO (Girona)
posicio de les: 08/08/2018 05:27:53</description><styleUrl>#w_verdP</styleUrl><Point><coordinates>2.16743946075439,42.2151589393616,0</coordinates></Point></Placemark>
<Placemark><name>ROSE06</name><description>222206 PORT ROSE (Girona)
posicio de les: 08/08/2018 05:30:50</description><styleUrl>#w_verdP</styleUrl><Point><coordinates>3.16071510314941,42.2764849662781,0</coordinates></Point></Placemark>
<Placemark><name>VALL57</name><description>222857 PORT.COM VALL (Girona)
posicio de les: 08/08/2018 05:30:47</description><styleUrl>#w_grocP</styleUrl><Point><coordinates>3.03184032440186,41.8086755275726,0</coordinates></Point></Placemark>
<Placemark><name>I308</name><description>227308 P.GUAITA GUAITA
posicio de les: 08/08/2018 05:26:17</description><styleUrl>#w_verdP</styleUrl><Point><coordinates>3.15585494041443,41.9257378578186,0</coordinates></Point></Placemark>
<Placemark><name>D3REG</name><description>228043  SERVEIS REGIÓ
posicio de les: 08/08/2018 05:29:07</description><styleUrl>#w_verd</styleUrl><Point><coordinates>2.80659914016724,41.9602203369141,0</coordinates></Point></Placemark>
<Placemark><name>D0REL</name><description>230010 P.CG REGIÓ
posicio de les: 08/08/2018 05:30:41</description><styleUrl>#w_verdP</styleUrl><Point><coordinates>0.604569911956787,41.6238284111023,0</coordinates></Point></Placemark>
<Placemark><name>RELL12</name><description>230012 P.Tec REGIÓ
posicio de les: 08/08/2018 05:27:58</description><styleUrl>#w_grocP</styleUrl><Point><coordinates>1.22831225395203,42.5586533546448,0</coordinates></Point></Placemark>
<Placemark><name>30096</name><description>230096  REGIÓ
posicio de les: 08/08/2018 05:26:23</description><styleUrl>#w_groc</styleUrl><Point><coordinates>1.14399433135986,42.045224905014,0</coordinates></Point></Placemark>
<Placemark><name>AGRA01</name><description>230201 PORT AGRA (Lleida)
posicio de les: 08/08/2018 05:30:49</description><styleUrl>#w_verdP</styleUrl><Point><coordinates>1.05018138885498,41.7976891994476,0</coordinates></Point></Placemark>
<Placemark><name>ALMA07</name><description>230307 PORT ALMA (Lleida)
posicio de les: 08/08/2018 05:29:07</description><styleUrl>#w_grocP</styleUrl><Point><coordinates>0.442832708358765,41.7295396327972,0</coordinates></Point></Placemark>
<Placemark><name>ARTE04</name><description>230504 PORT ARTE (Lleida)
posicio de les: 08/08/2018 05:30:35</description><styleUrl>#w_verdP</styleUrl><Point><coordinates>1.17269396781921,42.0247435569763,0</coordinates></Point></Placemark>
<Placemark><name>30590</name><description>230590 UPC ARTE (Lleida)
posicio de les: 08/08/2018 05:30:53</description><styleUrl>#w_verd</styleUrl><Point><coordinates>1.17235064506531,42.0223617553711,0</coordinates></Point></Placemark>
<Placemark><name>30630</name><description>230630 BRP BALA (Lleida)
posicio de les: 08/08/2018 05:30:54</description><styleUrl>#w_grocC</styleUrl><Point><coordinates>1.17524743080139,42.029732465744,0</coordinates></Point></Placemark>
<Placemark><name>BALA56</name><description>230656 PORT.COM BALA (Lleida)
posicio de les: 08/08/2018 05:29:06</description><styleUrl>#w_verdP</styleUrl><Point><coordinates>1.14395141601563,42.0451927185059,0</coordinates></Point></Placemark>
<Placemark><name>BORG05</name><description>230705 PORT BORG (Lleida)
posicio de les: 08/08/2018 05:30:19</description><styleUrl>#w_grocP</styleUrl><Point><coordinates>0.844745635986328,41.507431268692,0</coordinates></Point></Placemark>
<Placemark><name>32234</name><description>232234 BFP OLIA (Lleida)
posicio de les: 08/08/2018 05:26:07</description><styleUrl>#w_grocC</styleUrl><Point><coordinates>1.14383339881897,42.0452034473419,0</coordinates></Point></Placemark>
<Placemark><name>POBL01</name><description>232401 PORT POBL (Lleida)
posicio de les: 08/08/2018 05:30:26</description><styleUrl>#w_verdP</styleUrl><Point><coordinates>0.964393615722656,42.2390413284302,0</coordinates></Point></Placemark>
<Placemark><name>PONS01</name><description>232601 PORT PONS (Lleida)
posicio de les: 08/08/2018 05:30:25</description><styleUrl>#w_verdP</styleUrl><Point><coordinates>1.1955463886261,41.9049346446991,0</coordinates></Point></Placemark>
<Placemark><name>32634</name><description>232634 BFP PONS (Lleida)
posicio de les: 08/08/2018 05:27:41</description><styleUrl>#w_grocC</styleUrl><Point><coordinates>1.17522597312927,42.0297861099243,0</coordinates></Point></Placemark>
<Placemark><name>PONS56</name><description>232656 PORT.COM PONS (Lleida)
posicio de les: 08/08/2018 05:30:21</description><styleUrl>#w_verdP</styleUrl><Point><coordinates>1.14392995834351,42.0453643798828,0</coordinates></Point></Placemark>
<Placemark><name>SORT04</name><description>233004 PORT SORT (Lleida)
posicio de les: 08/08/2018 05:28:45</description><styleUrl>#w_verdP</styleUrl><Point><coordinates>1.22918128967285,42.5590395927429,0</coordinates></Point></Placemark>
<Placemark><name>TAR02</name><description>233102 PORT TAR (Lleida)
posicio de les: 08/08/2018 05:29:13</description><styleUrl>#w_verdP</styleUrl><Point><coordinates>1.14934802055359,41.6509509086609,0</coordinates></Point></Placemark>
<Placemark><name>GE0REMN</name><description>240013 P.Tec REGIÓ
posicio de les: 08/08/2018 05:30:47</description><styleUrl>#w_verdP</styleUrl><Point><coordinates>2.50667452812195,41.69508934021,0</coordinates></Point></Placemark>
<Placemark><name>40091</name><description>240091  REGIÓ
posicio de les: 08/08/2018 05:28:44</description><styleUrl>#w_groc</styleUrl><Point><coordinates>2.11168169975281,41.5024960041046,0</coordinates></Point></Placemark>
<Placemark><name>40290</name><description>240290 UPC BAD (Metro. Nord)
posicio de les: 08/08/2018 05:27:03</description><styleUrl>#w_groc</styleUrl><Point><coordinates>2.02584028244019,41.5678560733795,0</coordinates></Point></Placemark>
<Placemark><name>40660</name><description>240660 AEA/AES/ABA GRA (Metro. Nord)
posicio de les: 08/08/2018 05:28:38</description><styleUrl>#w_grocC</styleUrl><Point><coordinates>2.27364420890808,41.5876722335815,0</coordinates></Point></Placemark>
<Placemark><name>MOL03</name><description>241003 PORT MOL (Metro. Nord)
posicio de les: 08/08/2018 05:30:22</description><styleUrl>#w_verdP</styleUrl><Point><coordinates>2.20123529434204,41.5371072292328,0</coordinates></Point></Placemark>
<Placemark><name>41260</name><description>241260 AEA/AES/ABA PIN (Metro. Nord)
posicio de les: 08/08/2018 05:28:21</description><styleUrl>#w_grocC</styleUrl><Point><coordinates>2.27584362030029,41.5903222560883,0</coordinates></Point></Placemark>
<Placemark><name>RUB01</name><description>241301 PORT RUB (Metro. Nord)
posicio de les: 08/08/2018 05:27:17</description><styleUrl>#w_verdP</styleUrl><Point><coordinates>2.03524947166443,41.4730024337769,0</coordinates></Point></Placemark>
<Placemark><name>SAB01</name><description>241401 PORT SAB (Metro. Nord)
posicio de les: 08/08/2018 05:30:55</description><styleUrl>#w_verdP</styleUrl><Point><coordinates>2.10424661636353,41.5426218509674,0</coordinates></Point></Placemark>
<Placemark><name>41640</name><description>241640 BUP SCE (Metro. Nord)
posicio de les: 08/08/2018 05:30:17</description><styleUrl>#w_grocC</styleUrl><Point><coordinates>2.50691056251526,41.6951858997345,0</coordinates></Point></Placemark>
<Placemark><name>TER09</name><description>242009 PORT TER (Metro. Nord)
posicio de les: 08/08/2018 05:29:15</description><styleUrl>#w_grocP</styleUrl><Point><coordinates>2.02594757080078,41.5681135654449,0</coordinates></Point></Placemark>
<Placemark><name>TOD56</name><description>242156 PORT.COM TOD (Metro. Nord)
posicio de les: 08/08/2018 05:28:03</description><styleUrl>#w_verdP</styleUrl><Point><coordinates>2.71697044372559,41.6914522647858,0</coordinates></Point></Placemark>
<Placemark><name>50071</name><description>250071  REGIÓ
posicio de les: 08/08/2018 05:28:47</description><styleUrl>#w_groc</styleUrl><Point><coordinates>2.03406929969788,41.3227880001068,0</coordinates></Point></Placemark>
<Placemark><name>50093</name><description>250093  REGIÓ
posicio de les: 08/08/2018 05:27:45</description><styleUrl>#w_groc</styleUrl><Point><coordinates>2.03431606292725,41.3229060173035,0</coordinates></Point></Placemark>
<Placemark><name>COR03</name><description>250403 PORT COR (Metro. Sud)
posicio de les: 08/08/2018 05:30:36</description><styleUrl>#w_verdP</styleUrl><Point><coordinates>2.06993579864502,41.3606071472168,0</coordinates></Point></Placemark>
<Placemark><name>GAV11</name><description>250511 PORT GAV (Metro. Sud)
posicio de les: 08/08/2018 05:30:13</description><styleUrl>#w_verdP</styleUrl><Point><coordinates>1.99062824249268,41.2999248504639,0</coordinates></Point></Placemark>
<Placemark><name>GAV57</name><description>250557 PORT.COM GAV (Metro. Sud)
posicio de les: 08/08/2018 05:28:33</description><styleUrl>#w_grocP</styleUrl><Point><coordinates>1.99034929275513,41.3001823425293,0</coordinates></Point></Placemark>
<Placemark><name>51030</name><description>251030 BRP MAR (Metro. Sud)
posicio de les: 08/08/2018 05:28:30</description><styleUrl>#w_grocC</styleUrl><Point><coordinates>1.90802693367004,41.498955488205,0</coordinates></Point></Placemark>
<Placemark><name>MAR56</name><description>251056 PORT.COM MAR (Metro. Sud)
posicio de les: 08/08/2018 05:30:43</description><styleUrl>#w_verdP</styleUrl><Point><coordinates>1.90788745880127,41.4986443519592,0</coordinates></Point></Placemark>
<Placemark><name>MAR57</name><description>251057 PORT.COM MAR (Metro. Sud)
posicio de les: 08/08/2018 05:29:30</description><styleUrl>#w_verdP</styleUrl><Point><coordinates>1.90800547599792,41.4989233016968,0</coordinates></Point></Placemark>
<Placemark><name>SBOI02</name><description>251302 PORT SBOI (Metro. Sud)
posicio de les: 08/08/2018 05:29:55</description><styleUrl>#w_grocP</styleUrl><Point><coordinates>2.03464865684509,41.3223588466644,0</coordinates></Point></Placemark>
<Placemark><name>SBOI04</name><description>251304 PORT SBOI (Metro. Sud)
posicio de les: 08/08/2018 05:30:40</description><styleUrl>#w_verdP</styleUrl><Point><coordinates>2.03435897827148,41.3227343559265,0</coordinates></Point></Placemark>
<Placemark><name>SBOI07</name><description>251307 PORT SBOI (Metro. Sud)
posicio de les: 08/08/2018 05:30:52</description><styleUrl>#w_grocP</styleUrl><Point><coordinates>2.03381180763245,41.322648525238,0</coordinates></Point></Placemark>
<Placemark><name>SBOI56</name><description>251356 PORT.COM SBOI (Metro. Sud)
posicio de les: 08/08/2018 05:29:03</description><styleUrl>#w_grocP</styleUrl><Point><coordinates>2.03450918197632,41.3221120834351,0</coordinates></Point></Placemark>
<Placemark><name>SFE56</name><description>251556 PORT.COM SFE (Metro. Sud)
posicio de les: 08/08/2018 05:30:01</description><styleUrl>#w_grocP</styleUrl><Point><coordinates>2.04311370849609,41.3886415958405,0</coordinates></Point></Placemark>
<Placemark><name>SIT03</name><description>251703 PORT SIT (Metro. Sud)
posicio de les: 08/08/2018 05:27:20</description><styleUrl>#w_verdP</styleUrl><Point><coordinates>1.80947184562683,41.2412810325623,0</coordinates></Point></Placemark>
<Placemark><name>51780</name><description>251780 UPCL/USL SIT (Metro. Sud)
posicio de les: 08/08/2018 05:26:33</description><styleUrl>#w_groc</styleUrl><Point><coordinates>1.7138135433197,41.2202310562134,0</coordinates></Point></Placemark>
<Placemark><name>D1REMS</name><description>258041  SERVEIS REGIÓ
posicio de les: 08/08/2018 05:29:24</description><styleUrl>#w_verd</styleUrl><Point><coordinates>2.03214883804321,41.3224768638611,0</coordinates></Point></Placemark>
<Placemark><name>60850</name><description>260850 FSV/FRQ/FER/FRM/FRA/FSA REUS (Tarragona)
posicio de les: 08/08/2018 05:28:41</description><styleUrl>#w_grocC</styleUrl><Point><coordinates>1.06303453445435,41.1365783214569,0</coordinates></Point></Placemark>
<Placemark><name>TARR03</name><description>261203 PORT TARR (Tarragona)
posicio de les: 08/08/2018 05:29:39</description><styleUrl>#w_verdP</styleUrl><Point><coordinates>1.22153162956238,41.1135542392731,0</coordinates></Point></Placemark>
<Placemark><name>E00RETE</name><description>270014 P.Tec REGIÓ
posicio de les: 08/08/2018 05:30:50</description><styleUrl>#w_verdP</styleUrl><Point><coordinates>0.513406991958618,40.8191013336182,0</coordinates></Point></Placemark>
<Placemark><name>AMPO57</name><description>272157 PORT.COM AMPO (Terres de l'Ebre)
posicio de les: 08/08/2018 05:30:39</description><styleUrl>#w_grocP</styleUrl><Point><coordinates>0.579571723937988,40.6894969940186,0</coordinates></Point></Placemark>
<Placemark><name>ASCO05</name><description>272205 PORT ASCO (Terres de l'Ebre)
posicio de les: 08/08/2018 05:29:49</description><styleUrl>#w_verdP</styleUrl><Point><coordinates>0.568842887878418,41.1878192424774,0</coordinates></Point></Placemark>
<Placemark><name>ULLD08</name><description>273108 PORT ULLD (Terres de l'Ebre)
posicio de les: 08/08/2018 05:29:23</description><styleUrl>#w_verdP</styleUrl><Point><coordinates>0.358203649520874,40.6089019775391,0</coordinates></Point></Placemark>
<Placemark><name>CMTE56</name><description>274556 PORT.COM Parc X
posicio de les: 08/08/2018 05:29:29</description><styleUrl>#w_verdP</styleUrl><Point><coordinates>0.579153299331665,40.6895077228546,0</coordinates></Point></Placemark>
<Placemark><name>92078</name><description>292078 UE SST
posicio de les: 08/08/2018 05:29:27</description><styleUrl>#w_groc</styleUrl><Point><coordinates>1.92695260047913,41.4823472499847,0</coordinates></Point></Placemark>
<Placemark><name>93080</name><description>293080 UPCL/USL ESC
posicio de les: 08/08/2018 05:29:19</description><styleUrl>#w_groc</styleUrl><Point><coordinates>2.11274385452271,41.501669883728,0</coordinates></Point></Placemark>
</Folder>
<Folder>
<name>Descarregues</name>
</Folder>
<Style id="w_verdP_n"><IconStyle><color>ff00ff00</color><scale>1.0</scale><Icon><href>http://maps.google.com/mapfiles/kml/shapes/man.png</href></Icon><hotSpot x="0.5" y="0" xunits="fraction" yunits="fraction"/></IconStyle><LabelStyle><scale>0.7</scale></LabelStyle></Style>
<Style id="w_verdP_s"><IconStyle><color>ff00ff00</color><scale>1.4</scale><Icon><href>http://maps.google.com/mapfiles/kml/shapes/man.png</href></Icon><hotSpot x="0.5" y="0" xunits="fraction" yunits="fraction"/></IconStyle><LabelStyle><scale>0.7</scale></LabelStyle></Style>
<StyleMap id="w_verdP"><Pair><key>normal</key><styleUrl>#w_verdP_n</styleUrl></Pair><Pair><key>highlight</key><styleUrl>#w_verdP_s</styleUrl></Pair></StyleMap>
<Style id="w_verd_n"><IconStyle><color>ff00ff00</color><scale>0.7</scale><Icon><href>http://maps.google.com/mapfiles/kml/shapes/cabs.png</href></Icon><hotSpot x="0.5" y="0" xunits="fraction" yunits="fraction"/></IconStyle><LabelStyle><scale>0.7</scale></LabelStyle></Style>
<Style id="w_verd_s"><IconStyle><color>ff00ff00</color><scale>1.0</scale><Icon><href>http://maps.google.com/mapfiles/kml/shapes/cabs.png</href></Icon><hotSpot x="0.5" y="0" xunits="fraction" yunits="fraction"/></IconStyle><LabelStyle><scale>0.7</scale></LabelStyle></Style>
<StyleMap id="w_verd"><Pair><key>normal</key><styleUrl>#w_verd_n</styleUrl></Pair><Pair><key>highlight</key><styleUrl>#w_verd_s</styleUrl></Pair></StyleMap>
<Style id="w_verdC_n"><IconStyle><color>ff00ff00</color><scale>1.0</scale><Icon><href>http://maps.google.com/mapfiles/kml/shapes/truck.png</href></Icon><hotSpot x="0.5" y="0" xunits="fraction" yunits="fraction"/></IconStyle><LabelStyle><scale>0.7</scale></LabelStyle></Style>
<Style id="w_verdC_s"><IconStyle><color>ff00ff00</color><scale>1.4</scale><Icon><href>http://maps.google.com/mapfiles/kml/shapes/truck.png</href></Icon><hotSpot x="0.5" y="0" xunits="fraction" yunits="fraction"/></IconStyle><LabelStyle><scale>0.7</scale></LabelStyle></Style>
<StyleMap id="w_verdC"><Pair><key>normal</key><styleUrl>#w_verdC_n</styleUrl></Pair><Pair><key>highlight</key><styleUrl>#w_verdC_s</styleUrl></Pair></StyleMap>
<Style id="w_verdH_n"><IconStyle><color>ff0000ff</color><scale>1.2</scale><Icon><href>http://maps.google.com/mapfiles/kml/shapes/heliport.png</href></Icon><hotSpot x="0.5" y="0" xunits="fraction" yunits="fraction"/></IconStyle><LabelStyle><scale>0.7</scale></LabelStyle></Style>
<Style id="w_verdH_s"><IconStyle><color>ff0000ff</color><scale>1.4</scale><Icon><href>http://maps.google.com/mapfiles/kml/shapes/heliport.png</href></Icon><hotSpot x="0.5" y="0" xunits="fraction" yunits="fraction"/></IconStyle><LabelStyle><scale>0.7</scale></LabelStyle></Style>
<StyleMap id="w_verdH"><Pair><key>normal</key><styleUrl>#w_verdH_n</styleUrl></Pair><Pair><key>highlight</key><styleUrl>#w_verdH_s</styleUrl></Pair></StyleMap>
<Style id="w_verdA_n"><IconStyle><color>ff0000ff</color><scale>1.2</scale><Icon><href>http://maps.google.com/mapfiles/kml/shapes/airports.png</href></Icon><hotSpot x="0.5" y="0" xunits="fraction" yunits="fraction"/></IconStyle><LabelStyle><scale>0.7</scale></LabelStyle></Style>
<Style id="w_verdA_s"><IconStyle><color>ff0000ff</color><scale>1.4</scale><Icon><href>http://maps.google.com/mapfiles/kml/shapes/airports.png</href></Icon><hotSpot x="0.5" y="0" xunits="fraction" yunits="fraction"/></IconStyle><LabelStyle><scale>0.7</scale></LabelStyle></Style>
<StyleMap id="w_verdA"><Pair><key>normal</key><styleUrl>#w_verdA_n</styleUrl></Pair><Pair><key>highlight</key><styleUrl>#w_verdA_s</styleUrl></Pair></StyleMap>
<Style id="w_verdB_n"><IconStyle><color>ff00ff00</color><scale>1.0</scale><Icon><href>http://maps.google.com/mapfiles/kml/shapes/sailing.png</href></Icon><hotSpot x="0.5" y="0" xunits="fraction" yunits="fraction"/></IconStyle><LabelStyle><scale>0.7</scale></LabelStyle></Style>
<Style id="w_verdB_s"><IconStyle><color>ff00ff00</color><scale>1.4</scale><Icon><href>http://maps.google.com/mapfiles/kml/shapes/sailing.png</href></Icon><hotSpot x="0.5" y="0" xunits="fraction" yunits="fraction"/></IconStyle><LabelStyle><scale>0.7</scale></LabelStyle></Style>
<StyleMap id="w_verdB"><Pair><key>normal</key><styleUrl>#w_verdBAR_n</styleUrl></Pair><Pair><key>highlight</key><styleUrl>#w_verdBAR_s</styleUrl></Pair></StyleMap>
<Style id="w_grocP_n"><IconStyle><color>ff00ffff</color><scale>1.0</scale><Icon><href>http://maps.google.com/mapfiles/kml/shapes/man.png</href></Icon><hotSpot x="0.5" y="0" xunits="fraction" yunits="fraction"/></IconStyle><LabelStyle><scale>0.7</scale></LabelStyle></Style>
<Style id="w_grocP_s"><IconStyle><color>ff00ffff</color><scale>1.4</scale><Icon><href>http://maps.google.com/mapfiles/kml/shapes/man.png</href></Icon><hotSpot x="0.5" y="0" xunits="fraction" yunits="fraction"/></IconStyle><LabelStyle><scale>0.7</scale></LabelStyle></Style>
<StyleMap id="w_grocP"><Pair><key>normal</key><styleUrl>#w_grocP_n</styleUrl></Pair><Pair><key>highlight</key><styleUrl>#w_grocP_s</styleUrl></Pair></StyleMap>
<Style id="w_groc_n"><IconStyle><color>ff00ffff</color><scale>0.7</scale><Icon><href>http://maps.google.com/mapfiles/kml/shapes/cabs.png</href></Icon><hotSpot x="0.5" y="0" xunits="fraction" yunits="fraction"/></IconStyle><LabelStyle><scale>0.7</scale></LabelStyle></Style>
<Style id="w_groc_s"><IconStyle><color>ff00ffff</color><scale>1.0</scale><Icon><href>http://maps.google.com/mapfiles/kml/shapes/cabs.png</href></Icon><hotSpot x="0.5" y="0" xunits="fraction" yunits="fraction"/></IconStyle><LabelStyle><scale>0.7</scale></LabelStyle></Style>
<StyleMap id="w_groc"><Pair><key>normal</key><styleUrl>#w_groc_n</styleUrl></Pair><Pair><key>highlight</key><styleUrl>#w_groc_s</styleUrl></Pair></StyleMap>
<Style id="w_grocC_n"><IconStyle><color>ff00ffff</color><scale>1.0</scale><Icon><href>http://maps.google.com/mapfiles/kml/shapes/truck.png</href></Icon><hotSpot x="0.5" y="0" xunits="fraction" yunits="fraction"/></IconStyle><LabelStyle><scale>0.7</scale></LabelStyle></Style>
<Style id="w_grocC_s"><IconStyle><color>ff00ffff</color><scale>1.4</scale><Icon><href>http://maps.google.com/mapfiles/kml/shapes/truck.png</href></Icon><hotSpot x="0.5" y="0" xunits="fraction" yunits="fraction"/></IconStyle><LabelStyle><scale>0.7</scale></LabelStyle></Style>
<StyleMap id="w_grocC"><Pair><key>normal</key><styleUrl>#w_grocC_n</styleUrl></Pair><Pair><key>highlight</key><styleUrl>#w_grocC_s</styleUrl></Pair></StyleMap>
<Style id="w_grocH_n"><IconStyle><color>ff0000ff</color><scale>1.2</scale><Icon><href>http://maps.google.com/mapfiles/kml/shapes/heliport.png</href></Icon><hotSpot x="0.5" y="0" xunits="fraction" yunits="fraction"/></IconStyle><LabelStyle><scale>0.7</scale></LabelStyle></Style>
<Style id="w_grocH_s"><IconStyle><color>ff0000ff</color><scale>1.4</scale><Icon><href>http://maps.google.com/mapfiles/kml/shapes/heliport.png</href></Icon><hotSpot x="0.5" y="0" xunits="fraction" yunits="fraction"/></IconStyle><LabelStyle><scale>0.7</scale></LabelStyle></Style>
<StyleMap id="w_grocH"><Pair><key>normal</key><styleUrl>#w_grocH_n</styleUrl></Pair><Pair><key>highlight</key><styleUrl>#w_grocH_s</styleUrl></Pair></StyleMap>
<Style id="w_grocA_n"><IconStyle><color>ff0000ff</color><scale>1.2</scale><Icon><href>http://maps.google.com/mapfiles/kml/shapes/airports.png</href></Icon><hotSpot x="0.5" y="0" xunits="fraction" yunits="fraction"/></IconStyle><LabelStyle><scale>0.7</scale></LabelStyle></Style>
<Style id="w_grocA_s"><IconStyle><color>ff0000ff</color><scale>1.4</scale><Icon><href>http://maps.google.com/mapfiles/kml/shapes/airports.png</href></Icon><hotSpot x="0.5" y="0" xunits="fraction" yunits="fraction"/></IconStyle><LabelStyle><scale>0.7</scale></LabelStyle></Style>
<StyleMap id="w_grocA"><Pair><key>normal</key><styleUrl>#w_grocA_n</styleUrl></Pair><Pair><key>highlight</key><styleUrl>#w_grocA_s</styleUrl></Pair></StyleMap>
<Style id="w_grocB_n"><IconStyle><color>ff00ffff</color><scale>1.0</scale><Icon><href>http://maps.google.com/mapfiles/kml/shapes/sailing.png</href></Icon><hotSpot x="0.5" y="0" xunits="fraction" yunits="fraction"/></IconStyle><LabelStyle><scale>0.7</scale></LabelStyle></Style>
<Style id="w_grocB_s"><IconStyle><color>ff00ffff</color><scale>1.4</scale><Icon><href>http://maps.google.com/mapfiles/kml/shapes/sailing.png</href></Icon><hotSpot x="0.5" y="0" xunits="fraction" yunits="fraction"/></IconStyle><LabelStyle><scale>0.7</scale></LabelStyle></Style>
<StyleMap id="w_grocB"><Pair><key>normal</key><styleUrl>#w_grocBAR_n</styleUrl></Pair><Pair><key>highlight</key><styleUrl>#w_grocBAR_s</styleUrl></Pair></StyleMap>
<Style id="w_vermellP_n"><IconStyle><color>ff0000ff</color><scale>1.0</scale><Icon><href>http://maps.google.com/mapfiles/kml/shapes/man.png</href></Icon><hotSpot x="0.5" y="0" xunits="fraction" yunits="fraction"/></IconStyle><LabelStyle><scale>0.7</scale></LabelStyle></Style>
<Style id="w_vermellP_s"><IconStyle><color>ff0000ff</color><scale>1.4</scale><Icon><href>http://maps.google.com/mapfiles/kml/shapes/man.png</href></Icon><hotSpot x="0.5" y="0" xunits="fraction" yunits="fraction"/></IconStyle><LabelStyle><scale>0.7</scale></LabelStyle></Style>
<StyleMap id="w_vermellP"><Pair><key>normal</key><styleUrl>#w_vermellP_n</styleUrl></Pair><Pair><key>highlight</key><styleUrl>#w_vermellP_s</styleUrl></Pair></StyleMap>
<Style id="w_vermell_n"><IconStyle><color>ff0000ff</color><scale>0.7</scale><Icon><href>http://maps.google.com/mapfiles/kml/shapes/cabs.png</href></Icon><hotSpot x="0.5" y="0" xunits="fraction" yunits="fraction"/></IconStyle><LabelStyle><scale>0.7</scale></LabelStyle></Style>
<Style id="w_vermell_s"><IconStyle><color>ff0000ff</color><scale>1.0</scale><Icon><href>http://maps.google.com/mapfiles/kml/shapes/cabs.png</href></Icon><hotSpot x="0.5" y="0" xunits="fraction" yunits="fraction"/></IconStyle><LabelStyle><scale>0.7</scale></LabelStyle></Style>
<StyleMap id="w_vermell"><Pair><key>normal</key><styleUrl>#w_vermell_n</styleUrl></Pair><Pair><key>highlight</key><styleUrl>#w_vermell_s</styleUrl></Pair></StyleMap>
<Style id="w_vermellC_n"><IconStyle><color>ff0000ff</color><scale>1.0</scale><Icon><href>http://maps.google.com/mapfiles/kml/shapes/truck.png</href></Icon><hotSpot x="0.5" y="0" xunits="fraction" yunits="fraction"/></IconStyle><LabelStyle><scale>0.7</scale></LabelStyle></Style>
<Style id="w_vermellC_s"><IconStyle><color>ff0000ff</color><scale>1.4</scale><Icon><href>http://maps.google.com/mapfiles/kml/shapes/truck.png</href></Icon><hotSpot x="0.5" y="0" xunits="fraction" yunits="fraction"/></IconStyle><LabelStyle><scale>0.7</scale></LabelStyle></Style>
<StyleMap id="w_vermellC"><Pair><key>normal</key><styleUrl>#w_vermellC_n</styleUrl></Pair><Pair><key>highlight</key><styleUrl>#w_vermellC_s</styleUrl></Pair></StyleMap>
<Style id="w_vermellH_n"><IconStyle><color>ff0000ff</color><scale>1.2</scale><Icon><href>http://maps.google.com/mapfiles/kml/shapes/heliport.png</href></Icon><hotSpot x="0.5" y="0" xunits="fraction" yunits="fraction"/></IconStyle><LabelStyle><scale>0.7</scale></LabelStyle></Style>
<Style id="w_vermellH_s"><IconStyle><color>ff0000ff</color><scale>1.4</scale><Icon><href>http://maps.google.com/mapfiles/kml/shapes/heliport.png</href></Icon><hotSpot x="0.5" y="0" xunits="fraction" yunits="fraction"/></IconStyle><LabelStyle><scale>0.7</scale></LabelStyle></Style>
<StyleMap id="w_vermellH"><Pair><key>normal</key><styleUrl>#w_vermellH_n</styleUrl></Pair><Pair><key>highlight</key><styleUrl>#w_vermellH_s</styleUrl></Pair></StyleMap>
<Style id="w_vermellA_n"><IconStyle><color>ff0000ff</color><scale>1.2</scale><Icon><href>http://maps.google.com/mapfiles/kml/shapes/airports.png</href></Icon><hotSpot x="0.5" y="0" xunits="fraction" yunits="fraction"/></IconStyle><LabelStyle><scale>0.7</scale></LabelStyle></Style>
<Style id="w_vermellA_s"><IconStyle><color>ff0000ff</color><scale>1.4</scale><Icon><href>http://maps.google.com/mapfiles/kml/shapes/airports.png</href></Icon><hotSpot x="0.5" y="0" xunits="fraction" yunits="fraction"/></IconStyle><LabelStyle><scale>0.7</scale></LabelStyle></Style>
<StyleMap id="w_vermellA"><Pair><key>normal</key><styleUrl>#w_vermellA_n</styleUrl></Pair><Pair><key>highlight</key><styleUrl>#w_vermellA_s</styleUrl></Pair></StyleMap>
<Style id="w_vermellB_n"><IconStyle><color>ff0000ff</color><scale>1.0</scale><Icon><href>http://maps.google.com/mapfiles/kml/shapes/sailing.png</href></Icon><hotSpot x="0.5" y="0" xunits="fraction" yunits="fraction"/></IconStyle><LabelStyle><scale>0.7</scale></LabelStyle></Style>
<Style id="w_vermellB_s"><IconStyle><color>ff0000ff</color><scale>1.4</scale><Icon><href>http://maps.google.com/mapfiles/kml/shapes/sailing.png</href></Icon><hotSpot x="0.5" y="0" xunits="fraction" yunits="fraction"/></IconStyle><LabelStyle><scale>0.7</scale></LabelStyle></Style>
<StyleMap id="w_vermellB"><Pair><key>normal</key><styleUrl>#w_vermellBAR_n</styleUrl></Pair><Pair><key>highlight</key><styleUrl>#w_vermellBAR_s</styleUrl></Pair></StyleMap>
<Style id="w_descarrega"><IconStyle><color>ff00ffff</color><scale>0.5</scale><Icon><href>http://maps.google.com/mapfiles/kml/shapes/road_shield3.png</href></Icon></IconStyle><LabelStyle><scale>0.7</scale></LabelStyle></Style><Style id="actuacio"><IconStyle><color>ff00ffff</color><scale>0.8</scale><Icon><href>http://maps.google.com/mapfiles/kml/shapes/caution.png</href></Icon></IconStyle><LabelStyle><scale>0.7</scale></LabelStyle></Style></Document></kml>