<?xml version="1.0" encoding="UTF-8"?>
<kml xmlns="http://www.opengis.net/kml/2.2" xmlns:gx="http://www.google.com/kml/ext/2.2" xmlns:kml="http://www.opengis.net/kml/2.2" xmlns:atom="http://www.w3.org/2005/Atom">
<Document>
<name>Terminals</name>
<Snippet maxLines="2">Created 08/08/2018 01:48:40</Snippet>
<Folder>
<name>Terminals</name>
<Placemark><name>LGRAE02</name><description>203302 GRAE
posicio de les: 08/08/2018 01:46:36</description><styleUrl>#w_verdP</styleUrl><Point><coordinates>1.2054169178009,42.6011824607849,0</coordinates></Point></Placemark>
<Placemark><name>LGRAE03</name><description>203303 GRAE
posicio de les: 08/08/2018 01:48:38</description><styleUrl>#w_grocP</styleUrl><Point><coordinates>1.20527744293213,42.6016116142273,0</coordinates></Point></Placemark>
<Placemark><name>03372</name><description>203372 GRAE
posicio de les: 08/08/2018 01:48:00</description><styleUrl>#w_groc</styleUrl><Point><coordinates>1.22806549072266,42.5589537620544,0</coordinates></Point></Placemark>
<Placemark><name>GGRAF03</name><description>204203 P.UT
posicio de les: 08/08/2018 01:48:17</description><styleUrl>#w_grocP</styleUrl><Point><coordinates>2.8065025806427,41.9613575935364,0</coordinates></Point></Placemark>
<Placemark><name>GGRAF04</name><description>204204 P.UT
posicio de les: 08/08/2018 01:47:28</description><styleUrl>#w_grocP</styleUrl><Point><coordinates>2.80635237693787,41.9609069824219,0</coordinates></Point></Placemark>
<Placemark><name>GGRAF07</name><description>204207 P.UT
posicio de les: 08/08/2018 01:47:25</description><styleUrl>#w_verdP</styleUrl><Point><coordinates>2.80619144439697,41.9607138633728,0</coordinates></Point></Placemark>
<Placemark><name>LGRAF02</name><description>204302 P.UT
posicio de les: 08/08/2018 01:47:42</description><styleUrl>#w_verdP</styleUrl><Point><coordinates>1.09416961669922,42.0973241329193,0</coordinates></Point></Placemark>
<Placemark><name>04390</name><description>204390 
posicio de les: 08/08/2018 01:48:34</description><styleUrl>#w_verd</styleUrl><Point><coordinates>1.09496355056763,42.0871317386627,0</coordinates></Point></Placemark>
<Placemark><name>05178</name><description>205178 BRAVO
posicio de les: 08/08/2018 01:45:55</description><styleUrl>#w_verd</styleUrl><Point><coordinates>2.09497690200806,41.8185997009277,0</coordinates></Point></Placemark>
<Placemark><name>VIEL12</name><description>208012 P.PT VARAN
posicio de les: 08/08/2018 01:48:00</description><styleUrl>#w_grocP</styleUrl><Point><coordinates>0.801208019256592,42.6996517181396,0</coordinates></Point></Placemark>
<Placemark><name>VIEL17</name><description>208017 BASE CCA VARAN
posicio de les: 08/08/2018 01:47:08</description><styleUrl>#w_groc</styleUrl><Point><coordinates>0.796744823455811,42.7081060409546,0</coordinates></Point></Placemark>
<Placemark><name>GE0REC</name><description>210013 P.Tec REGIÓ
posicio de les: 08/08/2018 01:46:27</description><styleUrl>#w_verdP</styleUrl><Point><coordinates>1.85104608535767,41.7410838603973,0</coordinates></Point></Placemark>
<Placemark><name>10072</name><description>210072  REGIÓ
posicio de les: 08/08/2018 01:44:46</description><styleUrl>#w_groc</styleUrl><Point><coordinates>1.85157179832458,41.7413949966431,0</coordinates></Point></Placemark>
<Placemark><name>10082</name><description>210082  REGIÓ
posicio de les: 08/08/2018 01:47:54</description><styleUrl>#w_groc</styleUrl><Point><coordinates>1.51271224021912,41.9897246360779,0</coordinates></Point></Placemark>
<Placemark><name>CAR05</name><description>210505 PORT CAR (Centre)
posicio de les: 08/08/2018 01:47:26</description><styleUrl>#w_verdP</styleUrl><Point><coordinates>1.70471549034119,41.9003105163574,0</coordinates></Point></Placemark>
<Placemark><name>CAB56</name><description>210656 PORT.COM CAB (Centre)
posicio de les: 08/08/2018 01:47:49</description><styleUrl>#w_verdP</styleUrl><Point><coordinates>1.68506026268005,41.6657781600952,0</coordinates></Point></Placemark>
<Placemark><name>MAN03</name><description>211003 PORT MAN (Centre)
posicio de les: 08/08/2018 01:46:47</description><styleUrl>#w_grocP</styleUrl><Point><coordinates>1.86709642410278,41.7631959915161,0</coordinates></Point></Placemark>
<Placemark><name>11040</name><description>211040 BUP MAN (Centre)
posicio de les: 08/08/2018 01:43:58</description><styleUrl>#w_grocC</styleUrl><Point><coordinates>1.86689257621765,41.7632174491882,0</coordinates></Point></Placemark>
<Placemark><name>MOI6</name><description>211106 PORT MOI (Centre)
posicio de les: 08/08/2018 01:48:06</description><styleUrl>#w_verdP</styleUrl><Point><coordinates>2.08655476570129,41.8117439746857,0</coordinates></Point></Placemark>
<Placemark><name>PRA03</name><description>211403 PORT PRA (Centre)
posicio de les: 08/08/2018 01:44:46</description><styleUrl>#w_verdP</styleUrl><Point><coordinates>2.035893201828,42.0078241825104,0</coordinates></Point></Placemark>
<Placemark><name>PRA07</name><description>211407 PORT PRA (Centre)
posicio de les: 08/08/2018 01:44:10</description><styleUrl>#w_verdP</styleUrl><Point><coordinates>2.03626871109009,42.0077276229858,0</coordinates></Point></Placemark>
<Placemark><name>TOR02</name><description>212002 PORT TOR (Centre)
posicio de les: 08/08/2018 01:47:43</description><styleUrl>#w_verdP</styleUrl><Point><coordinates>2.26731419563293,42.0489907264709,0</coordinates></Point></Placemark>
<Placemark><name>12030</name><description>212030 BRP TOR (Centre)
posicio de les: 08/08/2018 01:44:27</description><styleUrl>#w_grocC</styleUrl><Point><coordinates>2.26793646812439,42.0481431484222,0</coordinates></Point></Placemark>
<Placemark><name>217224</name><description>217224 P.GUAITA GUAITA
posicio de les: 08/08/2018 01:48:41</description><styleUrl>#w_grocP</styleUrl><Point><coordinates>2.03642964363098,42.0078563690186,0</coordinates></Point></Placemark>
<Placemark><name>E0REG</name><description>220012 P.Tec REGIÓ
posicio de les: 08/08/2018 01:46:17</description><styleUrl>#w_verdP</styleUrl><Point><coordinates>3.16085457801819,42.2762811183929,0</coordinates></Point></Placemark>
<Placemark><name>AMER57</name><description>220157 PORT.COM AMER (Girona)
posicio de les: 08/08/2018 01:47:48</description><styleUrl>#w_verdP</styleUrl><Point><coordinates>2.59618520736694,42.0113754272461,0</coordinates></Point></Placemark>
<Placemark><name>CASS56</name><description>220856 PORT.COM CASS (Girona)
posicio de les: 08/08/2018 01:48:01</description><styleUrl>#w_verdP</styleUrl><Point><coordinates>2.88447976112366,41.8794751167297,0</coordinates></Point></Placemark>
<Placemark><name>20880</name><description>220880 UPCL/USL CASS (Girona)
posicio de les: 08/08/2018 01:45:22</description><styleUrl>#w_groc</styleUrl><Point><coordinates>2.88310647010803,41.8796682357788,0</coordinates></Point></Placemark>
<Placemark><name>20930</name><description>220930 BRP ESCA (Girona)
posicio de les: 08/08/2018 01:47:59</description><styleUrl>#w_grocC</styleUrl><Point><coordinates>3.12711238861084,42.1153056621552,0</coordinates></Point></Placemark>
<Placemark><name>21031</name><description>221031 BRP FIGU (Girona)
posicio de les: 08/08/2018 01:45:16</description><styleUrl>#w_verdC</styleUrl><Point><coordinates>2.47509956359863,42.1903431415558,0</coordinates></Point></Placemark>
<Placemark><name>GIRO56</name><description>221156 PORT.COM GIRO (Girona)
posicio de les: 08/08/2018 01:46:08</description><styleUrl>#w_verdP</styleUrl><Point><coordinates>2.80597686767578,41.9601988792419,0</coordinates></Point></Placemark>
<Placemark><name>21190</name><description>221190 UPC GIRO (Girona)
posicio de les: 08/08/2018 01:44:30</description><styleUrl>#w_groc</styleUrl><Point><coordinates>2.80619144439697,41.9611215591431,0</coordinates></Point></Placemark>
<Placemark><name>JONQ56</name><description>221356 PORT.COM JONQ (Girona)
posicio de les: 08/08/2018 01:46:59</description><styleUrl>#w_verdP</styleUrl><Point><coordinates>2.87639021873474,42.4119579792023,0</coordinates></Point></Placemark>
<Placemark><name>LLAN57</name><description>221457 PORT.COM LLAN (Girona)
posicio de les: 08/08/2018 01:47:06</description><styleUrl>#w_verdP</styleUrl><Point><coordinates>3.15322637557983,42.3598158359528,0</coordinates></Point></Placemark>
<Placemark><name>LLOR56</name><description>221556 PORT.COM LLOR (Girona)
posicio de les: 08/08/2018 01:48:02</description><styleUrl>#w_verdP</styleUrl><Point><coordinates>2.83354997634888,41.7205381393433,0</coordinates></Point></Placemark>
<Placemark><name>21630</name><description>221630 BRP MACA (Girona)
posicio de les: 08/08/2018 01:45:23</description><styleUrl>#w_grocC</styleUrl><Point><coordinates>2.7530300617218,41.7794930934906,0</coordinates></Point></Placemark>
<Placemark><name>21655</name><description>221655 FSV/FRQ/FER/FRM/FRA/FSA MACA (Girona)
posicio de les: 08/08/2018 01:45:29</description><styleUrl>#w_grocC</styleUrl><Point><coordinates>2.75296568870544,41.7796647548676,0</coordinates></Point></Placemark>
<Placemark><name>MAÇA57</name><description>221657 PORT.COM MACA (Girona)
posicio de les: 08/08/2018 01:47:26</description><styleUrl>#w_grocP</styleUrl><Point><coordinates>2.7530300617218,41.7795038223267,0</coordinates></Point></Placemark>
<Placemark><name>OLOT56</name><description>221756 PORT.COM OLOT (Girona)
posicio de les: 08/08/2018 01:46:26</description><styleUrl>#w_verdP</styleUrl><Point><coordinates>2.47454166412354,42.1900641918182,0</coordinates></Point></Placemark>
<Placemark><name>OLOT57</name><description>221757 PORT.COM OLOT (Girona)
posicio de les: 08/08/2018 01:48:20</description><styleUrl>#w_verdP</styleUrl><Point><coordinates>2.4758505821228,42.1899247169495,0</coordinates></Point></Placemark>
<Placemark><name>PALA56</name><description>221856 PORT.COM PALA (Girona)
posicio de les: 08/08/2018 01:48:37</description><styleUrl>#w_verdP</styleUrl><Point><coordinates>3.15635919570923,41.9257915019989,0</coordinates></Point></Placemark>
<Placemark><name>21890</name><description>221890 UPC PALA (Girona)
posicio de les: 08/08/2018 01:43:42</description><styleUrl>#w_groc</styleUrl><Point><coordinates>3.15634846687317,41.9257915019989,0</coordinates></Point></Placemark>
<Placemark><name>RIPO56</name><description>222156 PORT.COM RIPO (Girona)
posicio de les: 08/08/2018 01:47:05</description><styleUrl>#w_verdP</styleUrl><Point><coordinates>2.16845870018005,42.2146546840668,0</coordinates></Point></Placemark>
<Placemark><name>ROSE06</name><description>222206 PORT ROSE (Girona)
posicio de les: 08/08/2018 01:47:19</description><styleUrl>#w_verdP</styleUrl><Point><coordinates>3.16079020500183,42.2764849662781,0</coordinates></Point></Placemark>
<Placemark><name>VALL57</name><description>222857 PORT.COM VALL (Girona)
posicio de les: 08/08/2018 01:48:14</description><styleUrl>#w_verdP</styleUrl><Point><coordinates>3.03202271461487,41.8092226982117,0</coordinates></Point></Placemark>
<Placemark><name>I308</name><description>227308 P.GUAITA GUAITA
posicio de les: 08/08/2018 01:48:06</description><styleUrl>#w_verdP</styleUrl><Point><coordinates>3.1566596031189,41.9258236885071,0</coordinates></Point></Placemark>
<Placemark><name>D3REG</name><description>228043  SERVEIS REGIÓ
posicio de les: 08/08/2018 01:48:02</description><styleUrl>#w_groc</styleUrl><Point><coordinates>2.80667424201965,41.960391998291,0</coordinates></Point></Placemark>
<Placemark><name>D0REL</name><description>230010 P.CG REGIÓ
posicio de les: 08/08/2018 01:48:28</description><styleUrl>#w_verdP</styleUrl><Point><coordinates>0.604966878890991,41.6239249706268,0</coordinates></Point></Placemark>
<Placemark><name>RELL12</name><description>230012 P.Tec REGIÓ
posicio de les: 08/08/2018 01:47:58</description><styleUrl>#w_verdP</styleUrl><Point><coordinates>1.22835516929626,42.5593185424805,0</coordinates></Point></Placemark>
<Placemark><name>30071</name><description>230071  REGIÓ
posicio de les: 08/08/2018 01:46:04</description><styleUrl>#w_groc</styleUrl><Point><coordinates>1.22799038887024,42.5588142871857,0</coordinates></Point></Placemark>
<Placemark><name>30092</name><description>230092  REGIÓ
posicio de les: 08/08/2018 01:47:54</description><styleUrl>#w_groc</styleUrl><Point><coordinates>1.22807621955872,42.5588464736938,0</coordinates></Point></Placemark>
<Placemark><name>30096</name><description>230096  REGIÓ
posicio de les: 08/08/2018 01:48:33</description><styleUrl>#w_verd</styleUrl><Point><coordinates>1.18898034095764,41.9377434253693,0</coordinates></Point></Placemark>
<Placemark><name>AGRA01</name><description>230201 PORT AGRA (Lleida)
posicio de les: 08/08/2018 01:47:06</description><styleUrl>#w_verdP</styleUrl><Point><coordinates>1.0507607460022,41.7979252338409,0</coordinates></Point></Placemark>
<Placemark><name>ALMA07</name><description>230307 PORT ALMA (Lleida)
posicio de les: 08/08/2018 01:47:14</description><styleUrl>#w_grocP</styleUrl><Point><coordinates>0.44270396232605,41.7295396327972,0</coordinates></Point></Placemark>
<Placemark><name>30630</name><description>230630 BRP BALA (Lleida)
posicio de les: 08/08/2018 01:48:37</description><styleUrl>#w_verdC</styleUrl><Point><coordinates>1.1914050579071,41.9372820854187,0</coordinates></Point></Placemark>
<Placemark><name>BORG05</name><description>230705 PORT BORG (Lleida)
posicio de les: 08/08/2018 01:46:51</description><styleUrl>#w_verdP</styleUrl><Point><coordinates>0.844670534133911,41.5074419975281,0</coordinates></Point></Placemark>
<Placemark><name>LLAV01</name><description>231801 PORT LLAV (Lleida)
posicio de les: 08/08/2018 01:48:33</description><styleUrl>#w_verdP</styleUrl><Point><coordinates>1.2309730052948,42.5103843212128,0</coordinates></Point></Placemark>
<Placemark><name>LLAV02</name><description>231802 PORT LLAV (Lleida)
posicio de les: 08/08/2018 01:48:12</description><styleUrl>#w_verdP</styleUrl><Point><coordinates>1.23321533203125,42.5131952762604,0</coordinates></Point></Placemark>
<Placemark><name>31890</name><description>231890 UPC LLAV (Lleida)
posicio de les: 08/08/2018 01:48:34</description><styleUrl>#w_verd</styleUrl><Point><coordinates>1.23109102249146,42.5103628635406,0</coordinates></Point></Placemark>
<Placemark><name>32234</name><description>232234 BFP OLIA (Lleida)
posicio de les: 08/08/2018 01:48:29</description><styleUrl>#w_verdC</styleUrl><Point><coordinates>1.27504706382751,42.0605778694153,0</coordinates></Point></Placemark>
<Placemark><name>POBL01</name><description>232401 PORT POBL (Lleida)
posicio de les: 08/08/2018 01:45:39</description><styleUrl>#w_verdP</styleUrl><Point><coordinates>0.964425802230835,42.2391164302826,0</coordinates></Point></Placemark>
<Placemark><name>PONS01</name><description>232601 PORT PONS (Lleida)
posicio de les: 08/08/2018 01:48:36</description><styleUrl>#w_verdP</styleUrl><Point><coordinates>1.19555711746216,41.9047844409943,0</coordinates></Point></Placemark>
<Placemark><name>PONS06</name><description>232606 PORT PONS (Lleida)
posicio de les: 08/08/2018 01:47:08</description><styleUrl>#w_verdP</styleUrl><Point><coordinates>1.16657853126526,42.068098783493,0</coordinates></Point></Placemark>
<Placemark><name>32634</name><description>232634 BFP PONS (Lleida)
posicio de les: 08/08/2018 01:48:34</description><styleUrl>#w_verdC</styleUrl><Point><coordinates>1.17031216621399,42.0640003681183,0</coordinates></Point></Placemark>
<Placemark><name>RIBC02</name><description>232702 PORT RIBC (Lleida)
posicio de les: 08/08/2018 01:45:05</description><styleUrl>#w_verdP</styleUrl><Point><coordinates>1.22796893119812,42.5587177276611,0</coordinates></Point></Placemark>
<Placemark><name>SORT04</name><description>233004 PORT SORT (Lleida)
posicio de les: 08/08/2018 01:48:06</description><styleUrl>#w_verdP</styleUrl><Point><coordinates>1.21622085571289,42.539781332016,0</coordinates></Point></Placemark>
<Placemark><name>SORT08</name><description>233008 PORT SORT (Lleida)
posicio de les: 08/08/2018 01:44:55</description><styleUrl>#w_verdP</styleUrl><Point><coordinates>1.12895250320435,42.4091255664825,0</coordinates></Point></Placemark>
<Placemark><name>TAR02</name><description>233102 PORT TAR (Lleida)
posicio de les: 08/08/2018 01:47:00</description><styleUrl>#w_grocP</styleUrl><Point><coordinates>1.14974498748779,41.6508221626282,0</coordinates></Point></Placemark>
<Placemark><name>GE0REMN</name><description>240013 P.Tec REGIÓ
posicio de les: 08/08/2018 01:48:32</description><styleUrl>#w_verdP</styleUrl><Point><coordinates>2.50663161277771,41.6953897476196,0</coordinates></Point></Placemark>
<Placemark><name>40290</name><description>240290 UPC BAD (Metro. Nord)
posicio de les: 08/08/2018 01:47:03</description><styleUrl>#w_groc</styleUrl><Point><coordinates>2.02614068984985,41.5678238868713,0</coordinates></Point></Placemark>
<Placemark><name>CER06</name><description>240506 PORT CER (Metro. Nord)
posicio de les: 08/08/2018 01:47:45</description><styleUrl>#w_verdP</styleUrl><Point><coordinates>2.11164951324463,41.502388715744,0</coordinates></Point></Placemark>
<Placemark><name>40660</name><description>240660 AEA/AES/ABA GRA (Metro. Nord)
posicio de les: 08/08/2018 01:48:38</description><styleUrl>#w_grocC</styleUrl><Point><coordinates>2.27367639541626,41.5876078605652,0</coordinates></Point></Placemark>
<Placemark><name>MOL03</name><description>241003 PORT MOL (Metro. Nord)
posicio de les: 08/08/2018 01:46:28</description><styleUrl>#w_verdP</styleUrl><Point><coordinates>2.2013533115387,41.5370321273804,0</coordinates></Point></Placemark>
<Placemark><name>MOL11</name><description>241011 PORT MOL (Metro. Nord)
posicio de les: 08/08/2018 01:48:02</description><styleUrl>#w_verdP</styleUrl><Point><coordinates>2.20128893852234,41.5373432636261,0</coordinates></Point></Placemark>
<Placemark><name>41260</name><description>241260 AEA/AES/ABA PIN (Metro. Nord)
posicio de les: 08/08/2018 01:44:02</description><styleUrl>#w_grocC</styleUrl><Point><coordinates>2.27601528167725,41.590461730957,0</coordinates></Point></Placemark>
<Placemark><name>SAB01</name><description>241401 PORT SAB (Metro. Nord)
posicio de les: 08/08/2018 01:48:38</description><styleUrl>#w_verdP</styleUrl><Point><coordinates>2.11282968521118,41.5136861801147,0</coordinates></Point></Placemark>
<Placemark><name>SAB14</name><description>241414 PORT SAB (Metro. Nord)
posicio de les: 08/08/2018 01:46:40</description><styleUrl>#w_verdP</styleUrl><Point><coordinates>2.10399985313416,41.5422999858856,0</coordinates></Point></Placemark>
<Placemark><name>41448</name><description>241448 BUL SAB (Metro. Nord)
posicio de les: 08/08/2018 01:48:33</description><styleUrl>#w_verdC</styleUrl><Point><coordinates>2.11284041404724,41.5141153335571,0</coordinates></Point></Placemark>
<Placemark><name>41640</name><description>241640 BUP SCE (Metro. Nord)
posicio de les: 08/08/2018 01:47:23</description><styleUrl>#w_grocC</styleUrl><Point><coordinates>2.50707149505615,41.6953468322754,0</coordinates></Point></Placemark>
<Placemark><name>241858</name><description>241858 BSAL SCG (Metro. Nord)
posicio de les: 08/08/2018 01:47:53</description><styleUrl>#w_grocB</styleUrl><Point><coordinates>2.20933556556702,41.4631855487823,0</coordinates></Point></Placemark>
<Placemark><name>TER09</name><description>242009 PORT TER (Metro. Nord)
posicio de les: 08/08/2018 01:44:59</description><styleUrl>#w_verdP</styleUrl><Point><coordinates>2.02632308006287,41.5678882598877,0</coordinates></Point></Placemark>
<Placemark><name>TOD56</name><description>242156 PORT.COM TOD (Metro. Nord)
posicio de les: 08/08/2018 01:46:43</description><styleUrl>#w_verdP</styleUrl><Point><coordinates>2.71611213684082,41.6915273666382,0</coordinates></Point></Placemark>
<Placemark><name>REMS14</name><description>250014 P.Tec REGIÓ
posicio de les: 08/08/2018 01:48:09</description><styleUrl>#w_grocP</styleUrl><Point><coordinates>2.04112887382507,41.3898539543152,0</coordinates></Point></Placemark>
<Placemark><name>50071</name><description>250071  REGIÓ
posicio de les: 08/08/2018 01:43:47</description><styleUrl>#w_groc</styleUrl><Point><coordinates>2.03409075737,41.3226592540741,0</coordinates></Point></Placemark>
<Placemark><name>50093</name><description>250093  REGIÓ
posicio de les: 08/08/2018 01:43:44</description><styleUrl>#w_groc</styleUrl><Point><coordinates>2.04116106033325,41.3901007175446,0</coordinates></Point></Placemark>
<Placemark><name>COR03</name><description>250403 PORT COR (Metro. Sud)
posicio de les: 08/08/2018 01:48:29</description><styleUrl>#w_verdP</styleUrl><Point><coordinates>2.07078337669373,41.3603067398071,0</coordinates></Point></Placemark>
<Placemark><name>50430</name><description>250430 BRP COR (Metro. Sud)
posicio de les: 08/08/2018 01:46:04</description><styleUrl>#w_verdC</styleUrl><Point><coordinates>2.06758618354797,41.3588798046112,0</coordinates></Point></Placemark>
<Placemark><name>GAV11</name><description>250511 PORT GAV (Metro. Sud)
posicio de les: 08/08/2018 01:43:42</description><styleUrl>#w_grocP</styleUrl><Point><coordinates>1.99024200439453,41.3003861904144,0</coordinates></Point></Placemark>
<Placemark><name>HOS06</name><description>250706 PORT HOS (Metro. Sud)
posicio de les: 08/08/2018 01:46:26</description><styleUrl>#w_grocP</styleUrl><Point><coordinates>2.10642457008362,41.3703596591949,0</coordinates></Point></Placemark>
<Placemark><name>50848</name><description>250848 BUL IGU (Metro. Sud)
posicio de les: 08/08/2018 01:47:09</description><styleUrl>#w_grocC</styleUrl><Point><coordinates>1.61300539970398,41.5873181819916,0</coordinates></Point></Placemark>
<Placemark><name>50890</name><description>250890 UPC IGU (Metro. Sud)
posicio de les: 08/08/2018 01:44:22</description><styleUrl>#w_verd</styleUrl><Point><coordinates>1.60975456237793,41.5910089015961,0</coordinates></Point></Placemark>
<Placemark><name>51030</name><description>251030 BRP MAR (Metro. Sud)
posicio de les: 08/08/2018 01:48:30</description><styleUrl>#w_grocC</styleUrl><Point><coordinates>1.90781235694885,41.4986228942871,0</coordinates></Point></Placemark>
<Placemark><name>MAR56</name><description>251056 PORT.COM MAR (Metro. Sud)
posicio de les: 08/08/2018 01:45:05</description><styleUrl>#w_verdP</styleUrl><Point><coordinates>1.90813422203064,41.4994060993195,0</coordinates></Point></Placemark>
<Placemark><name>MAR57</name><description>251057 PORT.COM MAR (Metro. Sud)
posicio de les: 08/08/2018 01:47:33</description><styleUrl>#w_grocP</styleUrl><Point><coordinates>1.90804839134216,41.4990627765656,0</coordinates></Point></Placemark>
<Placemark><name>SBOI02</name><description>251302 PORT SBOI (Metro. Sud)
posicio de les: 08/08/2018 01:48:02</description><styleUrl>#w_grocP</styleUrl><Point><coordinates>2.03423023223877,41.3227236270905,0</coordinates></Point></Placemark>
<Placemark><name>SBOI04</name><description>251304 PORT SBOI (Metro. Sud)
posicio de les: 08/08/2018 01:48:01</description><styleUrl>#w_grocP</styleUrl><Point><coordinates>2.04115033149719,41.3901007175446,0</coordinates></Point></Placemark>
<Placemark><name>SBOI07</name><description>251307 PORT SBOI (Metro. Sud)
posicio de les: 08/08/2018 01:47:33</description><styleUrl>#w_verdP</styleUrl><Point><coordinates>2.04122543334961,41.3899612426758,0</coordinates></Point></Placemark>
<Placemark><name>SBOI56</name><description>251356 PORT.COM SBOI (Metro. Sud)
posicio de les: 08/08/2018 01:47:51</description><styleUrl>#w_verdP</styleUrl><Point><coordinates>2.03461647033691,41.3229918479919,0</coordinates></Point></Placemark>
<Placemark><name>51530</name><description>251530 BRP SFE (Metro. Sud)
posicio de les: 08/08/2018 01:46:52</description><styleUrl>#w_grocC</styleUrl><Point><coordinates>2.04118251800537,41.3900470733643,0</coordinates></Point></Placemark>
<Placemark><name>SFE56</name><description>251556 PORT.COM SFE (Metro. Sud)
posicio de les: 08/08/2018 01:47:17</description><styleUrl>#w_verdP</styleUrl><Point><coordinates>2.04308152198792,41.3885879516602,0</coordinates></Point></Placemark>
<Placemark><name>SFE57</name><description>251557 PORT.COM SFE (Metro. Sud)
posicio de les: 08/08/2018 01:46:45</description><styleUrl>#w_grocP</styleUrl><Point><coordinates>2.04111814498901,41.3899183273315,0</coordinates></Point></Placemark>
<Placemark><name>SVIC04</name><description>251604 PORT SCC (Metro. Sud)
posicio de les: 08/08/2018 01:47:10</description><styleUrl>#w_verdP</styleUrl><Point><coordinates>2.00629234313965,41.3848435878754,0</coordinates></Point></Placemark>
<Placemark><name>SIT03</name><description>251703 PORT SIT (Metro. Sud)
posicio de les: 08/08/2018 01:47:19</description><styleUrl>#w_verdP</styleUrl><Point><coordinates>1.80951476097107,41.2409913539886,0</coordinates></Point></Placemark>
<Placemark><name>51780</name><description>251780 UPCL/USL SIT (Metro. Sud)
posicio de les: 08/08/2018 01:46:33</description><styleUrl>#w_groc</styleUrl><Point><coordinates>1.71354532241821,41.2201130390167,0</coordinates></Point></Placemark>
<Placemark><name>D1REMS</name><description>258041  SERVEIS REGIÓ
posicio de les: 08/08/2018 01:46:39</description><styleUrl>#w_verd</styleUrl><Point><coordinates>2.03331828117371,41.3226163387299,0</coordinates></Point></Placemark>
<Placemark><name>HOSP56</name><description>260556 PORT.COM HOSP (Tarragona)
posicio de les: 08/08/2018 01:46:48</description><styleUrl>#w_verdP</styleUrl><Point><coordinates>0.919439792633057,40.9938633441925,0</coordinates></Point></Placemark>
<Placemark><name>60850</name><description>260850 FSV/FRQ/FER/FRM/FRA/FSA REUS (Tarragona)
posicio de les: 08/08/2018 01:48:32</description><styleUrl>#w_grocC</styleUrl><Point><coordinates>1.06289505958557,41.1368358135223,0</coordinates></Point></Placemark>
<Placemark><name>E00RETE</name><description>270014 P.Tec REGIÓ
posicio de les: 08/08/2018 01:47:01</description><styleUrl>#w_verdP</styleUrl><Point><coordinates>0.513535737991333,40.8191764354706,0</coordinates></Point></Placemark>
<Placemark><name>ASCO05</name><description>272205 PORT ASCO (Terres de l'Ebre)
posicio de les: 08/08/2018 01:46:56</description><styleUrl>#w_verdP</styleUrl><Point><coordinates>0.56854248046875,41.1877119541168,0</coordinates></Point></Placemark>
<Placemark><name>ULLD08</name><description>273108 PORT ULLD (Terres de l'Ebre)
posicio de les: 08/08/2018 01:46:49</description><styleUrl>#w_verdP</styleUrl><Point><coordinates>0.358321666717529,40.6088161468506,0</coordinates></Point></Placemark>
<Placemark><name>CMTE56</name><description>274556 PORT.COM Parc X
posicio de les: 08/08/2018 01:48:30</description><styleUrl>#w_verdP</styleUrl><Point><coordinates>0.579314231872559,40.6894218921661,0</coordinates></Point></Placemark>
<Placemark><name>92078</name><description>292078 UE SST
posicio de les: 08/08/2018 01:47:08</description><styleUrl>#w_groc</styleUrl><Point><coordinates>1.92677021026611,41.4822506904602,0</coordinates></Point></Placemark>
<Placemark><name>93080</name><description>293080 UPCL/USL ESC
posicio de les: 08/08/2018 01:44:20</description><styleUrl>#w_groc</styleUrl><Point><coordinates>2.11271166801453,41.5016376972198,0</coordinates></Point></Placemark>
</Folder>
<Folder>
<name>Descarregues</name>
</Folder>
<Style id="w_verdP_n"><IconStyle><color>ff00ff00</color><scale>1.0</scale><Icon><href>http://maps.google.com/mapfiles/kml/shapes/man.png</href></Icon><hotSpot x="0.5" y="0" xunits="fraction" yunits="fraction"/></IconStyle><LabelStyle><scale>0.7</scale></LabelStyle></Style>
<Style id="w_verdP_s"><IconStyle><color>ff00ff00</color><scale>1.4</scale><Icon><href>http://maps.google.com/mapfiles/kml/shapes/man.png</href></Icon><hotSpot x="0.5" y="0" xunits="fraction" yunits="fraction"/></IconStyle><LabelStyle><scale>0.7</scale></LabelStyle></Style>
<StyleMap id="w_verdP"><Pair><key>normal</key><styleUrl>#w_verdP_n</styleUrl></Pair><Pair><key>highlight</key><styleUrl>#w_verdP_s</styleUrl></Pair></StyleMap>
<Style id="w_verd_n"><IconStyle><color>ff00ff00</color><scale>0.7</scale><Icon><href>http://maps.google.com/mapfiles/kml/shapes/cabs.png</href></Icon><hotSpot x="0.5" y="0" xunits="fraction" yunits="fraction"/></IconStyle><LabelStyle><scale>0.7</scale></LabelStyle></Style>
<Style id="w_verd_s"><IconStyle><color>ff00ff00</color><scale>1.0</scale><Icon><href>http://maps.google.com/mapfiles/kml/shapes/cabs.png</href></Icon><hotSpot x="0.5" y="0" xunits="fraction" yunits="fraction"/></IconStyle><LabelStyle><scale>0.7</scale></LabelStyle></Style>
<StyleMap id="w_verd"><Pair><key>normal</key><styleUrl>#w_verd_n</styleUrl></Pair><Pair><key>highlight</key><styleUrl>#w_verd_s</styleUrl></Pair></StyleMap>
<Style id="w_verdC_n"><IconStyle><color>ff00ff00</color><scale>1.0</scale><Icon><href>http://maps.google.com/mapfiles/kml/shapes/truck.png</href></Icon><hotSpot x="0.5" y="0" xunits="fraction" yunits="fraction"/></IconStyle><LabelStyle><scale>0.7</scale></LabelStyle></Style>
<Style id="w_verdC_s"><IconStyle><color>ff00ff00</color><scale>1.4</scale><Icon><href>http://maps.google.com/mapfiles/kml/shapes/truck.png</href></Icon><hotSpot x="0.5" y="0" xunits="fraction" yunits="fraction"/></IconStyle><LabelStyle><scale>0.7</scale></LabelStyle></Style>
<StyleMap id="w_verdC"><Pair><key>normal</key><styleUrl>#w_verdC_n</styleUrl></Pair><Pair><key>highlight</key><styleUrl>#w_verdC_s</styleUrl></Pair></StyleMap>
<Style id="w_verdH_n"><IconStyle><color>ff0000ff</color><scale>1.2</scale><Icon><href>http://maps.google.com/mapfiles/kml/shapes/heliport.png</href></Icon><hotSpot x="0.5" y="0" xunits="fraction" yunits="fraction"/></IconStyle><LabelStyle><scale>0.7</scale></LabelStyle></Style>
<Style id="w_verdH_s"><IconStyle><color>ff0000ff</color><scale>1.4</scale><Icon><href>http://maps.google.com/mapfiles/kml/shapes/heliport.png</href></Icon><hotSpot x="0.5" y="0" xunits="fraction" yunits="fraction"/></IconStyle><LabelStyle><scale>0.7</scale></LabelStyle></Style>
<StyleMap id="w_verdH"><Pair><key>normal</key><styleUrl>#w_verdH_n</styleUrl></Pair><Pair><key>highlight</key><styleUrl>#w_verdH_s</styleUrl></Pair></StyleMap>
<Style id="w_verdA_n"><IconStyle><color>ff0000ff</color><scale>1.2</scale><Icon><href>http://maps.google.com/mapfiles/kml/shapes/airports.png</href></Icon><hotSpot x="0.5" y="0" xunits="fraction" yunits="fraction"/></IconStyle><LabelStyle><scale>0.7</scale></LabelStyle></Style>
<Style id="w_verdA_s"><IconStyle><color>ff0000ff</color><scale>1.4</scale><Icon><href>http://maps.google.com/mapfiles/kml/shapes/airports.png</href></Icon><hotSpot x="0.5" y="0" xunits="fraction" yunits="fraction"/></IconStyle><LabelStyle><scale>0.7</scale></LabelStyle></Style>
<StyleMap id="w_verdA"><Pair><key>normal</key><styleUrl>#w_verdA_n</styleUrl></Pair><Pair><key>highlight</key><styleUrl>#w_verdA_s</styleUrl></Pair></StyleMap>
<Style id="w_verdB_n"><IconStyle><color>ff00ff00</color><scale>1.0</scale><Icon><href>http://maps.google.com/mapfiles/kml/shapes/sailing.png</href></Icon><hotSpot x="0.5" y="0" xunits="fraction" yunits="fraction"/></IconStyle><LabelStyle><scale>0.7</scale></LabelStyle></Style>
<Style id="w_verdB_s"><IconStyle><color>ff00ff00</color><scale>1.4</scale><Icon><href>http://maps.google.com/mapfiles/kml/shapes/sailing.png</href></Icon><hotSpot x="0.5" y="0" xunits="fraction" yunits="fraction"/></IconStyle><LabelStyle><scale>0.7</scale></LabelStyle></Style>
<StyleMap id="w_verdB"><Pair><key>normal</key><styleUrl>#w_verdBAR_n</styleUrl></Pair><Pair><key>highlight</key><styleUrl>#w_verdBAR_s</styleUrl></Pair></StyleMap>
<Style id="w_grocP_n"><IconStyle><color>ff00ffff</color><scale>1.0</scale><Icon><href>http://maps.google.com/mapfiles/kml/shapes/man.png</href></Icon><hotSpot x="0.5" y="0" xunits="fraction" yunits="fraction"/></IconStyle><LabelStyle><scale>0.7</scale></LabelStyle></Style>
<Style id="w_grocP_s"><IconStyle><color>ff00ffff</color><scale>1.4</scale><Icon><href>http://maps.google.com/mapfiles/kml/shapes/man.png</href></Icon><hotSpot x="0.5" y="0" xunits="fraction" yunits="fraction"/></IconStyle><LabelStyle><scale>0.7</scale></LabelStyle></Style>
<StyleMap id="w_grocP"><Pair><key>normal</key><styleUrl>#w_grocP_n</styleUrl></Pair><Pair><key>highlight</key><styleUrl>#w_grocP_s</styleUrl></Pair></StyleMap>
<Style id="w_groc_n"><IconStyle><color>ff00ffff</color><scale>0.7</scale><Icon><href>http://maps.google.com/mapfiles/kml/shapes/cabs.png</href></Icon><hotSpot x="0.5" y="0" xunits="fraction" yunits="fraction"/></IconStyle><LabelStyle><scale>0.7</scale></LabelStyle></Style>
<Style id="w_groc_s"><IconStyle><color>ff00ffff</color><scale>1.0</scale><Icon><href>http://maps.google.com/mapfiles/kml/shapes/cabs.png</href></Icon><hotSpot x="0.5" y="0" xunits="fraction" yunits="fraction"/></IconStyle><LabelStyle><scale>0.7</scale></LabelStyle></Style>
<StyleMap id="w_groc"><Pair><key>normal</key><styleUrl>#w_groc_n</styleUrl></Pair><Pair><key>highlight</key><styleUrl>#w_groc_s</styleUrl></Pair></StyleMap>
<Style id="w_grocC_n"><IconStyle><color>ff00ffff</color><scale>1.0</scale><Icon><href>http://maps.google.com/mapfiles/kml/shapes/truck.png</href></Icon><hotSpot x="0.5" y="0" xunits="fraction" yunits="fraction"/></IconStyle><LabelStyle><scale>0.7</scale></LabelStyle></Style>
<Style id="w_grocC_s"><IconStyle><color>ff00ffff</color><scale>1.4</scale><Icon><href>http://maps.google.com/mapfiles/kml/shapes/truck.png</href></Icon><hotSpot x="0.5" y="0" xunits="fraction" yunits="fraction"/></IconStyle><LabelStyle><scale>0.7</scale></LabelStyle></Style>
<StyleMap id="w_grocC"><Pair><key>normal</key><styleUrl>#w_grocC_n</styleUrl></Pair><Pair><key>highlight</key><styleUrl>#w_grocC_s</styleUrl></Pair></StyleMap>
<Style id="w_grocH_n"><IconStyle><color>ff0000ff</color><scale>1.2</scale><Icon><href>http://maps.google.com/mapfiles/kml/shapes/heliport.png</href></Icon><hotSpot x="0.5" y="0" xunits="fraction" yunits="fraction"/></IconStyle><LabelStyle><scale>0.7</scale></LabelStyle></Style>
<Style id="w_grocH_s"><IconStyle><color>ff0000ff</color><scale>1.4</scale><Icon><href>http://maps.google.com/mapfiles/kml/shapes/heliport.png</href></Icon><hotSpot x="0.5" y="0" xunits="fraction" yunits="fraction"/></IconStyle><LabelStyle><scale>0.7</scale></LabelStyle></Style>
<StyleMap id="w_grocH"><Pair><key>normal</key><styleUrl>#w_grocH_n</styleUrl></Pair><Pair><key>highlight</key><styleUrl>#w_grocH_s</styleUrl></Pair></StyleMap>
<Style id="w_grocA_n"><IconStyle><color>ff0000ff</color><scale>1.2</scale><Icon><href>http://maps.google.com/mapfiles/kml/shapes/airports.png</href></Icon><hotSpot x="0.5" y="0" xunits="fraction" yunits="fraction"/></IconStyle><LabelStyle><scale>0.7</scale></LabelStyle></Style>
<Style id="w_grocA_s"><IconStyle><color>ff0000ff</color><scale>1.4</scale><Icon><href>http://maps.google.com/mapfiles/kml/shapes/airports.png</href></Icon><hotSpot x="0.5" y="0" xunits="fraction" yunits="fraction"/></IconStyle><LabelStyle><scale>0.7</scale></LabelStyle></Style>
<StyleMap id="w_grocA"><Pair><key>normal</key><styleUrl>#w_grocA_n</styleUrl></Pair><Pair><key>highlight</key><styleUrl>#w_grocA_s</styleUrl></Pair></StyleMap>
<Style id="w_grocB_n"><IconStyle><color>ff00ffff</color><scale>1.0</scale><Icon><href>http://maps.google.com/mapfiles/kml/shapes/sailing.png</href></Icon><hotSpot x="0.5" y="0" xunits="fraction" yunits="fraction"/></IconStyle><LabelStyle><scale>0.7</scale></LabelStyle></Style>
<Style id="w_grocB_s"><IconStyle><color>ff00ffff</color><scale>1.4</scale><Icon><href>http://maps.google.com/mapfiles/kml/shapes/sailing.png</href></Icon><hotSpot x="0.5" y="0" xunits="fraction" yunits="fraction"/></IconStyle><LabelStyle><scale>0.7</scale></LabelStyle></Style>
<StyleMap id="w_grocB"><Pair><key>normal</key><styleUrl>#w_grocBAR_n</styleUrl></Pair><Pair><key>highlight</key><styleUrl>#w_grocBAR_s</styleUrl></Pair></StyleMap>
<Style id="w_vermellP_n"><IconStyle><color>ff0000ff</color><scale>1.0</scale><Icon><href>http://maps.google.com/mapfiles/kml/shapes/man.png</href></Icon><hotSpot x="0.5" y="0" xunits="fraction" yunits="fraction"/></IconStyle><LabelStyle><scale>0.7</scale></LabelStyle></Style>
<Style id="w_vermellP_s"><IconStyle><color>ff0000ff</color><scale>1.4</scale><Icon><href>http://maps.google.com/mapfiles/kml/shapes/man.png</href></Icon><hotSpot x="0.5" y="0" xunits="fraction" yunits="fraction"/></IconStyle><LabelStyle><scale>0.7</scale></LabelStyle></Style>
<StyleMap id="w_vermellP"><Pair><key>normal</key><styleUrl>#w_vermellP_n</styleUrl></Pair><Pair><key>highlight</key><styleUrl>#w_vermellP_s</styleUrl></Pair></StyleMap>
<Style id="w_vermell_n"><IconStyle><color>ff0000ff</color><scale>0.7</scale><Icon><href>http://maps.google.com/mapfiles/kml/shapes/cabs.png</href></Icon><hotSpot x="0.5" y="0" xunits="fraction" yunits="fraction"/></IconStyle><LabelStyle><scale>0.7</scale></LabelStyle></Style>
<Style id="w_vermell_s"><IconStyle><color>ff0000ff</color><scale>1.0</scale><Icon><href>http://maps.google.com/mapfiles/kml/shapes/cabs.png</href></Icon><hotSpot x="0.5" y="0" xunits="fraction" yunits="fraction"/></IconStyle><LabelStyle><scale>0.7</scale></LabelStyle></Style>
<StyleMap id="w_vermell"><Pair><key>normal</key><styleUrl>#w_vermell_n</styleUrl></Pair><Pair><key>highlight</key><styleUrl>#w_vermell_s</styleUrl></Pair></StyleMap>
<Style id="w_vermellC_n"><IconStyle><color>ff0000ff</color><scale>1.0</scale><Icon><href>http://maps.google.com/mapfiles/kml/shapes/truck.png</href></Icon><hotSpot x="0.5" y="0" xunits="fraction" yunits="fraction"/></IconStyle><LabelStyle><scale>0.7</scale></LabelStyle></Style>
<Style id="w_vermellC_s"><IconStyle><color>ff0000ff</color><scale>1.4</scale><Icon><href>http://maps.google.com/mapfiles/kml/shapes/truck.png</href></Icon><hotSpot x="0.5" y="0" xunits="fraction" yunits="fraction"/></IconStyle><LabelStyle><scale>0.7</scale></LabelStyle></Style>
<StyleMap id="w_vermellC"><Pair><key>normal</key><styleUrl>#w_vermellC_n</styleUrl></Pair><Pair><key>highlight</key><styleUrl>#w_vermellC_s</styleUrl></Pair></StyleMap>
<Style id="w_vermellH_n"><IconStyle><color>ff0000ff</color><scale>1.2</scale><Icon><href>http://maps.google.com/mapfiles/kml/shapes/heliport.png</href></Icon><hotSpot x="0.5" y="0" xunits="fraction" yunits="fraction"/></IconStyle><LabelStyle><scale>0.7</scale></LabelStyle></Style>
<Style id="w_vermellH_s"><IconStyle><color>ff0000ff</color><scale>1.4</scale><Icon><href>http://maps.google.com/mapfiles/kml/shapes/heliport.png</href></Icon><hotSpot x="0.5" y="0" xunits="fraction" yunits="fraction"/></IconStyle><LabelStyle><scale>0.7</scale></LabelStyle></Style>
<StyleMap id="w_vermellH"><Pair><key>normal</key><styleUrl>#w_vermellH_n</styleUrl></Pair><Pair><key>highlight</key><styleUrl>#w_vermellH_s</styleUrl></Pair></StyleMap>
<Style id="w_vermellA_n"><IconStyle><color>ff0000ff</color><scale>1.2</scale><Icon><href>http://maps.google.com/mapfiles/kml/shapes/airports.png</href></Icon><hotSpot x="0.5" y="0" xunits="fraction" yunits="fraction"/></IconStyle><LabelStyle><scale>0.7</scale></LabelStyle></Style>
<Style id="w_vermellA_s"><IconStyle><color>ff0000ff</color><scale>1.4</scale><Icon><href>http://maps.google.com/mapfiles/kml/shapes/airports.png</href></Icon><hotSpot x="0.5" y="0" xunits="fraction" yunits="fraction"/></IconStyle><LabelStyle><scale>0.7</scale></LabelStyle></Style>
<StyleMap id="w_vermellA"><Pair><key>normal</key><styleUrl>#w_vermellA_n</styleUrl></Pair><Pair><key>highlight</key><styleUrl>#w_vermellA_s</styleUrl></Pair></StyleMap>
<Style id="w_vermellB_n"><IconStyle><color>ff0000ff</color><scale>1.0</scale><Icon><href>http://maps.google.com/mapfiles/kml/shapes/sailing.png</href></Icon><hotSpot x="0.5" y="0" xunits="fraction" yunits="fraction"/></IconStyle><LabelStyle><scale>0.7</scale></LabelStyle></Style>
<Style id="w_vermellB_s"><IconStyle><color>ff0000ff</color><scale>1.4</scale><Icon><href>http://maps.google.com/mapfiles/kml/shapes/sailing.png</href></Icon><hotSpot x="0.5" y="0" xunits="fraction" yunits="fraction"/></IconStyle><LabelStyle><scale>0.7</scale></LabelStyle></Style>
<StyleMap id="w_vermellB"><Pair><key>normal</key><styleUrl>#w_vermellBAR_n</styleUrl></Pair><Pair><key>highlight</key><styleUrl>#w_vermellBAR_s</styleUrl></Pair></StyleMap>
<Style id="w_descarrega"><IconStyle><color>ff00ffff</color><scale>0.5</scale><Icon><href>http://maps.google.com/mapfiles/kml/shapes/road_shield3.png</href></Icon></IconStyle><LabelStyle><scale>0.7</scale></LabelStyle></Style><Style id="actuacio"><IconStyle><color>ff00ffff</color><scale>0.8</scale><Icon><href>http://maps.google.com/mapfiles/kml/shapes/caution.png</href></Icon></IconStyle><LabelStyle><scale>0.7</scale></LabelStyle></Style></Document></kml>