<?xml version="1.0" encoding="UTF-8"?>
<kml xmlns="http://www.opengis.net/kml/2.2" xmlns:gx="http://www.google.com/kml/ext/2.2" xmlns:kml="http://www.opengis.net/kml/2.2" xmlns:atom="http://www.w3.org/2005/Atom">
<Document>
<name>Terminals</name>
<Snippet maxLines="2">Created 04/08/2018 22:39:45</Snippet>
<Folder>
<name>Terminals</name>
<Placemark><name>03373</name><description>203373 GRAE
posicio de les: 04/08/2018 22:37:58</description><styleUrl>#w_groc</styleUrl><Point><coordinates>1.24284982681274,42.518538236618,0</coordinates></Point></Placemark>
<Placemark><name>GGRAF12</name><description>204212 P.REC
posicio de les: 04/08/2018 22:38:59</description><styleUrl>#w_grocP</styleUrl><Point><coordinates>2.97449469566345,42.0300114154816,0</coordinates></Point></Placemark>
<Placemark><name>OP05087</name><description>205287 OP.AAV
posicio de les: 04/08/2018 22:37:52</description><styleUrl>#w_verdP</styleUrl><Point><coordinates>1.15840315818787,41.1478221416473,0</coordinates></Point></Placemark>
<Placemark><name>VIEL12</name><description>208012 P.PT VARAN
posicio de les: 04/08/2018 22:38:44</description><styleUrl>#w_grocP</styleUrl><Point><coordinates>0.796830654144287,42.7083420753479,0</coordinates></Point></Placemark>
<Placemark><name>VIEL17</name><description>208017 BASE CCA VARAN
posicio de les: 04/08/2018 22:39:50</description><styleUrl>#w_verd</styleUrl><Point><coordinates>0.796465873718262,42.7076768875122,0</coordinates></Point></Placemark>
<Placemark><name>BOSS01</name><description>208101 P.COMODIN VARAN
posicio de les: 04/08/2018 22:39:32</description><styleUrl>#w_verdP</styleUrl><Point><coordinates>0.69263219833374,42.7859115600586,0</coordinates></Point></Placemark>
<Placemark><name>BER57</name><description>210357 PORT.COM BER (Centre)
posicio de les: 04/08/2018 22:38:11</description><styleUrl>#w_verdP</styleUrl><Point><coordinates>1.85777306556702,42.1042549610138,0</coordinates></Point></Placemark>
<Placemark><name>CAF56</name><description>210456 PORT.COM CAF (Centre)
posicio de les: 04/08/2018 22:38:54</description><styleUrl>#w_verdP</styleUrl><Point><coordinates>1.52757167816162,41.7306017875671,0</coordinates></Point></Placemark>
<Placemark><name>CAR07</name><description>210507 PORT CAR (Centre)
posicio de les: 04/08/2018 22:34:05</description><styleUrl>#w_grocP</styleUrl><Point><coordinates>1.86850190162659,41.6252982616425,0</coordinates></Point></Placemark>
<Placemark><name>CAB56</name><description>210656 PORT.COM CAB (Centre)
posicio de les: 04/08/2018 22:36:57</description><styleUrl>#w_grocP</styleUrl><Point><coordinates>1.68525338172913,41.6658425331116,0</coordinates></Point></Placemark>
<Placemark><name>GUA56</name><description>210856 PORT.COM GUA (Centre)
posicio de les: 04/08/2018 22:38:50</description><styleUrl>#w_verdP</styleUrl><Point><coordinates>1.86996102333069,42.2193002700806,0</coordinates></Point></Placemark>
<Placemark><name>11040</name><description>211040 BUP MAN (Centre)
posicio de les: 04/08/2018 22:39:42</description><styleUrl>#w_verdC</styleUrl><Point><coordinates>1.85043454170227,41.6238176822662,0</coordinates></Point></Placemark>
<Placemark><name>MOI20</name><description>211120 PORT MOI (Centre)
posicio de les: 04/08/2018 22:38:54</description><styleUrl>#w_verdP</styleUrl><Point><coordinates>2.08653330802917,41.8118512630463,0</coordinates></Point></Placemark>
<Placemark><name>PRA07</name><description>211407 PORT PRA (Centre)
posicio de les: 04/08/2018 22:36:07</description><styleUrl>#w_grocP</styleUrl><Point><coordinates>2.03620433807373,42.0080065727234,0</coordinates></Point></Placemark>
<Placemark><name>PUIG01</name><description>211501 PORT PUIG (Centre)
posicio de les: 04/08/2018 22:36:52</description><styleUrl>#w_verdP</styleUrl><Point><coordinates>1.92152380943298,42.4205732345581,0</coordinates></Point></Placemark>
<Placemark><name>20134</name><description>220134 BFP AMER (Girona)
posicio de les: 04/08/2018 22:38:13</description><styleUrl>#w_grocC</styleUrl><Point><coordinates>3.15933108329773,42.3708879947662,0</coordinates></Point></Placemark>
<Placemark><name>AMER57</name><description>220157 PORT.COM AMER (Girona)
posicio de les: 04/08/2018 22:37:45</description><styleUrl>#w_verdP</styleUrl><Point><coordinates>2.59620666503906,42.0113754272461,0</coordinates></Point></Placemark>
<Placemark><name>BANY07</name><description>220307 PORT BANY (Girona)
posicio de les: 04/08/2018 22:39:15</description><styleUrl>#w_grocP</styleUrl><Point><coordinates>2.78596758842468,42.1177732944489,0</coordinates></Point></Placemark>
<Placemark><name>20330</name><description>220330 BRP BANY (Girona)
posicio de les: 04/08/2018 22:39:43</description><styleUrl>#w_verdC</styleUrl><Point><coordinates>2.72559642791748,42.2050738334656,0</coordinates></Point></Placemark>
<Placemark><name>20434</name><description>220434 BFP PERA (Girona)
posicio de les: 04/08/2018 22:37:18</description><styleUrl>#w_grocC</styleUrl><Point><coordinates>2.87150859832764,42.405971288681,0</coordinates></Point></Placemark>
<Placemark><name>CASS56</name><description>220856 PORT.COM CASS (Girona)
posicio de les: 04/08/2018 22:38:06</description><styleUrl>#w_verdP</styleUrl><Point><coordinates>2.88422226905823,41.8796038627625,0</coordinates></Point></Placemark>
<Placemark><name>FIGU 01</name><description>221001 PORT FIGU (Girona)
posicio de les: 04/08/2018 22:38:18</description><styleUrl>#w_grocP</styleUrl><Point><coordinates>2.87374019622803,42.406325340271,0</coordinates></Point></Placemark>
<Placemark><name>21030</name><description>221030 BRP FIGU (Girona)
posicio de les: 04/08/2018 22:39:47</description><styleUrl>#w_verdC</styleUrl><Point><coordinates>2.97165155410767,42.2442770004272,0</coordinates></Point></Placemark>
<Placemark><name>21034</name><description>221034 BFP FIGU (Girona)
posicio de les: 04/08/2018 22:36:40</description><styleUrl>#w_grocC</styleUrl><Point><coordinates>2.87159442901611,42.4062931537628,0</coordinates></Point></Placemark>
<Placemark><name>21050</name><description>221050 FSV/FRQ/FER/FRM/FRA/FSA FIGU (Girona)
posicio de les: 04/08/2018 22:38:50</description><styleUrl>#w_grocC</styleUrl><Point><coordinates>2.87829995155334,42.2319066524506,0</coordinates></Point></Placemark>
<Placemark><name>FIGU56</name><description>221056 PORT.COM FIGU (Girona)
posicio de les: 04/08/2018 22:39:34</description><styleUrl>#w_verdP</styleUrl><Point><coordinates>2.97106146812439,42.2430217266083,0</coordinates></Point></Placemark>
<Placemark><name>GIRO08</name><description>221108 PORT GIRO (Girona)
posicio de les: 04/08/2018 22:34:49</description><styleUrl>#w_verdP</styleUrl><Point><coordinates>2.80714631080627,41.9602954387665,0</coordinates></Point></Placemark>
<Placemark><name>GIRO56</name><description>221156 PORT.COM GIRO (Girona)
posicio de les: 04/08/2018 22:39:28</description><styleUrl>#w_verdP</styleUrl><Point><coordinates>2.80667424201965,41.9599092006683,0</coordinates></Point></Placemark>
<Placemark><name>HOST02</name><description>221202 PORT HOST (Girona)
posicio de les: 04/08/2018 22:38:58</description><styleUrl>#w_grocP</styleUrl><Point><coordinates>2.62433767318726,41.7483901977539,0</coordinates></Point></Placemark>
<Placemark><name>HOST03</name><description>221203 PORT HOST (Girona)
posicio de les: 04/08/2018 22:38:29</description><styleUrl>#w_grocP</styleUrl><Point><coordinates>2.62443423271179,41.7482078075409,0</coordinates></Point></Placemark>
<Placemark><name>21230</name><description>221230 BRP HOST (Girona)
posicio de les: 04/08/2018 22:37:50</description><styleUrl>#w_grocC</styleUrl><Point><coordinates>2.62447714805603,41.748218536377,0</coordinates></Point></Placemark>
<Placemark><name>HOST57</name><description>221257 PORT.COM HOST (Girona)
posicio de les: 04/08/2018 22:38:26</description><styleUrl>#w_verdP</styleUrl><Point><coordinates>2.62236356735229,41.7475748062134,0</coordinates></Point></Placemark>
<Placemark><name>JONQ03</name><description>221303 PORT JONQ (Girona)
posicio de les: 04/08/2018 22:38:21</description><styleUrl>#w_verdP</styleUrl><Point><coordinates>2.87656188011169,42.4120223522186,0</coordinates></Point></Placemark>
<Placemark><name>JONQ56</name><description>221356 PORT.COM JONQ (Girona)
posicio de les: 04/08/2018 22:36:43</description><styleUrl>#w_verdP</styleUrl><Point><coordinates>2.87397623062134,42.4060034751892,0</coordinates></Point></Placemark>
<Placemark><name>21434</name><description>221434 BFP LLAN (Girona)
posicio de les: 04/08/2018 22:36:21</description><styleUrl>#w_grocC</styleUrl><Point><coordinates>2.87153005599976,42.4060249328613,0</coordinates></Point></Placemark>
<Placemark><name>LLAN57</name><description>221457 PORT.COM LLAN (Girona)
posicio de les: 04/08/2018 22:37:58</description><styleUrl>#w_verdP</styleUrl><Point><coordinates>3.15903067588806,42.3709738254547,0</coordinates></Point></Placemark>
<Placemark><name>VILJ59</name><description>221459 BSAL LLAN (Girona)
posicio de les: 04/08/2018 22:38:05</description><styleUrl>#w_verdB</styleUrl><Point><coordinates>2.87176609039307,42.4062502384186,0</coordinates></Point></Placemark>
<Placemark><name>LLOR05</name><description>221505 PORT LLOR (Girona)
posicio de les: 04/08/2018 22:36:29</description><styleUrl>#w_grocP</styleUrl><Point><coordinates>2.83627510070801,41.6994988918304,0</coordinates></Point></Placemark>
<Placemark><name>221557</name><description>221557 PORT.COM LLOR (Girona)
posicio de les: 04/08/2018 22:36:56</description><styleUrl>#w_verdP</styleUrl><Point><coordinates>2.83586740493774,41.6990268230438,0</coordinates></Point></Placemark>
<Placemark><name>21630</name><description>221630 BRP MACA (Girona)
posicio de les: 04/08/2018 22:38:45</description><styleUrl>#w_grocC</styleUrl><Point><coordinates>2.75295495986938,41.7795252799988,0</coordinates></Point></Placemark>
<Placemark><name>ORRI03</name><description>221711 PORT OLOT (Girona)
posicio de les: 04/08/2018 22:39:15</description><styleUrl>#w_verdP</styleUrl><Point><coordinates>2.87368655204773,42.4055099487305,0</coordinates></Point></Placemark>
<Placemark><name>OLOT56</name><description>221756 PORT.COM OLOT (Girona)
posicio de les: 04/08/2018 22:39:05</description><styleUrl>#w_verdP</styleUrl><Point><coordinates>2.47424125671387,42.1900427341461,0</coordinates></Point></Placemark>
<Placemark><name>PALA56</name><description>221856 PORT.COM PALA (Girona)
posicio de les: 04/08/2018 22:38:53</description><styleUrl>#w_grocP</styleUrl><Point><coordinates>3.15642356872559,41.9257807731628,0</coordinates></Point></Placemark>
<Placemark><name>PALA57</name><description>221857 PORT.COM PALA (Girona)
posicio de les: 04/08/2018 22:37:32</description><styleUrl>#w_verdP</styleUrl><Point><coordinates>3.15552234649658,41.9256091117859,0</coordinates></Point></Placemark>
<Placemark><name>RIPO03</name><description>222103 PORT RIPO (Girona)
posicio de les: 04/08/2018 22:39:46</description><styleUrl>#w_verdP</styleUrl><Point><coordinates>2.16869473457336,42.2147083282471,0</coordinates></Point></Placemark>
<Placemark><name>22130</name><description>222130 BRP RIPO (Girona)
posicio de les: 04/08/2018 22:37:32</description><styleUrl>#w_grocC</styleUrl><Point><coordinates>2.16739654541016,42.2147941589355,0</coordinates></Point></Placemark>
<Placemark><name>RIPO56</name><description>222156 PORT.COM RIPO (Girona)
posicio de les: 04/08/2018 22:38:21</description><styleUrl>#w_verdP</styleUrl><Point><coordinates>2.16799736022949,42.2150301933289,0</coordinates></Point></Placemark>
<Placemark><name>ROSE56</name><description>222256 PORT.COM ROSE (Girona)
posicio de les: 04/08/2018 22:38:17</description><styleUrl>#w_verdP</styleUrl><Point><coordinates>3.16094040870667,42.2763454914093,0</coordinates></Point></Placemark>
<Placemark><name>TORR56</name><description>222656 PORT.COM TORR (Girona)
posicio de les: 04/08/2018 22:39:19</description><styleUrl>#w_verdP</styleUrl><Point><coordinates>3.16728115081787,42.0478105545044,0</coordinates></Point></Placemark>
<Placemark><name>VALL07</name><description>222807 PORT VALL (Girona)
posicio de les: 04/08/2018 22:39:01</description><styleUrl>#w_grocP</styleUrl><Point><coordinates>3.03163647651672,41.8088471889496,0</coordinates></Point></Placemark>
<Placemark><name>VALL57</name><description>222857 PORT.COM VALL (Girona)
posicio de les: 04/08/2018 22:39:09</description><styleUrl>#w_grocP</styleUrl><Point><coordinates>3.0316686630249,41.8088150024414,0</coordinates></Point></Placemark>
<Placemark><name>I308</name><description>227308 P.GUAITA GUAITA
posicio de les: 04/08/2018 22:37:39</description><styleUrl>#w_verdP</styleUrl><Point><coordinates>3.15575838088989,41.9260704517365,0</coordinates></Point></Placemark>
<Placemark><name>D9REG</name><description>228049  SERVEIS REGIÓ
posicio de les: 04/08/2018 22:39:23</description><styleUrl>#w_groc</styleUrl><Point><coordinates>2.80702829360962,41.9600057601929,0</coordinates></Point></Placemark>
<Placemark><name>D0REL</name><description>230010 P.CG REGIÓ
posicio de les: 04/08/2018 22:34:31</description><styleUrl>#w_verdP</styleUrl><Point><coordinates>0.604720115661621,41.6234529018402,0</coordinates></Point></Placemark>
<Placemark><name>FTREMP1</name><description>230073  REGIÓ
posicio de les: 04/08/2018 22:38:38</description><styleUrl>#w_verd</styleUrl><Point><coordinates>0.60499906539917,41.6232919692993,0</coordinates></Point></Placemark>
<Placemark><name>30091</name><description>230091  REGIÓ
posicio de les: 04/08/2018 22:36:12</description><styleUrl>#w_groc</styleUrl><Point><coordinates>0.605438947677612,41.6241180896759,0</coordinates></Point></Placemark>
<Placemark><name>30092</name><description>230092  REGIÓ
posicio de les: 04/08/2018 22:39:34</description><styleUrl>#w_verd</styleUrl><Point><coordinates>0.605342388153076,41.6233777999878,0</coordinates></Point></Placemark>
<Placemark><name>ALMA01</name><description>230301 PORT ALMA (Lleida)
posicio de les: 04/08/2018 22:39:05</description><styleUrl>#w_verdP</styleUrl><Point><coordinates>0.461608171463013,41.7097556591034,0</coordinates></Point></Placemark>
<Placemark><name>ALMA02</name><description>230302 PORT ALMA (Lleida)
posicio de les: 04/08/2018 22:38:27</description><styleUrl>#w_grocP</styleUrl><Point><coordinates>0.433906316757202,41.7317283153534,0</coordinates></Point></Placemark>
<Placemark><name>30330</name><description>230330 BRP ALMA (Lleida)
posicio de les: 04/08/2018 22:39:43</description><styleUrl>#w_verdC</styleUrl><Point><coordinates>0.454344749450684,41.7149376869202,0</coordinates></Point></Placemark>
<Placemark><name>230356</name><description>230356 PORT.COM ALMA (Lleida)
posicio de les: 04/08/2018 22:39:19</description><styleUrl>#w_verdP</styleUrl><Point><coordinates>0.458850860595703,41.711847782135,0</coordinates></Point></Placemark>
<Placemark><name>ALME01</name><description>230401 PORT ALME (Lleida)
posicio de les: 04/08/2018 22:39:11</description><styleUrl>#w_verdP</styleUrl><Point><coordinates>0.568853616714478,41.7923355102539,0</coordinates></Point></Placemark>
<Placemark><name>BORG05</name><description>230705 PORT BORG (Lleida)
posicio de les: 04/08/2018 22:38:52</description><styleUrl>#w_grocP</styleUrl><Point><coordinates>0.845024585723877,41.5075492858887,0</coordinates></Point></Placemark>
<Placemark><name>BORG06</name><description>230706 PORT BORG (Lleida)
posicio de les: 04/08/2018 22:38:04</description><styleUrl>#w_grocP</styleUrl><Point><coordinates>0.844788551330566,41.5073454380035,0</coordinates></Point></Placemark>
<Placemark><name>BORG56</name><description>230756 PORT.COM BORG (Lleida)
posicio de les: 04/08/2018 22:37:45</description><styleUrl>#w_verdP</styleUrl><Point><coordinates>0.845603942871094,41.5068197250366,0</coordinates></Point></Placemark>
<Placemark><name>GUIS05</name><description>231405 PORT GUIS (Lleida)
posicio de les: 04/08/2018 22:39:28</description><styleUrl>#w_grocP</styleUrl><Point><coordinates>1.28250360488892,41.7821002006531,0</coordinates></Point></Placemark>
<Placemark><name>31430</name><description>231430 BRP GUIS (Lleida)
posicio de les: 04/08/2018 22:37:11</description><styleUrl>#w_grocC</styleUrl><Point><coordinates>1.28296494483948,41.7821323871613,0</coordinates></Point></Placemark>
<Placemark><name>LLEI13</name><description>231913 PORT LLEI (Lleida)
posicio de les: 04/08/2018 22:39:10</description><styleUrl>#w_verdP</styleUrl><Point><coordinates>0.606318712234497,41.6237854957581,0</coordinates></Point></Placemark>
<Placemark><name>MOLL07</name><description>232007 PORT MOLL (Lleida)
posicio de les: 04/08/2018 22:38:14</description><styleUrl>#w_verdP</styleUrl><Point><coordinates>0.898293256759644,41.6366493701935,0</coordinates></Point></Placemark>
<Placemark><name>MOLL56</name><description>232056 PORT.COM MOLL (Lleida)
posicio de les: 04/08/2018 22:38:31</description><styleUrl>#w_verdP</styleUrl><Point><coordinates>0.898540019989014,41.6364026069641,0</coordinates></Point></Placemark>
<Placemark><name>32090</name><description>232090 UPC MOLL (Lleida)
posicio de les: 04/08/2018 22:38:18</description><styleUrl>#w_groc</styleUrl><Point><coordinates>0.898261070251465,41.6364991664886,0</coordinates></Point></Placemark>
<Placemark><name>OLIA01</name><description>232201 PORT OLIA (Lleida)
posicio de les: 04/08/2018 22:38:56</description><styleUrl>#w_grocP</styleUrl><Point><coordinates>1.30796313285828,42.0747184753418,0</coordinates></Point></Placemark>
<Placemark><name>32230</name><description>232230 BRP OLIA (Lleida)
posicio de les: 04/08/2018 22:37:38</description><styleUrl>#w_grocC</styleUrl><Point><coordinates>1.30804896354675,42.0748579502106,0</coordinates></Point></Placemark>
<Placemark><name>OLIA56</name><description>232256 PORT.COM OLIA (Lleida)
posicio de les: 04/08/2018 22:39:39</description><styleUrl>#w_grocP</styleUrl><Point><coordinates>1.31568789482117,42.0696115493774,0</coordinates></Point></Placemark>
<Placemark><name>POBL01</name><description>232401 PORT POBL (Lleida)
posicio de les: 04/08/2018 22:38:51</description><styleUrl>#w_grocP</styleUrl><Point><coordinates>0.964103937149048,42.2391593456268,0</coordinates></Point></Placemark>
<Placemark><name>PONT56</name><description>232556 PORT.COM PONT (Lleida)
posicio de les: 04/08/2018 22:38:35</description><styleUrl>#w_grocP</styleUrl><Point><coordinates>0.739538669586182,42.410295009613,0</coordinates></Point></Placemark>
<Placemark><name>32630</name><description>232630 BRP PONS (Lleida)
posicio de les: 04/08/2018 22:38:23</description><styleUrl>#w_grocC</styleUrl><Point><coordinates>1.17544054985046,41.8750655651093,0</coordinates></Point></Placemark>
<Placemark><name>PONS56</name><description>232656 PORT.COM PONS (Lleida)
posicio de les: 04/08/2018 22:39:43</description><styleUrl>#w_grocP</styleUrl><Point><coordinates>1.17487192153931,41.8756341934204,0</coordinates></Point></Placemark>
<Placemark><name>SEU09</name><description>232909 PORT SEU (Lleida)
posicio de les: 04/08/2018 22:38:30</description><styleUrl>#w_verdP</styleUrl><Point><coordinates>1.47197484970093,42.3604917526245,0</coordinates></Point></Placemark>
<Placemark><name>TREM10</name><description>233310 PORT TREM (Lleida)
posicio de les: 04/08/2018 22:38:22</description><styleUrl>#w_grocP</styleUrl><Point><coordinates>0.889216661453247,42.1646475791931,0</coordinates></Point></Placemark>
<Placemark><name>REMN11</name><description>240011 P.Tec REGIÓ
posicio de les: 04/08/2018 22:36:27</description><styleUrl>#w_verdP</styleUrl><Point><coordinates>2.11111307144165,41.5025496482849,0</coordinates></Point></Placemark>
<Placemark><name>D00REMN</name><description>240018 P.Tec REGIÓ
posicio de les: 04/08/2018 22:37:52</description><styleUrl>#w_verdP</styleUrl><Point><coordinates>2.11134910583496,41.5025281906128,0</coordinates></Point></Placemark>
<Placemark><name>40081</name><description>240081  REGIÓ
posicio de les: 04/08/2018 22:36:53</description><styleUrl>#w_groc</styleUrl><Point><coordinates>2.11263656616211,41.5023994445801,0</coordinates></Point></Placemark>
<Placemark><name>40091</name><description>240091  REGIÓ
posicio de les: 04/08/2018 22:37:28</description><styleUrl>#w_groc</styleUrl><Point><coordinates>2.11289405822754,41.5040624141693,0</coordinates></Point></Placemark>
<Placemark><name>40290</name><description>240290 UPC BAD (Metro. Nord)
posicio de les: 04/08/2018 22:36:04</description><styleUrl>#w_groc</styleUrl><Point><coordinates>2.03482031822205,41.4734852313995,0</coordinates></Point></Placemark>
<Placemark><name>CER03</name><description>240503 PORT CER (Metro. Nord)
posicio de les: 04/08/2018 22:38:35</description><styleUrl>#w_verdP</styleUrl><Point><coordinates>2.11153149604797,41.5030646324158,0</coordinates></Point></Placemark>
<Placemark><name>GRA05</name><description>240605 PORT GRA (Metro. Nord)
posicio de les: 04/08/2018 22:38:23</description><styleUrl>#w_verdP</styleUrl><Point><coordinates>2.27479219436646,41.5907621383667,0</coordinates></Point></Placemark>
<Placemark><name>GRA07</name><description>240607 PORT GRA (Metro. Nord)
posicio de les: 04/08/2018 22:36:56</description><styleUrl>#w_verdP</styleUrl><Point><coordinates>2.2745668888092,41.5908372402191,0</coordinates></Point></Placemark>
<Placemark><name>CMGRA15</name><description>240615 PORT GRA (Metro. Nord)
posicio de les: 04/08/2018 22:38:51</description><styleUrl>#w_verdP</styleUrl><Point><coordinates>2.27543592453003,41.5902042388916,0</coordinates></Point></Placemark>
<Placemark><name>40690</name><description>240690 UPC GRA (Metro. Nord)
posicio de les: 04/08/2018 22:35:38</description><styleUrl>#w_verd</styleUrl><Point><coordinates>2.27450251579285,41.5908694267273,0</coordinates></Point></Placemark>
<Placemark><name>MOL03</name><description>241003 PORT MOL (Metro. Nord)
posicio de les: 04/08/2018 22:38:09</description><styleUrl>#w_verdP</styleUrl><Point><coordinates>2.20128893852234,41.5373539924622,0</coordinates></Point></Placemark>
<Placemark><name>41034</name><description>241034 BFP MOL (Metro. Nord)
posicio de les: 04/08/2018 22:35:48</description><styleUrl>#w_verdC</styleUrl><Point><coordinates>2.20241546630859,41.5370321273804,0</coordinates></Point></Placemark>
<Placemark><name>241040</name><description>241040 BUP MOL (Metro. Nord)
posicio de les: 04/08/2018 22:37:45</description><styleUrl>#w_grocC</styleUrl><Point><coordinates>2.20198631286621,41.5373432636261,0</coordinates></Point></Placemark>
<Placemark><name>241048</name><description>241048 BUL MOL (Metro. Nord)
posicio de les: 04/08/2018 22:36:25</description><styleUrl>#w_grocC</styleUrl><Point><coordinates>2.20206141471863,41.5368497371674,0</coordinates></Point></Placemark>
<Placemark><name>MFI01</name><description>241101 PORT MFI (Metro. Nord)
posicio de les: 04/08/2018 22:38:56</description><styleUrl>#w_verdP</styleUrl><Point><coordinates>2.27203488349915,41.7162251472473,0</coordinates></Point></Placemark>
<Placemark><name>SAB01</name><description>241401 PORT SAB (Metro. Nord)
posicio de les: 04/08/2018 22:38:58</description><styleUrl>#w_verdP</styleUrl><Point><coordinates>2.10424661636353,41.5427076816559,0</coordinates></Point></Placemark>
<Placemark><name>SAB06</name><description>241406 PORT SAB (Metro. Nord)
posicio de les: 04/08/2018 22:39:21</description><styleUrl>#w_verdP</styleUrl><Point><coordinates>2.09299206733704,41.5246725082397,0</coordinates></Point></Placemark>
<Placemark><name>SAB56</name><description>241456 PORT.COM SAB (Metro. Nord)
posicio de les: 04/08/2018 22:39:44</description><styleUrl>#w_verdP</styleUrl><Point><coordinates>2.10371017456055,41.5422570705414,0</coordinates></Point></Placemark>
<Placemark><name>SCE07</name><description>241607 PORT SCE (Metro. Nord)
posicio de les: 04/08/2018 22:37:38</description><styleUrl>#w_verdP</styleUrl><Point><coordinates>2.50714659690857,41.6956043243408,0</coordinates></Point></Placemark>
<Placemark><name>SCE08</name><description>241608 PORT SCE (Metro. Nord)
posicio de les: 04/08/2018 22:37:51</description><styleUrl>#w_verdP</styleUrl><Point><coordinates>2.50707149505615,41.6951858997345,0</coordinates></Point></Placemark>
<Placemark><name>SCG07</name><description>241807 PORT SCG (Metro. Nord)
posicio de les: 04/08/2018 22:36:25</description><styleUrl>#w_verdP</styleUrl><Point><coordinates>2.20942139625549,41.4631748199463,0</coordinates></Point></Placemark>
<Placemark><name>TER11</name><description>242011 PORT TER (Metro. Nord)
posicio de les: 04/08/2018 22:38:39</description><styleUrl>#w_verdP</styleUrl><Point><coordinates>2.02614068984985,41.5680813789368,0</coordinates></Point></Placemark>
<Placemark><name>TER56</name><description>242056 PORT.COM TER (Metro. Nord)
posicio de les: 04/08/2018 22:38:18</description><styleUrl>#w_verdP</styleUrl><Point><coordinates>2.02614068984985,41.5681028366089,0</coordinates></Point></Placemark>
<Placemark><name>50093</name><description>250093  REGIÓ
posicio de les: 04/08/2018 22:35:40</description><styleUrl>#w_verd</styleUrl><Point><coordinates>2.10003018379211,41.38028383255,0</coordinates></Point></Placemark>
<Placemark><name>COR56</name><description>250456 PORT.COM COR (Metro. Sud)
posicio de les: 04/08/2018 22:37:02</description><styleUrl>#w_verdP</styleUrl><Point><coordinates>2.07056879997253,41.3600277900696,0</coordinates></Point></Placemark>
<Placemark><name>50490</name><description>250490 UPC COR (Metro. Sud)
posicio de les: 04/08/2018 22:37:40</description><styleUrl>#w_groc</styleUrl><Point><coordinates>2.07025766372681,41.3625812530518,0</coordinates></Point></Placemark>
<Placemark><name>GAV02</name><description>250502 PORT GAV (Metro. Sud)
posicio de les: 04/08/2018 22:37:59</description><styleUrl>#w_verdP</styleUrl><Point><coordinates>1.98949098587036,41.2997210025787,0</coordinates></Point></Placemark>
<Placemark><name>50530</name><description>250530 BRP GAV (Metro. Sud)
posicio de les: 04/08/2018 22:34:21</description><styleUrl>#w_verdC</styleUrl><Point><coordinates>1.99029564857483,41.3001501560211,0</coordinates></Point></Placemark>
<Placemark><name>GAV56</name><description>250556 PORT.COM GAV (Metro. Sud)
posicio de les: 04/08/2018 22:38:35</description><styleUrl>#w_verdP</styleUrl><Point><coordinates>1.99029564857483,41.3003218173981,0</coordinates></Point></Placemark>
<Placemark><name>HOS06</name><description>250706 PORT HOS (Metro. Sud)
posicio de les: 04/08/2018 22:39:13</description><styleUrl>#w_grocP</styleUrl><Point><coordinates>2.10568428039551,41.3699305057526,0</coordinates></Point></Placemark>
<Placemark><name>HOS14</name><description>250714 PORT HOS (Metro. Sud)
posicio de les: 04/08/2018 22:36:01</description><styleUrl>#w_verdP</styleUrl><Point><coordinates>2.10603833198547,41.3699841499329,0</coordinates></Point></Placemark>
<Placemark><name>HOS56</name><description>250756 PORT.COM HOS (Metro. Sud)
posicio de les: 04/08/2018 22:37:49</description><styleUrl>#w_verdP</styleUrl><Point><coordinates>2.10636019706726,41.3700377941132,0</coordinates></Point></Placemark>
<Placemark><name>50790</name><description>250790 UPC HOS (Metro. Sud)
posicio de les: 04/08/2018 22:39:42</description><styleUrl>#w_groc</styleUrl><Point><coordinates>2.10602760314941,41.3696086406708,0</coordinates></Point></Placemark>
<Placemark><name>MAR57</name><description>251057 PORT.COM MAR (Metro. Sud)
posicio de les: 04/08/2018 22:39:49</description><styleUrl>#w_verdP</styleUrl><Point><coordinates>1.90790891647339,41.4986336231232,0</coordinates></Point></Placemark>
<Placemark><name>PLL06</name><description>251206 PORT PLL (Metro. Sud)
posicio de les: 04/08/2018 22:37:59</description><styleUrl>#w_verdP</styleUrl><Point><coordinates>2.08136200904846,41.3173592090607,0</coordinates></Point></Placemark>
<Placemark><name>SBOI57</name><description>251357 PORT.COM SBOI (Metro. Sud)
posicio de les: 04/08/2018 22:38:10</description><styleUrl>#w_verdP</styleUrl><Point><coordinates>2.03382253646851,41.3229703903198,0</coordinates></Point></Placemark>
<Placemark><name>SFE02</name><description>251502 PORT SFE (Metro. Sud)
posicio de les: 04/08/2018 22:39:23</description><styleUrl>#w_verdP</styleUrl><Point><coordinates>2.0428454875946,41.3887810707092,0</coordinates></Point></Placemark>
<Placemark><name>SFE57</name><description>251557 PORT.COM SFE (Metro. Sud)
posicio de les: 04/08/2018 22:37:57</description><styleUrl>#w_grocP</styleUrl><Point><coordinates>2.04310297966003,41.3885235786438,0</coordinates></Point></Placemark>
<Placemark><name>VIF09</name><description>251809 PORT VIF (Metro. Sud)
posicio de les: 04/08/2018 22:39:35</description><styleUrl>#w_verdP</styleUrl><Point><coordinates>1.70393228530884,41.3550710678101,0</coordinates></Point></Placemark>
<Placemark><name>251840</name><description>251840 BUP VIF (Metro. Sud)
posicio de les: 04/08/2018 22:34:40</description><styleUrl>#w_verdC</styleUrl><Point><coordinates>1.70518755912781,41.3547706604004,0</coordinates></Point></Placemark>
<Placemark><name>51948</name><description>251948 BUL VIL (Metro. Sud)
posicio de les: 04/08/2018 22:36:50</description><styleUrl>#w_grocC</styleUrl><Point><coordinates>1.73077583312988,41.2234175205231,0</coordinates></Point></Placemark>
<Placemark><name>D2REMS</name><description>258042  SERVEIS REGIÓ
posicio de les: 04/08/2018 22:37:50</description><styleUrl>#w_verd</styleUrl><Point><coordinates>2.03354358673096,41.3226163387299,0</coordinates></Point></Placemark>
<Placemark><name>RET12</name><description>260012 P.Tec REGIÓ
posicio de les: 04/08/2018 22:37:15</description><styleUrl>#w_verdP</styleUrl><Point><coordinates>1.18539690971375,41.134260892868,0</coordinates></Point></Placemark>
<Placemark><name>GE0RET</name><description>260013 P.Tec REGIÓ
posicio de les: 04/08/2018 22:36:54</description><styleUrl>#w_verdP</styleUrl><Point><coordinates>1.18479609489441,41.1345827579498,0</coordinates></Point></Placemark>
<Placemark><name>GE600</name><description>260017 P.Tec REGIÓ
posicio de les: 04/08/2018 22:39:30</description><styleUrl>#w_verdP</styleUrl><Point><coordinates>1.18525743484497,41.1348509788513,0</coordinates></Point></Placemark>
<Placemark><name>CAMB06</name><description>260206 PORT CAMB (Tarragona)
posicio de les: 04/08/2018 22:38:08</description><styleUrl>#w_verdP</styleUrl><Point><coordinates>1.0407292842865,41.0765719413757,0</coordinates></Point></Placemark>
<Placemark><name>60240</name><description>260240 BUP CAMB (Tarragona)
posicio de les: 04/08/2018 22:39:45</description><styleUrl>#w_verdC</styleUrl><Point><coordinates>1.09060764312744,41.0888993740082,0</coordinates></Point></Placemark>
<Placemark><name>FALS06</name><description>260406 PORT FALS (Tarragona)
posicio de les: 04/08/2018 22:38:51</description><styleUrl>#w_verdP</styleUrl><Point><coordinates>0.823566913604736,41.1476075649261,0</coordinates></Point></Placemark>
<Placemark><name>260508</name><description>260508 PORT HOSP (Tarragona)
posicio de les: 04/08/2018 22:38:49</description><styleUrl>#w_grocP</styleUrl><Point><coordinates>0.919750928878784,40.9936165809631,0</coordinates></Point></Placemark>
<Placemark><name>REUS03</name><description>260803 PORT REUS (Tarragona)
posicio de les: 04/08/2018 22:37:50</description><styleUrl>#w_verdP</styleUrl><Point><coordinates>1.11834168434143,41.1514377593994,0</coordinates></Point></Placemark>
<Placemark><name>REUS12</name><description>260812 PORT REUS (Tarragona)
posicio de les: 04/08/2018 22:37:34</description><styleUrl>#w_verdP</styleUrl><Point><coordinates>1.11845970153809,41.1505258083344,0</coordinates></Point></Placemark>
<Placemark><name>60840</name><description>260840 BUP REUS (Tarragona)
posicio de les: 04/08/2018 22:36:32</description><styleUrl>#w_grocC</styleUrl><Point><coordinates>1.11629247665405,41.0984480381012,0</coordinates></Point></Placemark>
<Placemark><name>REUS56</name><description>260856 PORT.COM REUS (Tarragona)
posicio de les: 04/08/2018 22:37:00</description><styleUrl>#w_verdP</styleUrl><Point><coordinates>1.11805200576782,41.1515772342682,0</coordinates></Point></Placemark>
<Placemark><name>61230</name><description>261230 BRP TARR (Tarragona)
posicio de les: 04/08/2018 22:35:58</description><styleUrl>#w_grocC</styleUrl><Point><coordinates>1.13675236701965,41.1473608016968,0</coordinates></Point></Placemark>
<Placemark><name>VEND10</name><description>261410 PORT VEND (Tarragona)
posicio de les: 04/08/2018 22:36:51</description><styleUrl>#w_grocP</styleUrl><Point><coordinates>1.54082179069519,41.222687959671,0</coordinates></Point></Placemark>
<Placemark><name>E00RETE</name><description>270014 P.Tec REGIÓ
posicio de les: 04/08/2018 22:37:51</description><styleUrl>#w_verdP</styleUrl><Point><coordinates>0.513020753860474,40.819798707962,0</coordinates></Point></Placemark>
<Placemark><name>AMET06</name><description>272006 PORT AMET (Terres de l'Ebre)
posicio de les: 04/08/2018 22:38:47</description><styleUrl>#w_verdP</styleUrl><Point><coordinates>0.79775333404541,40.8905875682831,0</coordinates></Point></Placemark>
<Placemark><name>AMPO56</name><description>272156 PORT.COM AMPO (Terres de l'Ebre)
posicio de les: 04/08/2018 22:34:58</description><styleUrl>#w_verdP</styleUrl><Point><coordinates>0.578863620758057,40.6894648075104,0</coordinates></Point></Placemark>
<Placemark><name>ASCO56</name><description>272256 PORT.COM ASCO (Terres de l'Ebre)
posicio de les: 04/08/2018 22:39:06</description><styleUrl>#w_verdP</styleUrl><Point><coordinates>0.568853616714478,41.1878299713135,0</coordinates></Point></Placemark>
<Placemark><name>MORA57</name><description>272857 PORT.COM MORA (Terres de l'Ebre)
posicio de les: 04/08/2018 22:39:02</description><styleUrl>#w_verdP</styleUrl><Point><coordinates>0.629932880401611,41.0861420631409,0</coordinates></Point></Placemark>
<Placemark><name>ULLD08</name><description>273108 PORT ULLD (Terres de l'Ebre)
posicio de les: 04/08/2018 22:38:21</description><styleUrl>#w_grocP</styleUrl><Point><coordinates>0.358332395553589,40.6084728240967,0</coordinates></Point></Placemark>
</Folder>
<Folder>
<name>Descarregues</name>
</Folder>
<Style id="w_verdP_n"><IconStyle><color>ff00ff00</color><scale>1.0</scale><Icon><href>http://maps.google.com/mapfiles/kml/shapes/man.png</href></Icon><hotSpot x="0.5" y="0" xunits="fraction" yunits="fraction"/></IconStyle><LabelStyle><scale>0.7</scale></LabelStyle></Style>
<Style id="w_verdP_s"><IconStyle><color>ff00ff00</color><scale>1.4</scale><Icon><href>http://maps.google.com/mapfiles/kml/shapes/man.png</href></Icon><hotSpot x="0.5" y="0" xunits="fraction" yunits="fraction"/></IconStyle><LabelStyle><scale>0.7</scale></LabelStyle></Style>
<StyleMap id="w_verdP"><Pair><key>normal</key><styleUrl>#w_verdP_n</styleUrl></Pair><Pair><key>highlight</key><styleUrl>#w_verdP_s</styleUrl></Pair></StyleMap>
<Style id="w_verd_n"><IconStyle><color>ff00ff00</color><scale>0.7</scale><Icon><href>http://maps.google.com/mapfiles/kml/shapes/cabs.png</href></Icon><hotSpot x="0.5" y="0" xunits="fraction" yunits="fraction"/></IconStyle><LabelStyle><scale>0.7</scale></LabelStyle></Style>
<Style id="w_verd_s"><IconStyle><color>ff00ff00</color><scale>1.0</scale><Icon><href>http://maps.google.com/mapfiles/kml/shapes/cabs.png</href></Icon><hotSpot x="0.5" y="0" xunits="fraction" yunits="fraction"/></IconStyle><LabelStyle><scale>0.7</scale></LabelStyle></Style>
<StyleMap id="w_verd"><Pair><key>normal</key><styleUrl>#w_verd_n</styleUrl></Pair><Pair><key>highlight</key><styleUrl>#w_verd_s</styleUrl></Pair></StyleMap>
<Style id="w_verdC_n"><IconStyle><color>ff00ff00</color><scale>1.0</scale><Icon><href>http://maps.google.com/mapfiles/kml/shapes/truck.png</href></Icon><hotSpot x="0.5" y="0" xunits="fraction" yunits="fraction"/></IconStyle><LabelStyle><scale>0.7</scale></LabelStyle></Style>
<Style id="w_verdC_s"><IconStyle><color>ff00ff00</color><scale>1.4</scale><Icon><href>http://maps.google.com/mapfiles/kml/shapes/truck.png</href></Icon><hotSpot x="0.5" y="0" xunits="fraction" yunits="fraction"/></IconStyle><LabelStyle><scale>0.7</scale></LabelStyle></Style>
<StyleMap id="w_verdC"><Pair><key>normal</key><styleUrl>#w_verdC_n</styleUrl></Pair><Pair><key>highlight</key><styleUrl>#w_verdC_s</styleUrl></Pair></StyleMap>
<Style id="w_verdH_n"><IconStyle><color>ff0000ff</color><scale>1.2</scale><Icon><href>http://maps.google.com/mapfiles/kml/shapes/heliport.png</href></Icon><hotSpot x="0.5" y="0" xunits="fraction" yunits="fraction"/></IconStyle><LabelStyle><scale>0.7</scale></LabelStyle></Style>
<Style id="w_verdH_s"><IconStyle><color>ff0000ff</color><scale>1.4</scale><Icon><href>http://maps.google.com/mapfiles/kml/shapes/heliport.png</href></Icon><hotSpot x="0.5" y="0" xunits="fraction" yunits="fraction"/></IconStyle><LabelStyle><scale>0.7</scale></LabelStyle></Style>
<StyleMap id="w_verdH"><Pair><key>normal</key><styleUrl>#w_verdH_n</styleUrl></Pair><Pair><key>highlight</key><styleUrl>#w_verdH_s</styleUrl></Pair></StyleMap>
<Style id="w_verdA_n"><IconStyle><color>ff0000ff</color><scale>1.2</scale><Icon><href>http://maps.google.com/mapfiles/kml/shapes/airports.png</href></Icon><hotSpot x="0.5" y="0" xunits="fraction" yunits="fraction"/></IconStyle><LabelStyle><scale>0.7</scale></LabelStyle></Style>
<Style id="w_verdA_s"><IconStyle><color>ff0000ff</color><scale>1.4</scale><Icon><href>http://maps.google.com/mapfiles/kml/shapes/airports.png</href></Icon><hotSpot x="0.5" y="0" xunits="fraction" yunits="fraction"/></IconStyle><LabelStyle><scale>0.7</scale></LabelStyle></Style>
<StyleMap id="w_verdA"><Pair><key>normal</key><styleUrl>#w_verdA_n</styleUrl></Pair><Pair><key>highlight</key><styleUrl>#w_verdA_s</styleUrl></Pair></StyleMap>
<Style id="w_verdB_n"><IconStyle><color>ff00ff00</color><scale>1.0</scale><Icon><href>http://maps.google.com/mapfiles/kml/shapes/sailing.png</href></Icon><hotSpot x="0.5" y="0" xunits="fraction" yunits="fraction"/></IconStyle><LabelStyle><scale>0.7</scale></LabelStyle></Style>
<Style id="w_verdB_s"><IconStyle><color>ff00ff00</color><scale>1.4</scale><Icon><href>http://maps.google.com/mapfiles/kml/shapes/sailing.png</href></Icon><hotSpot x="0.5" y="0" xunits="fraction" yunits="fraction"/></IconStyle><LabelStyle><scale>0.7</scale></LabelStyle></Style>
<StyleMap id="w_verdB"><Pair><key>normal</key><styleUrl>#w_verdBAR_n</styleUrl></Pair><Pair><key>highlight</key><styleUrl>#w_verdBAR_s</styleUrl></Pair></StyleMap>
<Style id="w_grocP_n"><IconStyle><color>ff00ffff</color><scale>1.0</scale><Icon><href>http://maps.google.com/mapfiles/kml/shapes/man.png</href></Icon><hotSpot x="0.5" y="0" xunits="fraction" yunits="fraction"/></IconStyle><LabelStyle><scale>0.7</scale></LabelStyle></Style>
<Style id="w_grocP_s"><IconStyle><color>ff00ffff</color><scale>1.4</scale><Icon><href>http://maps.google.com/mapfiles/kml/shapes/man.png</href></Icon><hotSpot x="0.5" y="0" xunits="fraction" yunits="fraction"/></IconStyle><LabelStyle><scale>0.7</scale></LabelStyle></Style>
<StyleMap id="w_grocP"><Pair><key>normal</key><styleUrl>#w_grocP_n</styleUrl></Pair><Pair><key>highlight</key><styleUrl>#w_grocP_s</styleUrl></Pair></StyleMap>
<Style id="w_groc_n"><IconStyle><color>ff00ffff</color><scale>0.7</scale><Icon><href>http://maps.google.com/mapfiles/kml/shapes/cabs.png</href></Icon><hotSpot x="0.5" y="0" xunits="fraction" yunits="fraction"/></IconStyle><LabelStyle><scale>0.7</scale></LabelStyle></Style>
<Style id="w_groc_s"><IconStyle><color>ff00ffff</color><scale>1.0</scale><Icon><href>http://maps.google.com/mapfiles/kml/shapes/cabs.png</href></Icon><hotSpot x="0.5" y="0" xunits="fraction" yunits="fraction"/></IconStyle><LabelStyle><scale>0.7</scale></LabelStyle></Style>
<StyleMap id="w_groc"><Pair><key>normal</key><styleUrl>#w_groc_n</styleUrl></Pair><Pair><key>highlight</key><styleUrl>#w_groc_s</styleUrl></Pair></StyleMap>
<Style id="w_grocC_n"><IconStyle><color>ff00ffff</color><scale>1.0</scale><Icon><href>http://maps.google.com/mapfiles/kml/shapes/truck.png</href></Icon><hotSpot x="0.5" y="0" xunits="fraction" yunits="fraction"/></IconStyle><LabelStyle><scale>0.7</scale></LabelStyle></Style>
<Style id="w_grocC_s"><IconStyle><color>ff00ffff</color><scale>1.4</scale><Icon><href>http://maps.google.com/mapfiles/kml/shapes/truck.png</href></Icon><hotSpot x="0.5" y="0" xunits="fraction" yunits="fraction"/></IconStyle><LabelStyle><scale>0.7</scale></LabelStyle></Style>
<StyleMap id="w_grocC"><Pair><key>normal</key><styleUrl>#w_grocC_n</styleUrl></Pair><Pair><key>highlight</key><styleUrl>#w_grocC_s</styleUrl></Pair></StyleMap>
<Style id="w_grocH_n"><IconStyle><color>ff0000ff</color><scale>1.2</scale><Icon><href>http://maps.google.com/mapfiles/kml/shapes/heliport.png</href></Icon><hotSpot x="0.5" y="0" xunits="fraction" yunits="fraction"/></IconStyle><LabelStyle><scale>0.7</scale></LabelStyle></Style>
<Style id="w_grocH_s"><IconStyle><color>ff0000ff</color><scale>1.4</scale><Icon><href>http://maps.google.com/mapfiles/kml/shapes/heliport.png</href></Icon><hotSpot x="0.5" y="0" xunits="fraction" yunits="fraction"/></IconStyle><LabelStyle><scale>0.7</scale></LabelStyle></Style>
<StyleMap id="w_grocH"><Pair><key>normal</key><styleUrl>#w_grocH_n</styleUrl></Pair><Pair><key>highlight</key><styleUrl>#w_grocH_s</styleUrl></Pair></StyleMap>
<Style id="w_grocA_n"><IconStyle><color>ff0000ff</color><scale>1.2</scale><Icon><href>http://maps.google.com/mapfiles/kml/shapes/airports.png</href></Icon><hotSpot x="0.5" y="0" xunits="fraction" yunits="fraction"/></IconStyle><LabelStyle><scale>0.7</scale></LabelStyle></Style>
<Style id="w_grocA_s"><IconStyle><color>ff0000ff</color><scale>1.4</scale><Icon><href>http://maps.google.com/mapfiles/kml/shapes/airports.png</href></Icon><hotSpot x="0.5" y="0" xunits="fraction" yunits="fraction"/></IconStyle><LabelStyle><scale>0.7</scale></LabelStyle></Style>
<StyleMap id="w_grocA"><Pair><key>normal</key><styleUrl>#w_grocA_n</styleUrl></Pair><Pair><key>highlight</key><styleUrl>#w_grocA_s</styleUrl></Pair></StyleMap>
<Style id="w_grocB_n"><IconStyle><color>ff00ffff</color><scale>1.0</scale><Icon><href>http://maps.google.com/mapfiles/kml/shapes/sailing.png</href></Icon><hotSpot x="0.5" y="0" xunits="fraction" yunits="fraction"/></IconStyle><LabelStyle><scale>0.7</scale></LabelStyle></Style>
<Style id="w_grocB_s"><IconStyle><color>ff00ffff</color><scale>1.4</scale><Icon><href>http://maps.google.com/mapfiles/kml/shapes/sailing.png</href></Icon><hotSpot x="0.5" y="0" xunits="fraction" yunits="fraction"/></IconStyle><LabelStyle><scale>0.7</scale></LabelStyle></Style>
<StyleMap id="w_grocB"><Pair><key>normal</key><styleUrl>#w_grocBAR_n</styleUrl></Pair><Pair><key>highlight</key><styleUrl>#w_grocBAR_s</styleUrl></Pair></StyleMap>
<Style id="w_vermellP_n"><IconStyle><color>ff0000ff</color><scale>1.0</scale><Icon><href>http://maps.google.com/mapfiles/kml/shapes/man.png</href></Icon><hotSpot x="0.5" y="0" xunits="fraction" yunits="fraction"/></IconStyle><LabelStyle><scale>0.7</scale></LabelStyle></Style>
<Style id="w_vermellP_s"><IconStyle><color>ff0000ff</color><scale>1.4</scale><Icon><href>http://maps.google.com/mapfiles/kml/shapes/man.png</href></Icon><hotSpot x="0.5" y="0" xunits="fraction" yunits="fraction"/></IconStyle><LabelStyle><scale>0.7</scale></LabelStyle></Style>
<StyleMap id="w_vermellP"><Pair><key>normal</key><styleUrl>#w_vermellP_n</styleUrl></Pair><Pair><key>highlight</key><styleUrl>#w_vermellP_s</styleUrl></Pair></StyleMap>
<Style id="w_vermell_n"><IconStyle><color>ff0000ff</color><scale>0.7</scale><Icon><href>http://maps.google.com/mapfiles/kml/shapes/cabs.png</href></Icon><hotSpot x="0.5" y="0" xunits="fraction" yunits="fraction"/></IconStyle><LabelStyle><scale>0.7</scale></LabelStyle></Style>
<Style id="w_vermell_s"><IconStyle><color>ff0000ff</color><scale>1.0</scale><Icon><href>http://maps.google.com/mapfiles/kml/shapes/cabs.png</href></Icon><hotSpot x="0.5" y="0" xunits="fraction" yunits="fraction"/></IconStyle><LabelStyle><scale>0.7</scale></LabelStyle></Style>
<StyleMap id="w_vermell"><Pair><key>normal</key><styleUrl>#w_vermell_n</styleUrl></Pair><Pair><key>highlight</key><styleUrl>#w_vermell_s</styleUrl></Pair></StyleMap>
<Style id="w_vermellC_n"><IconStyle><color>ff0000ff</color><scale>1.0</scale><Icon><href>http://maps.google.com/mapfiles/kml/shapes/truck.png</href></Icon><hotSpot x="0.5" y="0" xunits="fraction" yunits="fraction"/></IconStyle><LabelStyle><scale>0.7</scale></LabelStyle></Style>
<Style id="w_vermellC_s"><IconStyle><color>ff0000ff</color><scale>1.4</scale><Icon><href>http://maps.google.com/mapfiles/kml/shapes/truck.png</href></Icon><hotSpot x="0.5" y="0" xunits="fraction" yunits="fraction"/></IconStyle><LabelStyle><scale>0.7</scale></LabelStyle></Style>
<StyleMap id="w_vermellC"><Pair><key>normal</key><styleUrl>#w_vermellC_n</styleUrl></Pair><Pair><key>highlight</key><styleUrl>#w_vermellC_s</styleUrl></Pair></StyleMap>
<Style id="w_vermellH_n"><IconStyle><color>ff0000ff</color><scale>1.2</scale><Icon><href>http://maps.google.com/mapfiles/kml/shapes/heliport.png</href></Icon><hotSpot x="0.5" y="0" xunits="fraction" yunits="fraction"/></IconStyle><LabelStyle><scale>0.7</scale></LabelStyle></Style>
<Style id="w_vermellH_s"><IconStyle><color>ff0000ff</color><scale>1.4</scale><Icon><href>http://maps.google.com/mapfiles/kml/shapes/heliport.png</href></Icon><hotSpot x="0.5" y="0" xunits="fraction" yunits="fraction"/></IconStyle><LabelStyle><scale>0.7</scale></LabelStyle></Style>
<StyleMap id="w_vermellH"><Pair><key>normal</key><styleUrl>#w_vermellH_n</styleUrl></Pair><Pair><key>highlight</key><styleUrl>#w_vermellH_s</styleUrl></Pair></StyleMap>
<Style id="w_vermellA_n"><IconStyle><color>ff0000ff</color><scale>1.2</scale><Icon><href>http://maps.google.com/mapfiles/kml/shapes/airports.png</href></Icon><hotSpot x="0.5" y="0" xunits="fraction" yunits="fraction"/></IconStyle><LabelStyle><scale>0.7</scale></LabelStyle></Style>
<Style id="w_vermellA_s"><IconStyle><color>ff0000ff</color><scale>1.4</scale><Icon><href>http://maps.google.com/mapfiles/kml/shapes/airports.png</href></Icon><hotSpot x="0.5" y="0" xunits="fraction" yunits="fraction"/></IconStyle><LabelStyle><scale>0.7</scale></LabelStyle></Style>
<StyleMap id="w_vermellA"><Pair><key>normal</key><styleUrl>#w_vermellA_n</styleUrl></Pair><Pair><key>highlight</key><styleUrl>#w_vermellA_s</styleUrl></Pair></StyleMap>
<Style id="w_vermellB_n"><IconStyle><color>ff0000ff</color><scale>1.0</scale><Icon><href>http://maps.google.com/mapfiles/kml/shapes/sailing.png</href></Icon><hotSpot x="0.5" y="0" xunits="fraction" yunits="fraction"/></IconStyle><LabelStyle><scale>0.7</scale></LabelStyle></Style>
<Style id="w_vermellB_s"><IconStyle><color>ff0000ff</color><scale>1.4</scale><Icon><href>http://maps.google.com/mapfiles/kml/shapes/sailing.png</href></Icon><hotSpot x="0.5" y="0" xunits="fraction" yunits="fraction"/></IconStyle><LabelStyle><scale>0.7</scale></LabelStyle></Style>
<StyleMap id="w_vermellB"><Pair><key>normal</key><styleUrl>#w_vermellBAR_n</styleUrl></Pair><Pair><key>highlight</key><styleUrl>#w_vermellBAR_s</styleUrl></Pair></StyleMap>
<Style id="w_descarrega"><IconStyle><color>ff00ffff</color><scale>0.5</scale><Icon><href>http://maps.google.com/mapfiles/kml/shapes/road_shield3.png</href></Icon></IconStyle><LabelStyle><scale>0.7</scale></LabelStyle></Style><Style id="actuacio"><IconStyle><color>ff00ffff</color><scale>0.8</scale><Icon><href>http://maps.google.com/mapfiles/kml/shapes/caution.png</href></Icon></IconStyle><LabelStyle><scale>0.7</scale></LabelStyle></Style></Document></kml>