<?xml version="1.0" encoding="UTF-8"?>
<kml xmlns="http://www.opengis.net/kml/2.2" xmlns:gx="http://www.google.com/kml/ext/2.2" xmlns:kml="http://www.opengis.net/kml/2.2" xmlns:atom="http://www.w3.org/2005/Atom">
<Document>
<name>Terminals</name>
<Snippet maxLines="2">Created 04/08/2018 00:13:26</Snippet>
<Folder>
<name>Terminals</name>
<Placemark><name>GGRAF03</name><description>204203 P.UT
posicio de les: 04/08/2018 00:12:53</description><styleUrl>#w_verdP</styleUrl><Point><coordinates>2.80624508857727,41.9607138633728,0</coordinates></Point></Placemark>
<Placemark><name>OP05081</name><description>205281 OP.AAV
posicio de les: 04/08/2018 00:09:11</description><styleUrl>#w_verdP</styleUrl><Point><coordinates>2.10667133331299,41.5173983573914,0</coordinates></Point></Placemark>
<Placemark><name>VIEL12</name><description>208012 P.PT VARAN
posicio de les: 04/08/2018 00:12:50</description><styleUrl>#w_verdP</styleUrl><Point><coordinates>0.801218748092651,42.6995229721069,0</coordinates></Point></Placemark>
<Placemark><name>VIEL17</name><description>208017 BASE CCA VARAN
posicio de les: 04/08/2018 00:11:53</description><styleUrl>#w_groc</styleUrl><Point><coordinates>0.796723365783691,42.7080953121185,0</coordinates></Point></Placemark>
<Placemark><name>GE100</name><description>210017 P.Tec REGIÓ
posicio de les: 04/08/2018 00:12:37</description><styleUrl>#w_verdP</styleUrl><Point><coordinates>1.85129284858704,41.7413413524628,0</coordinates></Point></Placemark>
<Placemark><name>10071</name><description>210071  REGIÓ
posicio de les: 04/08/2018 00:12:13</description><styleUrl>#w_groc</styleUrl><Point><coordinates>1.8528163433075,41.7415130138397,0</coordinates></Point></Placemark>
<Placemark><name>BER57</name><description>210357 PORT.COM BER (Centre)
posicio de les: 04/08/2018 00:12:18</description><styleUrl>#w_verdP</styleUrl><Point><coordinates>1.85778379440308,42.1042227745056,0</coordinates></Point></Placemark>
<Placemark><name>10831</name><description>210831 BRP GUA (Centre)
posicio de les: 04/08/2018 00:13:28</description><styleUrl>#w_verdC</styleUrl><Point><coordinates>1.8426775932312,42.2198152542114,0</coordinates></Point></Placemark>
<Placemark><name>211130</name><description>211130 BRP MOI (Centre)
posicio de les: 04/08/2018 00:09:29</description><styleUrl>#w_grocC</styleUrl><Point><coordinates>2.08629727363586,41.8117547035217,0</coordinates></Point></Placemark>
<Placemark><name>PUIG08</name><description>211508 PORT PUIG (Centre)
posicio de les: 04/08/2018 00:10:53</description><styleUrl>#w_verdP</styleUrl><Point><coordinates>1.90292000770569,42.4301648139954,0</coordinates></Point></Placemark>
<Placemark><name>SOLS05</name><description>211905 PORT SOLS (Centre)
posicio de les: 04/08/2018 00:11:35</description><styleUrl>#w_grocP</styleUrl><Point><coordinates>1.51236891746521,41.9895851612091,0</coordinates></Point></Placemark>
<Placemark><name>VIC04</name><description>212104 PORT VIC (Centre)
posicio de les: 04/08/2018 00:13:00</description><styleUrl>#w_verdP</styleUrl><Point><coordinates>2.26921319961548,41.9422817230225,0</coordinates></Point></Placemark>
<Placemark><name>CMC01</name><description>214501 PORT Parc X
posicio de les: 04/08/2018 00:12:57</description><styleUrl>#w_grocP</styleUrl><Point><coordinates>1.85196876525879,41.7416524887085,0</coordinates></Point></Placemark>
<Placemark><name>20091</name><description>220091  REGIÓ
posicio de les: 04/08/2018 00:09:56</description><styleUrl>#w_groc</styleUrl><Point><coordinates>2.80771493911743,41.9574308395386,0</coordinates></Point></Placemark>
<Placemark><name>20134</name><description>220134 BFP AMER (Girona)
posicio de les: 04/08/2018 00:12:55</description><styleUrl>#w_grocC</styleUrl><Point><coordinates>3.15345168113709,42.357519865036,0</coordinates></Point></Placemark>
<Placemark><name>BANY56</name><description>220356 PORT.COM BANY (Girona)
posicio de les: 04/08/2018 00:12:30</description><styleUrl>#w_verdP</styleUrl><Point><coordinates>2.78618216514587,42.1178698539734,0</coordinates></Point></Placemark>
<Placemark><name>220656</name><description>220656 PORT.COM CALO (Girona)
posicio de les: 04/08/2018 00:12:01</description><styleUrl>#w_verdP</styleUrl><Point><coordinates>3.07458400726318,41.852685213089,0</coordinates></Point></Placemark>
<Placemark><name>CASS04</name><description>220804 PORT CASS (Girona)
posicio de les: 04/08/2018 00:12:21</description><styleUrl>#w_verdP</styleUrl><Point><coordinates>2.88393259048462,41.8793785572052,0</coordinates></Point></Placemark>
<Placemark><name>20830</name><description>220830 BRP CASS (Girona)
posicio de les: 04/08/2018 00:10:00</description><styleUrl>#w_grocC</styleUrl><Point><coordinates>2.88343906402588,41.8797969818115,0</coordinates></Point></Placemark>
<Placemark><name>CASS56</name><description>220856 PORT.COM CASS (Girona)
posicio de les: 04/08/2018 00:11:41</description><styleUrl>#w_verdP</styleUrl><Point><coordinates>2.88365364074707,41.8797755241394,0</coordinates></Point></Placemark>
<Placemark><name>GIRO06</name><description>221106 PORT GIRO (Girona)
posicio de les: 04/08/2018 00:10:01</description><styleUrl>#w_verdP</styleUrl><Point><coordinates>2.80636310577393,41.9601881504059,0</coordinates></Point></Placemark>
<Placemark><name>21131</name><description>221131 BRP GIRO (Girona)
posicio de les: 04/08/2018 00:13:26</description><styleUrl>#w_verdC</styleUrl><Point><coordinates>2.80541896820068,41.9581067562103,0</coordinates></Point></Placemark>
<Placemark><name>21160</name><description>221160 AEA/AES/ABA GIRO (Girona)
posicio de les: 04/08/2018 00:13:03</description><styleUrl>#w_verdC</styleUrl><Point><coordinates>2.80310153961182,41.9597482681274,0</coordinates></Point></Placemark>
<Placemark><name>JONQ56</name><description>221356 PORT.COM JONQ (Girona)
posicio de les: 04/08/2018 00:13:19</description><styleUrl>#w_grocP</styleUrl><Point><coordinates>2.87643313407898,42.4120223522186,0</coordinates></Point></Placemark>
<Placemark><name>LLAN57</name><description>221457 PORT.COM LLAN (Girona)
posicio de les: 04/08/2018 00:09:43</description><styleUrl>#w_verdP</styleUrl><Point><coordinates>3.15273284912109,42.3576593399048,0</coordinates></Point></Placemark>
<Placemark><name>LLOR56</name><description>221556 PORT.COM LLOR (Girona)
posicio de les: 04/08/2018 00:11:15</description><styleUrl>#w_verdP</styleUrl><Point><coordinates>2.83574938774109,41.7000353336334,0</coordinates></Point></Placemark>
<Placemark><name>MAÇA57</name><description>221657 PORT.COM MACA (Girona)
posicio de les: 04/08/2018 00:13:26</description><styleUrl>#w_grocP</styleUrl><Point><coordinates>2.75285840034485,41.7797183990479,0</coordinates></Point></Placemark>
<Placemark><name>OLOT01</name><description>221701 PORT OLOT (Girona)
posicio de les: 04/08/2018 00:11:51</description><styleUrl>#w_verdP</styleUrl><Point><coordinates>3.16084384918213,42.2766029834747,0</coordinates></Point></Placemark>
<Placemark><name>OLOT56</name><description>221756 PORT.COM OLOT (Girona)
posicio de les: 04/08/2018 00:13:17</description><styleUrl>#w_verdP</styleUrl><Point><coordinates>2.47456312179565,42.190203666687,0</coordinates></Point></Placemark>
<Placemark><name>OLOT57</name><description>221757 PORT.COM OLOT (Girona)
posicio de les: 04/08/2018 00:11:28</description><styleUrl>#w_verdP</styleUrl><Point><coordinates>2.4739944934845,42.1902465820313,0</coordinates></Point></Placemark>
<Placemark><name>PALA56</name><description>221856 PORT.COM PALA (Girona)
posicio de les: 04/08/2018 00:12:37</description><styleUrl>#w_verdP</styleUrl><Point><coordinates>3.15624117851257,41.9260597229004,0</coordinates></Point></Placemark>
<Placemark><name>RIPO56</name><description>222156 PORT.COM RIPO (Girona)
posicio de les: 04/08/2018 00:11:35</description><styleUrl>#w_verdP</styleUrl><Point><coordinates>2.1683943271637,42.2152876853943,0</coordinates></Point></Placemark>
<Placemark><name>ROSE57</name><description>222257 PORT.COM ROSE (Girona)
posicio de les: 04/08/2018 00:13:02</description><styleUrl>#w_verdP</styleUrl><Point><coordinates>3.16092967987061,42.276109457016,0</coordinates></Point></Placemark>
<Placemark><name>22430</name><description>222430 BRP SHIL (Girona)
posicio de les: 04/08/2018 00:09:36</description><styleUrl>#w_grocC</styleUrl><Point><coordinates>3.03196907043457,41.8088471889496,0</coordinates></Point></Placemark>
<Placemark><name>VALL56</name><description>222856 PORT.COM VALL (Girona)
posicio de les: 04/08/2018 00:11:22</description><styleUrl>#w_verdP</styleUrl><Point><coordinates>3.03210854530334,41.8084609508514,0</coordinates></Point></Placemark>
<Placemark><name>22890</name><description>222890 UPC VALL (Girona)
posicio de les: 04/08/2018 00:11:12</description><styleUrl>#w_verd</styleUrl><Point><coordinates>3.03415775299072,41.8095982074738,0</coordinates></Point></Placemark>
<Placemark><name>D6REG</name><description>228046  SERVEIS REGIÓ
posicio de les: 04/08/2018 00:12:04</description><styleUrl>#w_verd</styleUrl><Point><coordinates>2.80642747879028,41.9604992866516,0</coordinates></Point></Placemark>
<Placemark><name>D0REL</name><description>230010 P.CG REGIÓ
posicio de les: 04/08/2018 00:11:35</description><styleUrl>#w_verdP</styleUrl><Point><coordinates>0.604848861694336,41.623409986496,0</coordinates></Point></Placemark>
<Placemark><name>RELL11</name><description>230011 P.Tec REGIÓ
posicio de les: 04/08/2018 00:13:18</description><styleUrl>#w_verdP</styleUrl><Point><coordinates>0.604097843170166,41.6237318515778,0</coordinates></Point></Placemark>
<Placemark><name>E00RELL</name><description>230014 P.Tec REGIÓ
posicio de les: 04/08/2018 00:13:11</description><styleUrl>#w_verdP</styleUrl><Point><coordinates>1.12885594367981,42.4090504646301,0</coordinates></Point></Placemark>
<Placemark><name>30082</name><description>230082  REGIÓ
posicio de les: 04/08/2018 00:10:45</description><styleUrl>#w_groc</styleUrl><Point><coordinates>0.805649757385254,41.799384355545,0</coordinates></Point></Placemark>
<Placemark><name>ALMA01</name><description>230301 PORT ALMA (Lleida)
posicio de les: 04/08/2018 00:12:06</description><styleUrl>#w_grocP</styleUrl><Point><coordinates>0.433852672576904,41.7318892478943,0</coordinates></Point></Placemark>
<Placemark><name>ALMA02</name><description>230302 PORT ALMA (Lleida)
posicio de les: 04/08/2018 00:12:07</description><styleUrl>#w_grocP</styleUrl><Point><coordinates>0.43394923210144,41.7317605018616,0</coordinates></Point></Placemark>
<Placemark><name>BALA57</name><description>230657 PORT.COM BALA (Lleida)
posicio de les: 04/08/2018 00:12:41</description><styleUrl>#w_verdP</styleUrl><Point><coordinates>0.805563926696777,41.799384355545,0</coordinates></Point></Placemark>
<Placemark><name>BORG01</name><description>230701 PORT BORG (Lleida)
posicio de les: 04/08/2018 00:12:48</description><styleUrl>#w_verdP</styleUrl><Point><coordinates>0.845099687576294,41.5068197250366,0</coordinates></Point></Placemark>
<Placemark><name>BORG02</name><description>230702 PORT BORG (Lleida)
posicio de les: 04/08/2018 00:13:05</description><styleUrl>#w_verdP</styleUrl><Point><coordinates>0.885611772537231,41.6148161888123,0</coordinates></Point></Placemark>
<Placemark><name>230704</name><description>230704 PORT BORG (Lleida)
posicio de les: 04/08/2018 00:13:28</description><styleUrl>#w_verdP</styleUrl><Point><coordinates>0.887221097946167,41.6171443462372,0</coordinates></Point></Placemark>
<Placemark><name>BORG06</name><description>230706 PORT BORG (Lleida)
posicio de les: 04/08/2018 00:13:21</description><styleUrl>#w_verdP</styleUrl><Point><coordinates>0.88664174079895,41.6162860393524,0</coordinates></Point></Placemark>
<Placemark><name>BORG07</name><description>230707 PORT BORG (Lleida)
posicio de les: 04/08/2018 00:12:51</description><styleUrl>#w_verdP</styleUrl><Point><coordinates>0.884109735488892,41.6128313541412,0</coordinates></Point></Placemark>
<Placemark><name>30730</name><description>230730 BRP BORG (Lleida)
posicio de les: 04/08/2018 00:13:27</description><styleUrl>#w_verdC</styleUrl><Point><coordinates>0.887199640274048,41.6170048713684,0</coordinates></Point></Placemark>
<Placemark><name>30748</name><description>230748 BUL BORG (Lleida)
posicio de les: 04/08/2018 00:13:26</description><styleUrl>#w_verdC</styleUrl><Point><coordinates>0.887564420700073,41.6174876689911,0</coordinates></Point></Placemark>
<Placemark><name>BORG56</name><description>230756 PORT.COM BORG (Lleida)
posicio de les: 04/08/2018 00:12:46</description><styleUrl>#w_verdP</styleUrl><Point><coordinates>0.844606161117554,41.5072917938232,0</coordinates></Point></Placemark>
<Placemark><name>CERV08</name><description>230908 PORT CERV (Lleida)
posicio de les: 04/08/2018 00:12:42</description><styleUrl>#w_verdP</styleUrl><Point><coordinates>1.26513361930847,41.6712605953217,0</coordinates></Point></Placemark>
<Placemark><name>ISON56</name><description>231556 PORT.COM ISON (Lleida)
posicio de les: 04/08/2018 00:12:09</description><styleUrl>#w_verdP</styleUrl><Point><coordinates>1.0485827922821,42.1188461780548,0</coordinates></Point></Placemark>
<Placemark><name>LLEI13</name><description>231913 PORT LLEI (Lleida)
posicio de les: 04/08/2018 00:12:45</description><styleUrl>#w_verdP</styleUrl><Point><coordinates>0.606114864349365,41.6244506835938,0</coordinates></Point></Placemark>
<Placemark><name>MOLL07</name><description>232007 PORT MOLL (Lleida)
posicio de les: 04/08/2018 00:12:50</description><styleUrl>#w_grocP</styleUrl><Point><coordinates>0.898175239562988,41.6365849971771,0</coordinates></Point></Placemark>
<Placemark><name>32031</name><description>232031 BRP MOLL (Lleida)
posicio de les: 04/08/2018 00:09:51</description><styleUrl>#w_grocC</styleUrl><Point><coordinates>0.898185968399048,41.6363918781281,0</coordinates></Point></Placemark>
<Placemark><name>POBL01</name><description>232401 PORT POBL (Lleida)
posicio de les: 04/08/2018 00:12:19</description><styleUrl>#w_verdP</styleUrl><Point><coordinates>0.964522361755371,42.2388911247253,0</coordinates></Point></Placemark>
<Placemark><name>SORT02</name><description>233002 PORT SORT (Lleida)
posicio de les: 04/08/2018 00:12:11</description><styleUrl>#w_verdP</styleUrl><Point><coordinates>1.12853407859802,42.4086320400238,0</coordinates></Point></Placemark>
<Placemark><name>REMN11</name><description>240011 P.Tec REGIÓ
posicio de les: 04/08/2018 00:13:20</description><styleUrl>#w_verdP</styleUrl><Point><coordinates>2.11117744445801,41.5042984485626,0</coordinates></Point></Placemark>
<Placemark><name>40081</name><description>240081  REGIÓ
posicio de les: 04/08/2018 00:11:53</description><styleUrl>#w_groc</styleUrl><Point><coordinates>2.11236834526062,41.5022492408752,0</coordinates></Point></Placemark>
<Placemark><name>40091</name><description>240091  REGIÓ
posicio de les: 04/08/2018 00:12:58</description><styleUrl>#w_groc</styleUrl><Point><coordinates>2.11167097091675,41.5021955966949,0</coordinates></Point></Placemark>
<Placemark><name>40290</name><description>240290 UPC BAD (Metro. Nord)
posicio de les: 04/08/2018 00:12:25</description><styleUrl>#w_groc</styleUrl><Point><coordinates>2.20943212509155,41.4634323120117,0</coordinates></Point></Placemark>
<Placemark><name>CER06</name><description>240506 PORT CER (Metro. Nord)
posicio de les: 04/08/2018 00:11:38</description><styleUrl>#w_verdP</styleUrl><Point><coordinates>2.11127400398254,41.5023136138916,0</coordinates></Point></Placemark>
<Placemark><name>40690</name><description>240690 UPC GRA (Metro. Nord)
posicio de les: 04/08/2018 00:08:23</description><styleUrl>#w_verd</styleUrl><Point><coordinates>2.42261409759521,41.532096862793,0</coordinates></Point></Placemark>
<Placemark><name>MTD03</name><description>240803 PORT MTD (Metro. Nord)
posicio de les: 04/08/2018 00:13:25</description><styleUrl>#w_verdP</styleUrl><Point><coordinates>2.00935006141663,41.6364347934723,0</coordinates></Point></Placemark>
<Placemark><name>MAT03</name><description>240903 PORT MAT (Metro. Nord)
posicio de les: 04/08/2018 00:11:29</description><styleUrl>#w_verdP</styleUrl><Point><coordinates>2.42329001426697,41.5315389633179,0</coordinates></Point></Placemark>
<Placemark><name>MAT07</name><description>240907 PORT MAT (Metro. Nord)
posicio de les: 04/08/2018 00:11:01</description><styleUrl>#w_grocP</styleUrl><Point><coordinates>2.42252826690674,41.53191447258,0</coordinates></Point></Placemark>
<Placemark><name>40940</name><description>240940 BUP MAT (Metro. Nord)
posicio de les: 04/08/2018 00:12:52</description><styleUrl>#w_verdC</styleUrl><Point><coordinates>2.4228823184967,41.5324079990387,0</coordinates></Point></Placemark>
<Placemark><name>240950</name><description>240950 FSV/FRQ/FER/FRM/FRA/FSA MAT (Metro. Nord)
posicio de les: 04/08/2018 00:08:53</description><styleUrl>#w_verdC</styleUrl><Point><coordinates>2.54049181938171,41.6044199466705,0</coordinates></Point></Placemark>
<Placemark><name>MOL03</name><description>241003 PORT MOL (Metro. Nord)
posicio de les: 04/08/2018 00:12:34</description><styleUrl>#w_verdP</styleUrl><Point><coordinates>2.20144987106323,41.5372252464294,0</coordinates></Point></Placemark>
<Placemark><name>241040</name><description>241040 BUP MOL (Metro. Nord)
posicio de les: 04/08/2018 00:11:15</description><styleUrl>#w_grocC</styleUrl><Point><coordinates>2.202308177948,41.5364742279053,0</coordinates></Point></Placemark>
<Placemark><name>241048</name><description>241048 BUL MOL (Metro. Nord)
posicio de les: 04/08/2018 00:09:01</description><styleUrl>#w_verdC</styleUrl><Point><coordinates>2.20199704170227,41.5367424488068,0</coordinates></Point></Placemark>
<Placemark><name>MOL56</name><description>241056 PORT.COM MOL (Metro. Nord)
posicio de les: 04/08/2018 00:10:57</description><styleUrl>#w_verdP</styleUrl><Point><coordinates>2.20199704170227,41.5367960929871,0</coordinates></Point></Placemark>
<Placemark><name>RUB01</name><description>241301 PORT RUB (Metro. Nord)
posicio de les: 04/08/2018 00:10:15</description><styleUrl>#w_verdP</styleUrl><Point><coordinates>2.03545331954956,41.4736032485962,0</coordinates></Point></Placemark>
<Placemark><name>241440</name><description>241440 BUP SAB (Metro. Nord)
posicio de les: 04/08/2018 00:10:52</description><styleUrl>#w_grocC</styleUrl><Point><coordinates>2.10396766662598,41.5422892570496,0</coordinates></Point></Placemark>
<Placemark><name>SCE07</name><description>241607 PORT SCE (Metro. Nord)
posicio de les: 04/08/2018 00:12:29</description><styleUrl>#w_verdP</styleUrl><Point><coordinates>2.50691056251526,41.6953897476196,0</coordinates></Point></Placemark>
<Placemark><name>41640</name><description>241640 BUP SCE (Metro. Nord)
posicio de les: 04/08/2018 00:13:08</description><styleUrl>#w_verdC</styleUrl><Point><coordinates>2.48803853988647,41.692396402359,0</coordinates></Point></Placemark>
<Placemark><name>241858</name><description>241858 BSAL SCG (Metro. Nord)
posicio de les: 04/08/2018 00:13:17</description><styleUrl>#w_verdB</styleUrl><Point><coordinates>2.20949649810791,41.4632177352905,0</coordinates></Point></Placemark>
<Placemark><name>242040</name><description>242040 BUP TER (Metro. Nord)
posicio de les: 04/08/2018 00:12:34</description><styleUrl>#w_verdC</styleUrl><Point><coordinates>2.026526927948,41.5672123432159,0</coordinates></Point></Placemark>
<Placemark><name>D3REMN</name><description>248043  SERVEIS REGIÓ
posicio de les: 04/08/2018 00:11:47</description><styleUrl>#w_verd</styleUrl><Point><coordinates>2.11217522621155,41.502388715744,0</coordinates></Point></Placemark>
<Placemark><name>REMS14</name><description>250014 P.Tec REGIÓ
posicio de les: 04/08/2018 00:11:58</description><styleUrl>#w_verdP</styleUrl><Point><coordinates>2.03409075737,41.322466135025,0</coordinates></Point></Placemark>
<Placemark><name>50092</name><description>250092  REGIÓ
posicio de les: 04/08/2018 00:12:24</description><styleUrl>#w_verd</styleUrl><Point><coordinates>1.71384572982788,41.2196087837219,0</coordinates></Point></Placemark>
<Placemark><name>50093</name><description>250093  REGIÓ
posicio de les: 04/08/2018 00:12:33</description><styleUrl>#w_groc</styleUrl><Point><coordinates>2.03450918197632,41.3230454921722,0</coordinates></Point></Placemark>
<Placemark><name>COR07</name><description>250407 PORT COR (Metro. Sud)
posicio de les: 04/08/2018 00:10:06</description><styleUrl>#w_verdP</styleUrl><Point><coordinates>2.07106232643127,41.3604784011841,0</coordinates></Point></Placemark>
<Placemark><name>COR56</name><description>250456 PORT.COM COR (Metro. Sud)
posicio de les: 04/08/2018 00:13:12</description><styleUrl>#w_verdP</styleUrl><Point><coordinates>2.07051515579224,41.3607251644135,0</coordinates></Point></Placemark>
<Placemark><name>GAV09</name><description>250509 PORT GAV (Metro. Sud)
posicio de les: 04/08/2018 00:13:13</description><styleUrl>#w_verdP</styleUrl><Point><coordinates>1.99022054672241,41.3002467155457,0</coordinates></Point></Placemark>
<Placemark><name>GAV57</name><description>250557 PORT.COM GAV (Metro. Sud)
posicio de les: 04/08/2018 00:12:49</description><styleUrl>#w_verdP</styleUrl><Point><coordinates>1.99032783508301,41.3000965118408,0</coordinates></Point></Placemark>
<Placemark><name>250740</name><description>250740 BUP HOS (Metro. Sud)
posicio de les: 04/08/2018 00:13:21</description><styleUrl>#w_verdC</styleUrl><Point><coordinates>2.10559844970703,41.3623237609863,0</coordinates></Point></Placemark>
<Placemark><name>IGU20E</name><description>250820 PORT IGU (Metro. Sud)
posicio de les: 04/08/2018 00:09:52</description><styleUrl>#w_grocP</styleUrl><Point><coordinates>1.61021590232849,41.5896141529083,0</coordinates></Point></Placemark>
<Placemark><name>MAR01</name><description>251001 PORT MAR (Metro. Sud)
posicio de les: 04/08/2018 00:09:42</description><styleUrl>#w_verdP</styleUrl><Point><coordinates>1.90754413604736,41.4991807937622,0</coordinates></Point></Placemark>
<Placemark><name>MAR10</name><description>251010 PORT MAR (Metro. Sud)
posicio de les: 04/08/2018 00:12:45</description><styleUrl>#w_verdP</styleUrl><Point><coordinates>1.90786600112915,41.4988696575165,0</coordinates></Point></Placemark>
<Placemark><name>MAR11</name><description>251011 PORT MAR (Metro. Sud)
posicio de les: 04/08/2018 00:12:53</description><styleUrl>#w_verdP</styleUrl><Point><coordinates>1.90762996673584,41.4987194538116,0</coordinates></Point></Placemark>
<Placemark><name>51030</name><description>251030 BRP MAR (Metro. Sud)
posicio de les: 04/08/2018 00:08:35</description><styleUrl>#w_grocC</styleUrl><Point><coordinates>1.90802693367004,41.4986765384674,0</coordinates></Point></Placemark>
<Placemark><name>251040</name><description>251040 BUP MAR (Metro. Sud)
posicio de les: 04/08/2018 00:13:24</description><styleUrl>#w_verdC</styleUrl><Point><coordinates>1.89926147460938,41.5135788917542,0</coordinates></Point></Placemark>
<Placemark><name>MAR56</name><description>251056 PORT.COM MAR (Metro. Sud)
posicio de les: 04/08/2018 00:12:52</description><styleUrl>#w_verdP</styleUrl><Point><coordinates>1.89814567565918,41.5188467502594,0</coordinates></Point></Placemark>
<Placemark><name>PLL03</name><description>251203 PORT PLL (Metro. Sud)
posicio de les: 04/08/2018 00:12:53</description><styleUrl>#w_grocP</styleUrl><Point><coordinates>2.08146929740906,41.3172090053558,0</coordinates></Point></Placemark>
<Placemark><name>PLL57</name><description>251257 PORT.COM PLL (Metro. Sud)
posicio de les: 04/08/2018 00:13:24</description><styleUrl>#w_verdP</styleUrl><Point><coordinates>2.08184480667114,41.3184213638306,0</coordinates></Point></Placemark>
<Placemark><name>SBOI02</name><description>251302 PORT SBOI (Metro. Sud)
posicio de les: 04/08/2018 00:11:28</description><styleUrl>#w_grocP</styleUrl><Point><coordinates>2.03425168991089,41.3228416442871,0</coordinates></Point></Placemark>
<Placemark><name>SFE03</name><description>251503 PORT SFE (Metro. Sud)
posicio de les: 04/08/2018 00:11:47</description><styleUrl>#w_grocP</styleUrl><Point><coordinates>2.04281330108643,41.3885986804962,0</coordinates></Point></Placemark>
<Placemark><name>VIF03</name><description>251803 PORT VIF (Metro. Sud)
posicio de les: 04/08/2018 00:11:53</description><styleUrl>#w_verdP</styleUrl><Point><coordinates>1.70403957366943,41.3545024394989,0</coordinates></Point></Placemark>
<Placemark><name>51860</name><description>251860 AEA/AES/ABA VIF (Metro. Sud)
posicio de les: 04/08/2018 00:11:35</description><styleUrl>#w_grocC</styleUrl><Point><coordinates>1.70467257499695,41.3547492027283,0</coordinates></Point></Placemark>
<Placemark><name>SCREMS3</name><description>258003 P.COMODIN SERVEIS REGIÓ
posicio de les: 04/08/2018 00:10:47</description><styleUrl>#w_verdP</styleUrl><Point><coordinates>2.03440189361572,41.3222086429596,0</coordinates></Point></Placemark>
<Placemark><name>260508</name><description>260508 PORT HOSP (Tarragona)
posicio de les: 04/08/2018 00:13:14</description><styleUrl>#w_verdP</styleUrl><Point><coordinates>0.920029878616333,40.993766784668,0</coordinates></Point></Placemark>
<Placemark><name>260530</name><description>260530 BRP HOSP (Tarragona)
posicio de les: 04/08/2018 00:09:19</description><styleUrl>#w_verdC</styleUrl><Point><coordinates>0.91984748840332,40.9942603111267,0</coordinates></Point></Placemark>
<Placemark><name>MONT02</name><description>260602 PORT MONT (Tarragona)
posicio de les: 04/08/2018 00:13:20</description><styleUrl>#w_verdP</styleUrl><Point><coordinates>1.14086151123047,41.3932120800018,0</coordinates></Point></Placemark>
<Placemark><name>60890</name><description>260890 UPC REUS (Tarragona)
posicio de les: 04/08/2018 00:10:54</description><styleUrl>#w_groc</styleUrl><Point><coordinates>1.11825585365295,41.1512124538422,0</coordinates></Point></Placemark>
<Placemark><name>TARR01</name><description>261201 PORT TARR (Tarragona)
posicio de les: 04/08/2018 00:12:07</description><styleUrl>#w_verdP</styleUrl><Point><coordinates>1.18486046791077,41.1346685886383,0</coordinates></Point></Placemark>
<Placemark><name>TARR04</name><description>261204 PORT TARR (Tarragona)
posicio de les: 04/08/2018 00:10:57</description><styleUrl>#w_verdP</styleUrl><Point><coordinates>1.22186422348022,41.1139297485352,0</coordinates></Point></Placemark>
<Placemark><name>SCRET</name><description>268001 P.COMODIN SERVEIS REGIÓ
posicio de les: 04/08/2018 00:13:18</description><styleUrl>#w_grocP</styleUrl><Point><coordinates>1.18510723114014,41.134968996048,0</coordinates></Point></Placemark>
<Placemark><name>E00RETE</name><description>270014 P.Tec REGIÓ
posicio de les: 04/08/2018 00:12:18</description><styleUrl>#w_verdP</styleUrl><Point><coordinates>0.513246059417725,40.8192944526672,0</coordinates></Point></Placemark>
<Placemark><name>72031</name><description>272031 BRP AMET (Terres de l'Ebre)
posicio de les: 04/08/2018 00:13:27</description><styleUrl>#w_verdC</styleUrl><Point><coordinates>0.794792175292969,40.8924436569214,0</coordinates></Point></Placemark>
<Placemark><name>272130</name><description>272130 BRP AMPO (Terres de l'Ebre)
posicio de les: 04/08/2018 00:13:24</description><styleUrl>#w_grocC</styleUrl><Point><coordinates>0.579646825790405,40.6893360614777,0</coordinates></Point></Placemark>
<Placemark><name>AMPO57</name><description>272157 PORT.COM AMPO (Terres de l'Ebre)
posicio de les: 04/08/2018 00:10:11</description><styleUrl>#w_verdP</styleUrl><Point><coordinates>0.579603910446167,40.6890034675598,0</coordinates></Point></Placemark>
<Placemark><name>ASCO56</name><description>272256 PORT.COM ASCO (Terres de l'Ebre)
posicio de les: 04/08/2018 00:12:34</description><styleUrl>#w_grocP</styleUrl><Point><coordinates>0.569368600845337,41.1881303787231,0</coordinates></Point></Placemark>
<Placemark><name>MORA06</name><description>272806 PORT MORA (Terres de l'Ebre)
posicio de les: 04/08/2018 00:12:13</description><styleUrl>#w_verdP</styleUrl><Point><coordinates>0.629686117172241,41.0862815380096,0</coordinates></Point></Placemark>
<Placemark><name>ULLD08</name><description>273108 PORT ULLD (Terres de l'Ebre)
posicio de les: 04/08/2018 00:13:28</description><styleUrl>#w_verdP</styleUrl><Point><coordinates>0.357956886291504,40.60870885849,0</coordinates></Point></Placemark>
</Folder>
<Folder>
<name>Descarregues</name>
</Folder>
<Style id="w_verdP_n"><IconStyle><color>ff00ff00</color><scale>1.0</scale><Icon><href>http://maps.google.com/mapfiles/kml/shapes/man.png</href></Icon><hotSpot x="0.5" y="0" xunits="fraction" yunits="fraction"/></IconStyle><LabelStyle><scale>0.7</scale></LabelStyle></Style>
<Style id="w_verdP_s"><IconStyle><color>ff00ff00</color><scale>1.4</scale><Icon><href>http://maps.google.com/mapfiles/kml/shapes/man.png</href></Icon><hotSpot x="0.5" y="0" xunits="fraction" yunits="fraction"/></IconStyle><LabelStyle><scale>0.7</scale></LabelStyle></Style>
<StyleMap id="w_verdP"><Pair><key>normal</key><styleUrl>#w_verdP_n</styleUrl></Pair><Pair><key>highlight</key><styleUrl>#w_verdP_s</styleUrl></Pair></StyleMap>
<Style id="w_verd_n"><IconStyle><color>ff00ff00</color><scale>0.7</scale><Icon><href>http://maps.google.com/mapfiles/kml/shapes/cabs.png</href></Icon><hotSpot x="0.5" y="0" xunits="fraction" yunits="fraction"/></IconStyle><LabelStyle><scale>0.7</scale></LabelStyle></Style>
<Style id="w_verd_s"><IconStyle><color>ff00ff00</color><scale>1.0</scale><Icon><href>http://maps.google.com/mapfiles/kml/shapes/cabs.png</href></Icon><hotSpot x="0.5" y="0" xunits="fraction" yunits="fraction"/></IconStyle><LabelStyle><scale>0.7</scale></LabelStyle></Style>
<StyleMap id="w_verd"><Pair><key>normal</key><styleUrl>#w_verd_n</styleUrl></Pair><Pair><key>highlight</key><styleUrl>#w_verd_s</styleUrl></Pair></StyleMap>
<Style id="w_verdC_n"><IconStyle><color>ff00ff00</color><scale>1.0</scale><Icon><href>http://maps.google.com/mapfiles/kml/shapes/truck.png</href></Icon><hotSpot x="0.5" y="0" xunits="fraction" yunits="fraction"/></IconStyle><LabelStyle><scale>0.7</scale></LabelStyle></Style>
<Style id="w_verdC_s"><IconStyle><color>ff00ff00</color><scale>1.4</scale><Icon><href>http://maps.google.com/mapfiles/kml/shapes/truck.png</href></Icon><hotSpot x="0.5" y="0" xunits="fraction" yunits="fraction"/></IconStyle><LabelStyle><scale>0.7</scale></LabelStyle></Style>
<StyleMap id="w_verdC"><Pair><key>normal</key><styleUrl>#w_verdC_n</styleUrl></Pair><Pair><key>highlight</key><styleUrl>#w_verdC_s</styleUrl></Pair></StyleMap>
<Style id="w_verdH_n"><IconStyle><color>ff0000ff</color><scale>1.2</scale><Icon><href>http://maps.google.com/mapfiles/kml/shapes/heliport.png</href></Icon><hotSpot x="0.5" y="0" xunits="fraction" yunits="fraction"/></IconStyle><LabelStyle><scale>0.7</scale></LabelStyle></Style>
<Style id="w_verdH_s"><IconStyle><color>ff0000ff</color><scale>1.4</scale><Icon><href>http://maps.google.com/mapfiles/kml/shapes/heliport.png</href></Icon><hotSpot x="0.5" y="0" xunits="fraction" yunits="fraction"/></IconStyle><LabelStyle><scale>0.7</scale></LabelStyle></Style>
<StyleMap id="w_verdH"><Pair><key>normal</key><styleUrl>#w_verdH_n</styleUrl></Pair><Pair><key>highlight</key><styleUrl>#w_verdH_s</styleUrl></Pair></StyleMap>
<Style id="w_verdA_n"><IconStyle><color>ff0000ff</color><scale>1.2</scale><Icon><href>http://maps.google.com/mapfiles/kml/shapes/airports.png</href></Icon><hotSpot x="0.5" y="0" xunits="fraction" yunits="fraction"/></IconStyle><LabelStyle><scale>0.7</scale></LabelStyle></Style>
<Style id="w_verdA_s"><IconStyle><color>ff0000ff</color><scale>1.4</scale><Icon><href>http://maps.google.com/mapfiles/kml/shapes/airports.png</href></Icon><hotSpot x="0.5" y="0" xunits="fraction" yunits="fraction"/></IconStyle><LabelStyle><scale>0.7</scale></LabelStyle></Style>
<StyleMap id="w_verdA"><Pair><key>normal</key><styleUrl>#w_verdA_n</styleUrl></Pair><Pair><key>highlight</key><styleUrl>#w_verdA_s</styleUrl></Pair></StyleMap>
<Style id="w_verdB_n"><IconStyle><color>ff00ff00</color><scale>1.0</scale><Icon><href>http://maps.google.com/mapfiles/kml/shapes/sailing.png</href></Icon><hotSpot x="0.5" y="0" xunits="fraction" yunits="fraction"/></IconStyle><LabelStyle><scale>0.7</scale></LabelStyle></Style>
<Style id="w_verdB_s"><IconStyle><color>ff00ff00</color><scale>1.4</scale><Icon><href>http://maps.google.com/mapfiles/kml/shapes/sailing.png</href></Icon><hotSpot x="0.5" y="0" xunits="fraction" yunits="fraction"/></IconStyle><LabelStyle><scale>0.7</scale></LabelStyle></Style>
<StyleMap id="w_verdB"><Pair><key>normal</key><styleUrl>#w_verdBAR_n</styleUrl></Pair><Pair><key>highlight</key><styleUrl>#w_verdBAR_s</styleUrl></Pair></StyleMap>
<Style id="w_grocP_n"><IconStyle><color>ff00ffff</color><scale>1.0</scale><Icon><href>http://maps.google.com/mapfiles/kml/shapes/man.png</href></Icon><hotSpot x="0.5" y="0" xunits="fraction" yunits="fraction"/></IconStyle><LabelStyle><scale>0.7</scale></LabelStyle></Style>
<Style id="w_grocP_s"><IconStyle><color>ff00ffff</color><scale>1.4</scale><Icon><href>http://maps.google.com/mapfiles/kml/shapes/man.png</href></Icon><hotSpot x="0.5" y="0" xunits="fraction" yunits="fraction"/></IconStyle><LabelStyle><scale>0.7</scale></LabelStyle></Style>
<StyleMap id="w_grocP"><Pair><key>normal</key><styleUrl>#w_grocP_n</styleUrl></Pair><Pair><key>highlight</key><styleUrl>#w_grocP_s</styleUrl></Pair></StyleMap>
<Style id="w_groc_n"><IconStyle><color>ff00ffff</color><scale>0.7</scale><Icon><href>http://maps.google.com/mapfiles/kml/shapes/cabs.png</href></Icon><hotSpot x="0.5" y="0" xunits="fraction" yunits="fraction"/></IconStyle><LabelStyle><scale>0.7</scale></LabelStyle></Style>
<Style id="w_groc_s"><IconStyle><color>ff00ffff</color><scale>1.0</scale><Icon><href>http://maps.google.com/mapfiles/kml/shapes/cabs.png</href></Icon><hotSpot x="0.5" y="0" xunits="fraction" yunits="fraction"/></IconStyle><LabelStyle><scale>0.7</scale></LabelStyle></Style>
<StyleMap id="w_groc"><Pair><key>normal</key><styleUrl>#w_groc_n</styleUrl></Pair><Pair><key>highlight</key><styleUrl>#w_groc_s</styleUrl></Pair></StyleMap>
<Style id="w_grocC_n"><IconStyle><color>ff00ffff</color><scale>1.0</scale><Icon><href>http://maps.google.com/mapfiles/kml/shapes/truck.png</href></Icon><hotSpot x="0.5" y="0" xunits="fraction" yunits="fraction"/></IconStyle><LabelStyle><scale>0.7</scale></LabelStyle></Style>
<Style id="w_grocC_s"><IconStyle><color>ff00ffff</color><scale>1.4</scale><Icon><href>http://maps.google.com/mapfiles/kml/shapes/truck.png</href></Icon><hotSpot x="0.5" y="0" xunits="fraction" yunits="fraction"/></IconStyle><LabelStyle><scale>0.7</scale></LabelStyle></Style>
<StyleMap id="w_grocC"><Pair><key>normal</key><styleUrl>#w_grocC_n</styleUrl></Pair><Pair><key>highlight</key><styleUrl>#w_grocC_s</styleUrl></Pair></StyleMap>
<Style id="w_grocH_n"><IconStyle><color>ff0000ff</color><scale>1.2</scale><Icon><href>http://maps.google.com/mapfiles/kml/shapes/heliport.png</href></Icon><hotSpot x="0.5" y="0" xunits="fraction" yunits="fraction"/></IconStyle><LabelStyle><scale>0.7</scale></LabelStyle></Style>
<Style id="w_grocH_s"><IconStyle><color>ff0000ff</color><scale>1.4</scale><Icon><href>http://maps.google.com/mapfiles/kml/shapes/heliport.png</href></Icon><hotSpot x="0.5" y="0" xunits="fraction" yunits="fraction"/></IconStyle><LabelStyle><scale>0.7</scale></LabelStyle></Style>
<StyleMap id="w_grocH"><Pair><key>normal</key><styleUrl>#w_grocH_n</styleUrl></Pair><Pair><key>highlight</key><styleUrl>#w_grocH_s</styleUrl></Pair></StyleMap>
<Style id="w_grocA_n"><IconStyle><color>ff0000ff</color><scale>1.2</scale><Icon><href>http://maps.google.com/mapfiles/kml/shapes/airports.png</href></Icon><hotSpot x="0.5" y="0" xunits="fraction" yunits="fraction"/></IconStyle><LabelStyle><scale>0.7</scale></LabelStyle></Style>
<Style id="w_grocA_s"><IconStyle><color>ff0000ff</color><scale>1.4</scale><Icon><href>http://maps.google.com/mapfiles/kml/shapes/airports.png</href></Icon><hotSpot x="0.5" y="0" xunits="fraction" yunits="fraction"/></IconStyle><LabelStyle><scale>0.7</scale></LabelStyle></Style>
<StyleMap id="w_grocA"><Pair><key>normal</key><styleUrl>#w_grocA_n</styleUrl></Pair><Pair><key>highlight</key><styleUrl>#w_grocA_s</styleUrl></Pair></StyleMap>
<Style id="w_grocB_n"><IconStyle><color>ff00ffff</color><scale>1.0</scale><Icon><href>http://maps.google.com/mapfiles/kml/shapes/sailing.png</href></Icon><hotSpot x="0.5" y="0" xunits="fraction" yunits="fraction"/></IconStyle><LabelStyle><scale>0.7</scale></LabelStyle></Style>
<Style id="w_grocB_s"><IconStyle><color>ff00ffff</color><scale>1.4</scale><Icon><href>http://maps.google.com/mapfiles/kml/shapes/sailing.png</href></Icon><hotSpot x="0.5" y="0" xunits="fraction" yunits="fraction"/></IconStyle><LabelStyle><scale>0.7</scale></LabelStyle></Style>
<StyleMap id="w_grocB"><Pair><key>normal</key><styleUrl>#w_grocBAR_n</styleUrl></Pair><Pair><key>highlight</key><styleUrl>#w_grocBAR_s</styleUrl></Pair></StyleMap>
<Style id="w_vermellP_n"><IconStyle><color>ff0000ff</color><scale>1.0</scale><Icon><href>http://maps.google.com/mapfiles/kml/shapes/man.png</href></Icon><hotSpot x="0.5" y="0" xunits="fraction" yunits="fraction"/></IconStyle><LabelStyle><scale>0.7</scale></LabelStyle></Style>
<Style id="w_vermellP_s"><IconStyle><color>ff0000ff</color><scale>1.4</scale><Icon><href>http://maps.google.com/mapfiles/kml/shapes/man.png</href></Icon><hotSpot x="0.5" y="0" xunits="fraction" yunits="fraction"/></IconStyle><LabelStyle><scale>0.7</scale></LabelStyle></Style>
<StyleMap id="w_vermellP"><Pair><key>normal</key><styleUrl>#w_vermellP_n</styleUrl></Pair><Pair><key>highlight</key><styleUrl>#w_vermellP_s</styleUrl></Pair></StyleMap>
<Style id="w_vermell_n"><IconStyle><color>ff0000ff</color><scale>0.7</scale><Icon><href>http://maps.google.com/mapfiles/kml/shapes/cabs.png</href></Icon><hotSpot x="0.5" y="0" xunits="fraction" yunits="fraction"/></IconStyle><LabelStyle><scale>0.7</scale></LabelStyle></Style>
<Style id="w_vermell_s"><IconStyle><color>ff0000ff</color><scale>1.0</scale><Icon><href>http://maps.google.com/mapfiles/kml/shapes/cabs.png</href></Icon><hotSpot x="0.5" y="0" xunits="fraction" yunits="fraction"/></IconStyle><LabelStyle><scale>0.7</scale></LabelStyle></Style>
<StyleMap id="w_vermell"><Pair><key>normal</key><styleUrl>#w_vermell_n</styleUrl></Pair><Pair><key>highlight</key><styleUrl>#w_vermell_s</styleUrl></Pair></StyleMap>
<Style id="w_vermellC_n"><IconStyle><color>ff0000ff</color><scale>1.0</scale><Icon><href>http://maps.google.com/mapfiles/kml/shapes/truck.png</href></Icon><hotSpot x="0.5" y="0" xunits="fraction" yunits="fraction"/></IconStyle><LabelStyle><scale>0.7</scale></LabelStyle></Style>
<Style id="w_vermellC_s"><IconStyle><color>ff0000ff</color><scale>1.4</scale><Icon><href>http://maps.google.com/mapfiles/kml/shapes/truck.png</href></Icon><hotSpot x="0.5" y="0" xunits="fraction" yunits="fraction"/></IconStyle><LabelStyle><scale>0.7</scale></LabelStyle></Style>
<StyleMap id="w_vermellC"><Pair><key>normal</key><styleUrl>#w_vermellC_n</styleUrl></Pair><Pair><key>highlight</key><styleUrl>#w_vermellC_s</styleUrl></Pair></StyleMap>
<Style id="w_vermellH_n"><IconStyle><color>ff0000ff</color><scale>1.2</scale><Icon><href>http://maps.google.com/mapfiles/kml/shapes/heliport.png</href></Icon><hotSpot x="0.5" y="0" xunits="fraction" yunits="fraction"/></IconStyle><LabelStyle><scale>0.7</scale></LabelStyle></Style>
<Style id="w_vermellH_s"><IconStyle><color>ff0000ff</color><scale>1.4</scale><Icon><href>http://maps.google.com/mapfiles/kml/shapes/heliport.png</href></Icon><hotSpot x="0.5" y="0" xunits="fraction" yunits="fraction"/></IconStyle><LabelStyle><scale>0.7</scale></LabelStyle></Style>
<StyleMap id="w_vermellH"><Pair><key>normal</key><styleUrl>#w_vermellH_n</styleUrl></Pair><Pair><key>highlight</key><styleUrl>#w_vermellH_s</styleUrl></Pair></StyleMap>
<Style id="w_vermellA_n"><IconStyle><color>ff0000ff</color><scale>1.2</scale><Icon><href>http://maps.google.com/mapfiles/kml/shapes/airports.png</href></Icon><hotSpot x="0.5" y="0" xunits="fraction" yunits="fraction"/></IconStyle><LabelStyle><scale>0.7</scale></LabelStyle></Style>
<Style id="w_vermellA_s"><IconStyle><color>ff0000ff</color><scale>1.4</scale><Icon><href>http://maps.google.com/mapfiles/kml/shapes/airports.png</href></Icon><hotSpot x="0.5" y="0" xunits="fraction" yunits="fraction"/></IconStyle><LabelStyle><scale>0.7</scale></LabelStyle></Style>
<StyleMap id="w_vermellA"><Pair><key>normal</key><styleUrl>#w_vermellA_n</styleUrl></Pair><Pair><key>highlight</key><styleUrl>#w_vermellA_s</styleUrl></Pair></StyleMap>
<Style id="w_vermellB_n"><IconStyle><color>ff0000ff</color><scale>1.0</scale><Icon><href>http://maps.google.com/mapfiles/kml/shapes/sailing.png</href></Icon><hotSpot x="0.5" y="0" xunits="fraction" yunits="fraction"/></IconStyle><LabelStyle><scale>0.7</scale></LabelStyle></Style>
<Style id="w_vermellB_s"><IconStyle><color>ff0000ff</color><scale>1.4</scale><Icon><href>http://maps.google.com/mapfiles/kml/shapes/sailing.png</href></Icon><hotSpot x="0.5" y="0" xunits="fraction" yunits="fraction"/></IconStyle><LabelStyle><scale>0.7</scale></LabelStyle></Style>
<StyleMap id="w_vermellB"><Pair><key>normal</key><styleUrl>#w_vermellBAR_n</styleUrl></Pair><Pair><key>highlight</key><styleUrl>#w_vermellBAR_s</styleUrl></Pair></StyleMap>
<Style id="w_descarrega"><IconStyle><color>ff00ffff</color><scale>0.5</scale><Icon><href>http://maps.google.com/mapfiles/kml/shapes/road_shield3.png</href></Icon></IconStyle><LabelStyle><scale>0.7</scale></LabelStyle></Style><Style id="actuacio"><IconStyle><color>ff00ffff</color><scale>0.8</scale><Icon><href>http://maps.google.com/mapfiles/kml/shapes/caution.png</href></Icon></IconStyle><LabelStyle><scale>0.7</scale></LabelStyle></Style></Document></kml>