<?xml version="1.0" encoding="UTF-8"?>
<kml xmlns="http://www.opengis.net/kml/2.2" xmlns:gx="http://www.google.com/kml/ext/2.2" xmlns:kml="http://www.opengis.net/kml/2.2" xmlns:atom="http://www.w3.org/2005/Atom">
<Document>
<name>Terminals</name>
<Snippet maxLines="2">Created 08/08/2018 05:02:52</Snippet>
<Folder>
<name>Terminals</name>
<Placemark><name>GGRAF03</name><description>204203 P.UT
posicio de les: 08/08/2018 05:01:45</description><styleUrl>#w_verdP</styleUrl><Point><coordinates>2.80656695365906,41.9602417945862,0</coordinates></Point></Placemark>
<Placemark><name>GGRAF04</name><description>204204 P.UT
posicio de les: 08/08/2018 05:00:58</description><styleUrl>#w_grocP</styleUrl><Point><coordinates>2.80642747879028,41.9606065750122,0</coordinates></Point></Placemark>
<Placemark><name>GGRAF07</name><description>204207 P.UT
posicio de les: 08/08/2018 05:01:57</description><styleUrl>#w_verdP</styleUrl><Point><coordinates>2.80613780021667,41.9601237773895,0</coordinates></Point></Placemark>
<Placemark><name>LGRAF04</name><description>204304 P.UT
posicio de les: 08/08/2018 05:01:55</description><styleUrl>#w_grocP</styleUrl><Point><coordinates>1.14338278770447,42.045214176178,0</coordinates></Point></Placemark>
<Placemark><name>LGRAF08</name><description>204308 P.UT
posicio de les: 08/08/2018 05:02:01</description><styleUrl>#w_grocP</styleUrl><Point><coordinates>1.14359736442566,42.0453858375549,0</coordinates></Point></Placemark>
<Placemark><name>04390</name><description>204390 
posicio de les: 08/08/2018 04:59:11</description><styleUrl>#w_groc</styleUrl><Point><coordinates>1.14396214485168,42.0450639724731,0</coordinates></Point></Placemark>
<Placemark><name>05178</name><description>205178 BRAVO
posicio de les: 08/08/2018 05:01:55</description><styleUrl>#w_verd</styleUrl><Point><coordinates>2.09497690200806,41.8185997009277,0</coordinates></Point></Placemark>
<Placemark><name>VIEL12</name><description>208012 P.PT VARAN
posicio de les: 08/08/2018 05:01:59</description><styleUrl>#w_grocP</styleUrl><Point><coordinates>0.801283121109009,42.6995444297791,0</coordinates></Point></Placemark>
<Placemark><name>VIEL17</name><description>208017 BASE CCA VARAN
posicio de les: 08/08/2018 05:01:11</description><styleUrl>#w_groc</styleUrl><Point><coordinates>0.796680450439453,42.7080738544464,0</coordinates></Point></Placemark>
<Placemark><name>10071</name><description>210071  REGIÓ
posicio de les: 08/08/2018 04:59:16</description><styleUrl>#w_groc</styleUrl><Point><coordinates>1.85202240943909,41.7410409450531,0</coordinates></Point></Placemark>
<Placemark><name>10072</name><description>210072  REGIÓ
posicio de les: 08/08/2018 04:59:46</description><styleUrl>#w_groc</styleUrl><Point><coordinates>1.85161471366882,41.7413628101349,0</coordinates></Point></Placemark>
<Placemark><name>10082</name><description>210082  REGIÓ
posicio de les: 08/08/2018 05:00:13</description><styleUrl>#w_groc</styleUrl><Point><coordinates>1.51271224021912,41.9894349575043,0</coordinates></Point></Placemark>
<Placemark><name>CAR05</name><description>210505 PORT CAR (Centre)
posicio de les: 08/08/2018 04:57:30</description><styleUrl>#w_grocP</styleUrl><Point><coordinates>1.70466184616089,41.9002568721771,0</coordinates></Point></Placemark>
<Placemark><name>CAB56</name><description>210656 PORT.COM CAB (Centre)
posicio de les: 08/08/2018 05:02:02</description><styleUrl>#w_grocP</styleUrl><Point><coordinates>1.68512463569641,41.6658103466034,0</coordinates></Point></Placemark>
<Placemark><name>MAN03</name><description>211003 PORT MAN (Centre)
posicio de les: 08/08/2018 05:02:29</description><styleUrl>#w_verdP</styleUrl><Point><coordinates>1.85195803642273,41.7412555217743,0</coordinates></Point></Placemark>
<Placemark><name>MOI6</name><description>211106 PORT MOI (Centre)
posicio de les: 08/08/2018 05:02:10</description><styleUrl>#w_verdP</styleUrl><Point><coordinates>2.08632946014404,41.8115293979645,0</coordinates></Point></Placemark>
<Placemark><name>PRA03</name><description>211403 PORT PRA (Centre)
posicio de les: 08/08/2018 05:00:35</description><styleUrl>#w_grocP</styleUrl><Point><coordinates>2.03616142272949,42.0075237751007,0</coordinates></Point></Placemark>
<Placemark><name>PRA07</name><description>211407 PORT PRA (Centre)
posicio de les: 08/08/2018 05:01:45</description><styleUrl>#w_grocP</styleUrl><Point><coordinates>2.0359468460083,42.0080709457397,0</coordinates></Point></Placemark>
<Placemark><name>TOR02</name><description>212002 PORT TOR (Centre)
posicio de les: 08/08/2018 05:00:14</description><styleUrl>#w_verdP</styleUrl><Point><coordinates>2.2672176361084,42.0486688613892,0</coordinates></Point></Placemark>
<Placemark><name>217224</name><description>217224 P.GUAITA GUAITA
posicio de les: 08/08/2018 05:02:31</description><styleUrl>#w_verdP</styleUrl><Point><coordinates>2.0348846912384,42.0081460475922,0</coordinates></Point></Placemark>
<Placemark><name>E0REG</name><description>220012 P.Tec REGIÓ
posicio de les: 08/08/2018 05:01:54</description><styleUrl>#w_verdP</styleUrl><Point><coordinates>3.16096186637878,42.2763562202454,0</coordinates></Point></Placemark>
<Placemark><name>AMER57</name><description>220157 PORT.COM AMER (Girona)
posicio de les: 08/08/2018 05:02:32</description><styleUrl>#w_verdP</styleUrl><Point><coordinates>2.59617447853088,42.0111179351807,0</coordinates></Point></Placemark>
<Placemark><name>CASS56</name><description>220856 PORT.COM CASS (Girona)
posicio de les: 08/08/2018 05:02:18</description><styleUrl>#w_grocP</styleUrl><Point><coordinates>2.88390040397644,41.879700422287,0</coordinates></Point></Placemark>
<Placemark><name>20880</name><description>220880 UPCL/USL CASS (Girona)
posicio de les: 08/08/2018 05:01:55</description><styleUrl>#w_groc</styleUrl><Point><coordinates>2.88462996482849,41.8796896934509,0</coordinates></Point></Placemark>
<Placemark><name>20930</name><description>220930 BRP ESCA (Girona)
posicio de les: 08/08/2018 04:57:59</description><styleUrl>#w_grocC</styleUrl><Point><coordinates>3.12720894813538,42.1153271198273,0</coordinates></Point></Placemark>
<Placemark><name>GIRO56</name><description>221156 PORT.COM GIRO (Girona)
posicio de les: 08/08/2018 04:59:37</description><styleUrl>#w_verdP</styleUrl><Point><coordinates>2.80597686767578,41.9601988792419,0</coordinates></Point></Placemark>
<Placemark><name>21190</name><description>221190 UPC GIRO (Girona)
posicio de les: 08/08/2018 04:59:30</description><styleUrl>#w_groc</styleUrl><Point><coordinates>2.80672788619995,41.9595658779144,0</coordinates></Point></Placemark>
<Placemark><name>JONQ56</name><description>221356 PORT.COM JONQ (Girona)
posicio de les: 08/08/2018 05:01:06</description><styleUrl>#w_grocP</styleUrl><Point><coordinates>2.87656188011169,42.4118614196777,0</coordinates></Point></Placemark>
<Placemark><name>LLAN57</name><description>221457 PORT.COM LLAN (Girona)
posicio de les: 08/08/2018 05:02:07</description><styleUrl>#w_grocP</styleUrl><Point><coordinates>3.15332293510437,42.3576271533966,0</coordinates></Point></Placemark>
<Placemark><name>21630</name><description>221630 BRP MACA (Girona)
posicio de les: 08/08/2018 05:00:47</description><styleUrl>#w_grocC</styleUrl><Point><coordinates>2.75309443473816,41.7793321609497,0</coordinates></Point></Placemark>
<Placemark><name>21655</name><description>221655 FSV/FRQ/FER/FRM/FRA/FSA MACA (Girona)
posicio de les: 08/08/2018 05:00:28</description><styleUrl>#w_grocC</styleUrl><Point><coordinates>2.75315880775452,41.7794930934906,0</coordinates></Point></Placemark>
<Placemark><name>MAÇA57</name><description>221657 PORT.COM MACA (Girona)
posicio de les: 08/08/2018 05:01:25</description><styleUrl>#w_grocP</styleUrl><Point><coordinates>2.7531373500824,41.7793536186218,0</coordinates></Point></Placemark>
<Placemark><name>OLOT57</name><description>221757 PORT.COM OLOT (Girona)
posicio de les: 08/08/2018 04:58:27</description><styleUrl>#w_verdP</styleUrl><Point><coordinates>2.47454166412354,42.1907830238342,0</coordinates></Point></Placemark>
<Placemark><name>PALA56</name><description>221856 PORT.COM PALA (Girona)
posicio de les: 08/08/2018 05:02:07</description><styleUrl>#w_verdP</styleUrl><Point><coordinates>3.13644647598267,41.9113290309906,0</coordinates></Point></Placemark>
<Placemark><name>21890</name><description>221890 UPC PALA (Girona)
posicio de les: 08/08/2018 04:58:42</description><styleUrl>#w_groc</styleUrl><Point><coordinates>3.15641283988953,41.9258558750153,0</coordinates></Point></Placemark>
<Placemark><name>RIPO56</name><description>222156 PORT.COM RIPO (Girona)
posicio de les: 08/08/2018 05:01:44</description><styleUrl>#w_verdP</styleUrl><Point><coordinates>2.16856598854065,42.2150409221649,0</coordinates></Point></Placemark>
<Placemark><name>ROSE06</name><description>222206 PORT ROSE (Girona)
posicio de les: 08/08/2018 05:01:01</description><styleUrl>#w_verdP</styleUrl><Point><coordinates>3.16054344177246,42.2766780853271,0</coordinates></Point></Placemark>
<Placemark><name>VALL57</name><description>222857 PORT.COM VALL (Girona)
posicio de les: 08/08/2018 05:02:47</description><styleUrl>#w_verdP</styleUrl><Point><coordinates>3.03164720535278,41.8085038661957,0</coordinates></Point></Placemark>
<Placemark><name>I308</name><description>227308 P.GUAITA GUAITA
posicio de les: 08/08/2018 05:01:57</description><styleUrl>#w_verdP</styleUrl><Point><coordinates>3.1556510925293,41.9257700443268,0</coordinates></Point></Placemark>
<Placemark><name>D3REG</name><description>228043  SERVEIS REGIÓ
posicio de les: 08/08/2018 05:00:59</description><styleUrl>#w_verd</styleUrl><Point><coordinates>2.8066098690033,41.9602417945862,0</coordinates></Point></Placemark>
<Placemark><name>D0REL</name><description>230010 P.CG REGIÓ
posicio de les: 08/08/2018 05:01:22</description><styleUrl>#w_verdP</styleUrl><Point><coordinates>0.605138540267944,41.6234958171844,0</coordinates></Point></Placemark>
<Placemark><name>RELL12</name><description>230012 P.Tec REGIÓ
posicio de les: 08/08/2018 04:59:58</description><styleUrl>#w_grocP</styleUrl><Point><coordinates>1.22831225395203,42.5586533546448,0</coordinates></Point></Placemark>
<Placemark><name>30092</name><description>230092  REGIÓ
posicio de les: 08/08/2018 05:02:43</description><styleUrl>#w_groc</styleUrl><Point><coordinates>1.2280011177063,42.5588250160217,0</coordinates></Point></Placemark>
<Placemark><name>30096</name><description>230096  REGIÓ
posicio de les: 08/08/2018 05:01:23</description><styleUrl>#w_groc</styleUrl><Point><coordinates>1.14385485649109,42.0452034473419,0</coordinates></Point></Placemark>
<Placemark><name>AGRA01</name><description>230201 PORT AGRA (Lleida)
posicio de les: 08/08/2018 05:00:49</description><styleUrl>#w_grocP</styleUrl><Point><coordinates>1.04997754096985,41.7977106571198,0</coordinates></Point></Placemark>
<Placemark><name>ALMA07</name><description>230307 PORT ALMA (Lleida)
posicio de les: 08/08/2018 05:01:17</description><styleUrl>#w_grocP</styleUrl><Point><coordinates>0.442757606506348,41.7296040058136,0</coordinates></Point></Placemark>
<Placemark><name>ARTE04</name><description>230504 PORT ARTE (Lleida)
posicio de les: 08/08/2018 05:02:17</description><styleUrl>#w_verdP</styleUrl><Point><coordinates>1.15405797958374,42.0371675491333,0</coordinates></Point></Placemark>
<Placemark><name>30590</name><description>230590 UPC ARTE (Lleida)
posicio de les: 08/08/2018 05:02:37</description><styleUrl>#w_verd</styleUrl><Point><coordinates>1.15229845046997,42.0374035835266,0</coordinates></Point></Placemark>
<Placemark><name>30630</name><description>230630 BRP BALA (Lleida)
posicio de les: 08/08/2018 05:00:54</description><styleUrl>#w_grocC</styleUrl><Point><coordinates>1.17521524429321,42.0295393466949,0</coordinates></Point></Placemark>
<Placemark><name>BALA56</name><description>230656 PORT.COM BALA (Lleida)
posicio de les: 08/08/2018 05:01:28</description><styleUrl>#w_grocP</styleUrl><Point><coordinates>1.14377975463867,42.045224905014,0</coordinates></Point></Placemark>
<Placemark><name>BORG05</name><description>230705 PORT BORG (Lleida)
posicio de les: 08/08/2018 05:00:58</description><styleUrl>#w_verdP</styleUrl><Point><coordinates>0.844820737838745,41.507613658905,0</coordinates></Point></Placemark>
<Placemark><name>32234</name><description>232234 BFP OLIA (Lleida)
posicio de les: 08/08/2018 05:01:06</description><styleUrl>#w_grocC</styleUrl><Point><coordinates>1.14384412765503,42.0451712608337,0</coordinates></Point></Placemark>
<Placemark><name>POBL01</name><description>232401 PORT POBL (Lleida)
posicio de les: 08/08/2018 05:02:17</description><styleUrl>#w_verdP</styleUrl><Point><coordinates>0.964887142181396,42.2387838363647,0</coordinates></Point></Placemark>
<Placemark><name>PONS01</name><description>232601 PORT PONS (Lleida)
posicio de les: 08/08/2018 05:00:30</description><styleUrl>#w_verdP</styleUrl><Point><coordinates>1.1954927444458,41.9045376777649,0</coordinates></Point></Placemark>
<Placemark><name>PONS05</name><description>232605 PORT PONS (Lleida)
posicio de les: 08/08/2018 05:02:27</description><styleUrl>#w_verdP</styleUrl><Point><coordinates>1.15324258804321,42.0375859737396,0</coordinates></Point></Placemark>
<Placemark><name>32634</name><description>232634 BFP PONS (Lleida)
posicio de les: 08/08/2018 05:02:41</description><styleUrl>#w_grocC</styleUrl><Point><coordinates>1.17550492286682,42.029721736908,0</coordinates></Point></Placemark>
<Placemark><name>SORT04</name><description>233004 PORT SORT (Lleida)
posicio de les: 08/08/2018 04:59:52</description><styleUrl>#w_verdP</styleUrl><Point><coordinates>1.22369885444641,42.5591361522675,0</coordinates></Point></Placemark>
<Placemark><name>TAR02</name><description>233102 PORT TAR (Lleida)
posicio de les: 08/08/2018 05:01:09</description><styleUrl>#w_verdP</styleUrl><Point><coordinates>1.1494767665863,41.6509401798248,0</coordinates></Point></Placemark>
<Placemark><name>GE0REMN</name><description>240013 P.Tec REGIÓ
posicio de les: 08/08/2018 05:02:45</description><styleUrl>#w_grocP</styleUrl><Point><coordinates>2.50697493553162,41.6953146457672,0</coordinates></Point></Placemark>
<Placemark><name>40091</name><description>240091  REGIÓ
posicio de les: 08/08/2018 04:58:44</description><styleUrl>#w_groc</styleUrl><Point><coordinates>2.11168169975281,41.5024960041046,0</coordinates></Point></Placemark>
<Placemark><name>40290</name><description>240290 UPC BAD (Metro. Nord)
posicio de les: 08/08/2018 05:02:03</description><styleUrl>#w_groc</styleUrl><Point><coordinates>2.02570080757141,41.567770242691,0</coordinates></Point></Placemark>
<Placemark><name>40660</name><description>240660 AEA/AES/ABA GRA (Metro. Nord)
posicio de les: 08/08/2018 04:58:39</description><styleUrl>#w_grocC</styleUrl><Point><coordinates>2.27364420890808,41.5875327587128,0</coordinates></Point></Placemark>
<Placemark><name>MOL03</name><description>241003 PORT MOL (Metro. Nord)
posicio de les: 08/08/2018 05:01:17</description><styleUrl>#w_verdP</styleUrl><Point><coordinates>2.20177173614502,41.5373110771179,0</coordinates></Point></Placemark>
<Placemark><name>41260</name><description>241260 AEA/AES/ABA PIN (Metro. Nord)
posicio de les: 08/08/2018 05:02:17</description><styleUrl>#w_grocC</styleUrl><Point><coordinates>2.27521061897278,41.5907084941864,0</coordinates></Point></Placemark>
<Placemark><name>RUB01</name><description>241301 PORT RUB (Metro. Nord)
posicio de les: 08/08/2018 04:59:17</description><styleUrl>#w_verdP</styleUrl><Point><coordinates>2.03524947166443,41.4730024337769,0</coordinates></Point></Placemark>
<Placemark><name>SAB01</name><description>241401 PORT SAB (Metro. Nord)
posicio de les: 08/08/2018 05:02:55</description><styleUrl>#w_verdP</styleUrl><Point><coordinates>2.10396766662598,41.5424180030823,0</coordinates></Point></Placemark>
<Placemark><name>41640</name><description>241640 BUP SCE (Metro. Nord)
posicio de les: 08/08/2018 05:00:17</description><styleUrl>#w_grocC</styleUrl><Point><coordinates>2.50713586807251,41.6952073574066,0</coordinates></Point></Placemark>
<Placemark><name>TER09</name><description>242009 PORT TER (Metro. Nord)
posicio de les: 08/08/2018 05:01:30</description><styleUrl>#w_verdP</styleUrl><Point><coordinates>2.0260763168335,41.5678131580353,0</coordinates></Point></Placemark>
<Placemark><name>TOD56</name><description>242156 PORT.COM TOD (Metro. Nord)
posicio de les: 08/08/2018 05:02:03</description><styleUrl>#w_grocP</styleUrl><Point><coordinates>2.71671295166016,41.69149518013,0</coordinates></Point></Placemark>
<Placemark><name>50071</name><description>250071  REGIÓ
posicio de les: 08/08/2018 04:58:47</description><styleUrl>#w_groc</styleUrl><Point><coordinates>2.03425168991089,41.3226807117462,0</coordinates></Point></Placemark>
<Placemark><name>50093</name><description>250093  REGIÓ
posicio de les: 08/08/2018 05:02:38</description><styleUrl>#w_groc</styleUrl><Point><coordinates>2.03435897827148,41.3227987289429,0</coordinates></Point></Placemark>
<Placemark><name>COR03</name><description>250403 PORT COR (Metro. Sud)
posicio de les: 08/08/2018 05:02:10</description><styleUrl>#w_grocP</styleUrl><Point><coordinates>2.07076191902161,41.3606715202332,0</coordinates></Point></Placemark>
<Placemark><name>GAV11</name><description>250511 PORT GAV (Metro. Sud)
posicio de les: 08/08/2018 04:59:27</description><styleUrl>#w_verdP</styleUrl><Point><coordinates>1.99068188667297,41.3006007671356,0</coordinates></Point></Placemark>
<Placemark><name>GAV57</name><description>250557 PORT.COM GAV (Metro. Sud)
posicio de les: 08/08/2018 05:01:11</description><styleUrl>#w_grocP</styleUrl><Point><coordinates>1.99031710624695,41.3001072406769,0</coordinates></Point></Placemark>
<Placemark><name>51030</name><description>251030 BRP MAR (Metro. Sud)
posicio de les: 08/08/2018 04:58:30</description><styleUrl>#w_grocC</styleUrl><Point><coordinates>1.90799474716187,41.4988267421722,0</coordinates></Point></Placemark>
<Placemark><name>MAR56</name><description>251056 PORT.COM MAR (Metro. Sud)
posicio de les: 08/08/2018 05:02:35</description><styleUrl>#w_verdP</styleUrl><Point><coordinates>1.90808057785034,41.4987301826477,0</coordinates></Point></Placemark>
<Placemark><name>MAR57</name><description>251057 PORT.COM MAR (Metro. Sud)
posicio de les: 08/08/2018 05:01:28</description><styleUrl>#w_grocP</styleUrl><Point><coordinates>1.90810203552246,41.4986121654511,0</coordinates></Point></Placemark>
<Placemark><name>SBOI02</name><description>251302 PORT SBOI (Metro. Sud)
posicio de les: 08/08/2018 05:01:53</description><styleUrl>#w_grocP</styleUrl><Point><coordinates>2.03462719917297,41.3221442699432,0</coordinates></Point></Placemark>
<Placemark><name>SBOI04</name><description>251304 PORT SBOI (Metro. Sud)
posicio de les: 08/08/2018 05:02:40</description><styleUrl>#w_verdP</styleUrl><Point><coordinates>2.03404784202576,41.3227880001068,0</coordinates></Point></Placemark>
<Placemark><name>SBOI07</name><description>251307 PORT SBOI (Metro. Sud)
posicio de les: 08/08/2018 05:02:51</description><styleUrl>#w_grocP</styleUrl><Point><coordinates>2.03429460525513,41.323184967041,0</coordinates></Point></Placemark>
<Placemark><name>SBOI56</name><description>251356 PORT.COM SBOI (Metro. Sud)
posicio de les: 08/08/2018 05:01:03</description><styleUrl>#w_verdP</styleUrl><Point><coordinates>2.03502416610718,41.3230562210083,0</coordinates></Point></Placemark>
<Placemark><name>SFE56</name><description>251556 PORT.COM SFE (Metro. Sud)
posicio de les: 08/08/2018 05:01:50</description><styleUrl>#w_grocP</styleUrl><Point><coordinates>2.0430600643158,41.3886201381683,0</coordinates></Point></Placemark>
<Placemark><name>SVIC04</name><description>251604 PORT SCC (Metro. Sud)
posicio de les: 08/08/2018 05:00:39</description><styleUrl>#w_verdP</styleUrl><Point><coordinates>2.00629234313965,41.3848435878754,0</coordinates></Point></Placemark>
<Placemark><name>SIT03</name><description>251703 PORT SIT (Metro. Sud)
posicio de les: 08/08/2018 04:59:20</description><styleUrl>#w_verdP</styleUrl><Point><coordinates>1.80998682975769,41.2412595748901,0</coordinates></Point></Placemark>
<Placemark><name>51780</name><description>251780 UPCL/USL SIT (Metro. Sud)
posicio de les: 08/08/2018 05:01:33</description><styleUrl>#w_groc</styleUrl><Point><coordinates>1.71388864517212,41.2202954292297,0</coordinates></Point></Placemark>
<Placemark><name>D1REMS</name><description>258041  SERVEIS REGIÓ
posicio de les: 08/08/2018 05:01:02</description><styleUrl>#w_verd</styleUrl><Point><coordinates>2.03312516212463,41.3220477104187,0</coordinates></Point></Placemark>
<Placemark><name>60850</name><description>260850 FSV/FRQ/FER/FRM/FRA/FSA REUS (Tarragona)
posicio de les: 08/08/2018 04:58:41</description><styleUrl>#w_grocC</styleUrl><Point><coordinates>1.06342077255249,41.136953830719,0</coordinates></Point></Placemark>
<Placemark><name>E00RETE</name><description>270014 P.Tec REGIÓ
posicio de les: 08/08/2018 05:02:49</description><styleUrl>#w_verdP</styleUrl><Point><coordinates>0.51310658454895,40.8190047740936,0</coordinates></Point></Placemark>
<Placemark><name>AMPO57</name><description>272157 PORT.COM AMPO (Terres de l'Ebre)
posicio de les: 08/08/2018 05:02:39</description><styleUrl>#w_grocP</styleUrl><Point><coordinates>0.579571723937988,40.6894969940186,0</coordinates></Point></Placemark>
<Placemark><name>ASCO05</name><description>272205 PORT ASCO (Terres de l'Ebre)
posicio de les: 08/08/2018 05:01:47</description><styleUrl>#w_verdP</styleUrl><Point><coordinates>0.569014549255371,41.1878514289856,0</coordinates></Point></Placemark>
<Placemark><name>ULLD08</name><description>273108 PORT ULLD (Terres de l'Ebre)
posicio de les: 08/08/2018 05:00:36</description><styleUrl>#w_grocP</styleUrl><Point><coordinates>0.358396768569946,40.6087410449982,0</coordinates></Point></Placemark>
<Placemark><name>CMTE56</name><description>274556 PORT.COM Parc X
posicio de les: 08/08/2018 05:00:11</description><styleUrl>#w_verdP</styleUrl><Point><coordinates>0.579625368118286,40.6894540786743,0</coordinates></Point></Placemark>
<Placemark><name>92078</name><description>292078 UE SST
posicio de les: 08/08/2018 04:59:27</description><styleUrl>#w_groc</styleUrl><Point><coordinates>1.92721009254456,41.4824330806732,0</coordinates></Point></Placemark>
<Placemark><name>93080</name><description>293080 UPCL/USL ESC
posicio de les: 08/08/2018 04:59:19</description><styleUrl>#w_groc</styleUrl><Point><coordinates>2.11277604103088,41.5016484260559,0</coordinates></Point></Placemark>
</Folder>
<Folder>
<name>Descarregues</name>
</Folder>
<Style id="w_verdP_n"><IconStyle><color>ff00ff00</color><scale>1.0</scale><Icon><href>http://maps.google.com/mapfiles/kml/shapes/man.png</href></Icon><hotSpot x="0.5" y="0" xunits="fraction" yunits="fraction"/></IconStyle><LabelStyle><scale>0.7</scale></LabelStyle></Style>
<Style id="w_verdP_s"><IconStyle><color>ff00ff00</color><scale>1.4</scale><Icon><href>http://maps.google.com/mapfiles/kml/shapes/man.png</href></Icon><hotSpot x="0.5" y="0" xunits="fraction" yunits="fraction"/></IconStyle><LabelStyle><scale>0.7</scale></LabelStyle></Style>
<StyleMap id="w_verdP"><Pair><key>normal</key><styleUrl>#w_verdP_n</styleUrl></Pair><Pair><key>highlight</key><styleUrl>#w_verdP_s</styleUrl></Pair></StyleMap>
<Style id="w_verd_n"><IconStyle><color>ff00ff00</color><scale>0.7</scale><Icon><href>http://maps.google.com/mapfiles/kml/shapes/cabs.png</href></Icon><hotSpot x="0.5" y="0" xunits="fraction" yunits="fraction"/></IconStyle><LabelStyle><scale>0.7</scale></LabelStyle></Style>
<Style id="w_verd_s"><IconStyle><color>ff00ff00</color><scale>1.0</scale><Icon><href>http://maps.google.com/mapfiles/kml/shapes/cabs.png</href></Icon><hotSpot x="0.5" y="0" xunits="fraction" yunits="fraction"/></IconStyle><LabelStyle><scale>0.7</scale></LabelStyle></Style>
<StyleMap id="w_verd"><Pair><key>normal</key><styleUrl>#w_verd_n</styleUrl></Pair><Pair><key>highlight</key><styleUrl>#w_verd_s</styleUrl></Pair></StyleMap>
<Style id="w_verdC_n"><IconStyle><color>ff00ff00</color><scale>1.0</scale><Icon><href>http://maps.google.com/mapfiles/kml/shapes/truck.png</href></Icon><hotSpot x="0.5" y="0" xunits="fraction" yunits="fraction"/></IconStyle><LabelStyle><scale>0.7</scale></LabelStyle></Style>
<Style id="w_verdC_s"><IconStyle><color>ff00ff00</color><scale>1.4</scale><Icon><href>http://maps.google.com/mapfiles/kml/shapes/truck.png</href></Icon><hotSpot x="0.5" y="0" xunits="fraction" yunits="fraction"/></IconStyle><LabelStyle><scale>0.7</scale></LabelStyle></Style>
<StyleMap id="w_verdC"><Pair><key>normal</key><styleUrl>#w_verdC_n</styleUrl></Pair><Pair><key>highlight</key><styleUrl>#w_verdC_s</styleUrl></Pair></StyleMap>
<Style id="w_verdH_n"><IconStyle><color>ff0000ff</color><scale>1.2</scale><Icon><href>http://maps.google.com/mapfiles/kml/shapes/heliport.png</href></Icon><hotSpot x="0.5" y="0" xunits="fraction" yunits="fraction"/></IconStyle><LabelStyle><scale>0.7</scale></LabelStyle></Style>
<Style id="w_verdH_s"><IconStyle><color>ff0000ff</color><scale>1.4</scale><Icon><href>http://maps.google.com/mapfiles/kml/shapes/heliport.png</href></Icon><hotSpot x="0.5" y="0" xunits="fraction" yunits="fraction"/></IconStyle><LabelStyle><scale>0.7</scale></LabelStyle></Style>
<StyleMap id="w_verdH"><Pair><key>normal</key><styleUrl>#w_verdH_n</styleUrl></Pair><Pair><key>highlight</key><styleUrl>#w_verdH_s</styleUrl></Pair></StyleMap>
<Style id="w_verdA_n"><IconStyle><color>ff0000ff</color><scale>1.2</scale><Icon><href>http://maps.google.com/mapfiles/kml/shapes/airports.png</href></Icon><hotSpot x="0.5" y="0" xunits="fraction" yunits="fraction"/></IconStyle><LabelStyle><scale>0.7</scale></LabelStyle></Style>
<Style id="w_verdA_s"><IconStyle><color>ff0000ff</color><scale>1.4</scale><Icon><href>http://maps.google.com/mapfiles/kml/shapes/airports.png</href></Icon><hotSpot x="0.5" y="0" xunits="fraction" yunits="fraction"/></IconStyle><LabelStyle><scale>0.7</scale></LabelStyle></Style>
<StyleMap id="w_verdA"><Pair><key>normal</key><styleUrl>#w_verdA_n</styleUrl></Pair><Pair><key>highlight</key><styleUrl>#w_verdA_s</styleUrl></Pair></StyleMap>
<Style id="w_verdB_n"><IconStyle><color>ff00ff00</color><scale>1.0</scale><Icon><href>http://maps.google.com/mapfiles/kml/shapes/sailing.png</href></Icon><hotSpot x="0.5" y="0" xunits="fraction" yunits="fraction"/></IconStyle><LabelStyle><scale>0.7</scale></LabelStyle></Style>
<Style id="w_verdB_s"><IconStyle><color>ff00ff00</color><scale>1.4</scale><Icon><href>http://maps.google.com/mapfiles/kml/shapes/sailing.png</href></Icon><hotSpot x="0.5" y="0" xunits="fraction" yunits="fraction"/></IconStyle><LabelStyle><scale>0.7</scale></LabelStyle></Style>
<StyleMap id="w_verdB"><Pair><key>normal</key><styleUrl>#w_verdBAR_n</styleUrl></Pair><Pair><key>highlight</key><styleUrl>#w_verdBAR_s</styleUrl></Pair></StyleMap>
<Style id="w_grocP_n"><IconStyle><color>ff00ffff</color><scale>1.0</scale><Icon><href>http://maps.google.com/mapfiles/kml/shapes/man.png</href></Icon><hotSpot x="0.5" y="0" xunits="fraction" yunits="fraction"/></IconStyle><LabelStyle><scale>0.7</scale></LabelStyle></Style>
<Style id="w_grocP_s"><IconStyle><color>ff00ffff</color><scale>1.4</scale><Icon><href>http://maps.google.com/mapfiles/kml/shapes/man.png</href></Icon><hotSpot x="0.5" y="0" xunits="fraction" yunits="fraction"/></IconStyle><LabelStyle><scale>0.7</scale></LabelStyle></Style>
<StyleMap id="w_grocP"><Pair><key>normal</key><styleUrl>#w_grocP_n</styleUrl></Pair><Pair><key>highlight</key><styleUrl>#w_grocP_s</styleUrl></Pair></StyleMap>
<Style id="w_groc_n"><IconStyle><color>ff00ffff</color><scale>0.7</scale><Icon><href>http://maps.google.com/mapfiles/kml/shapes/cabs.png</href></Icon><hotSpot x="0.5" y="0" xunits="fraction" yunits="fraction"/></IconStyle><LabelStyle><scale>0.7</scale></LabelStyle></Style>
<Style id="w_groc_s"><IconStyle><color>ff00ffff</color><scale>1.0</scale><Icon><href>http://maps.google.com/mapfiles/kml/shapes/cabs.png</href></Icon><hotSpot x="0.5" y="0" xunits="fraction" yunits="fraction"/></IconStyle><LabelStyle><scale>0.7</scale></LabelStyle></Style>
<StyleMap id="w_groc"><Pair><key>normal</key><styleUrl>#w_groc_n</styleUrl></Pair><Pair><key>highlight</key><styleUrl>#w_groc_s</styleUrl></Pair></StyleMap>
<Style id="w_grocC_n"><IconStyle><color>ff00ffff</color><scale>1.0</scale><Icon><href>http://maps.google.com/mapfiles/kml/shapes/truck.png</href></Icon><hotSpot x="0.5" y="0" xunits="fraction" yunits="fraction"/></IconStyle><LabelStyle><scale>0.7</scale></LabelStyle></Style>
<Style id="w_grocC_s"><IconStyle><color>ff00ffff</color><scale>1.4</scale><Icon><href>http://maps.google.com/mapfiles/kml/shapes/truck.png</href></Icon><hotSpot x="0.5" y="0" xunits="fraction" yunits="fraction"/></IconStyle><LabelStyle><scale>0.7</scale></LabelStyle></Style>
<StyleMap id="w_grocC"><Pair><key>normal</key><styleUrl>#w_grocC_n</styleUrl></Pair><Pair><key>highlight</key><styleUrl>#w_grocC_s</styleUrl></Pair></StyleMap>
<Style id="w_grocH_n"><IconStyle><color>ff0000ff</color><scale>1.2</scale><Icon><href>http://maps.google.com/mapfiles/kml/shapes/heliport.png</href></Icon><hotSpot x="0.5" y="0" xunits="fraction" yunits="fraction"/></IconStyle><LabelStyle><scale>0.7</scale></LabelStyle></Style>
<Style id="w_grocH_s"><IconStyle><color>ff0000ff</color><scale>1.4</scale><Icon><href>http://maps.google.com/mapfiles/kml/shapes/heliport.png</href></Icon><hotSpot x="0.5" y="0" xunits="fraction" yunits="fraction"/></IconStyle><LabelStyle><scale>0.7</scale></LabelStyle></Style>
<StyleMap id="w_grocH"><Pair><key>normal</key><styleUrl>#w_grocH_n</styleUrl></Pair><Pair><key>highlight</key><styleUrl>#w_grocH_s</styleUrl></Pair></StyleMap>
<Style id="w_grocA_n"><IconStyle><color>ff0000ff</color><scale>1.2</scale><Icon><href>http://maps.google.com/mapfiles/kml/shapes/airports.png</href></Icon><hotSpot x="0.5" y="0" xunits="fraction" yunits="fraction"/></IconStyle><LabelStyle><scale>0.7</scale></LabelStyle></Style>
<Style id="w_grocA_s"><IconStyle><color>ff0000ff</color><scale>1.4</scale><Icon><href>http://maps.google.com/mapfiles/kml/shapes/airports.png</href></Icon><hotSpot x="0.5" y="0" xunits="fraction" yunits="fraction"/></IconStyle><LabelStyle><scale>0.7</scale></LabelStyle></Style>
<StyleMap id="w_grocA"><Pair><key>normal</key><styleUrl>#w_grocA_n</styleUrl></Pair><Pair><key>highlight</key><styleUrl>#w_grocA_s</styleUrl></Pair></StyleMap>
<Style id="w_grocB_n"><IconStyle><color>ff00ffff</color><scale>1.0</scale><Icon><href>http://maps.google.com/mapfiles/kml/shapes/sailing.png</href></Icon><hotSpot x="0.5" y="0" xunits="fraction" yunits="fraction"/></IconStyle><LabelStyle><scale>0.7</scale></LabelStyle></Style>
<Style id="w_grocB_s"><IconStyle><color>ff00ffff</color><scale>1.4</scale><Icon><href>http://maps.google.com/mapfiles/kml/shapes/sailing.png</href></Icon><hotSpot x="0.5" y="0" xunits="fraction" yunits="fraction"/></IconStyle><LabelStyle><scale>0.7</scale></LabelStyle></Style>
<StyleMap id="w_grocB"><Pair><key>normal</key><styleUrl>#w_grocBAR_n</styleUrl></Pair><Pair><key>highlight</key><styleUrl>#w_grocBAR_s</styleUrl></Pair></StyleMap>
<Style id="w_vermellP_n"><IconStyle><color>ff0000ff</color><scale>1.0</scale><Icon><href>http://maps.google.com/mapfiles/kml/shapes/man.png</href></Icon><hotSpot x="0.5" y="0" xunits="fraction" yunits="fraction"/></IconStyle><LabelStyle><scale>0.7</scale></LabelStyle></Style>
<Style id="w_vermellP_s"><IconStyle><color>ff0000ff</color><scale>1.4</scale><Icon><href>http://maps.google.com/mapfiles/kml/shapes/man.png</href></Icon><hotSpot x="0.5" y="0" xunits="fraction" yunits="fraction"/></IconStyle><LabelStyle><scale>0.7</scale></LabelStyle></Style>
<StyleMap id="w_vermellP"><Pair><key>normal</key><styleUrl>#w_vermellP_n</styleUrl></Pair><Pair><key>highlight</key><styleUrl>#w_vermellP_s</styleUrl></Pair></StyleMap>
<Style id="w_vermell_n"><IconStyle><color>ff0000ff</color><scale>0.7</scale><Icon><href>http://maps.google.com/mapfiles/kml/shapes/cabs.png</href></Icon><hotSpot x="0.5" y="0" xunits="fraction" yunits="fraction"/></IconStyle><LabelStyle><scale>0.7</scale></LabelStyle></Style>
<Style id="w_vermell_s"><IconStyle><color>ff0000ff</color><scale>1.0</scale><Icon><href>http://maps.google.com/mapfiles/kml/shapes/cabs.png</href></Icon><hotSpot x="0.5" y="0" xunits="fraction" yunits="fraction"/></IconStyle><LabelStyle><scale>0.7</scale></LabelStyle></Style>
<StyleMap id="w_vermell"><Pair><key>normal</key><styleUrl>#w_vermell_n</styleUrl></Pair><Pair><key>highlight</key><styleUrl>#w_vermell_s</styleUrl></Pair></StyleMap>
<Style id="w_vermellC_n"><IconStyle><color>ff0000ff</color><scale>1.0</scale><Icon><href>http://maps.google.com/mapfiles/kml/shapes/truck.png</href></Icon><hotSpot x="0.5" y="0" xunits="fraction" yunits="fraction"/></IconStyle><LabelStyle><scale>0.7</scale></LabelStyle></Style>
<Style id="w_vermellC_s"><IconStyle><color>ff0000ff</color><scale>1.4</scale><Icon><href>http://maps.google.com/mapfiles/kml/shapes/truck.png</href></Icon><hotSpot x="0.5" y="0" xunits="fraction" yunits="fraction"/></IconStyle><LabelStyle><scale>0.7</scale></LabelStyle></Style>
<StyleMap id="w_vermellC"><Pair><key>normal</key><styleUrl>#w_vermellC_n</styleUrl></Pair><Pair><key>highlight</key><styleUrl>#w_vermellC_s</styleUrl></Pair></StyleMap>
<Style id="w_vermellH_n"><IconStyle><color>ff0000ff</color><scale>1.2</scale><Icon><href>http://maps.google.com/mapfiles/kml/shapes/heliport.png</href></Icon><hotSpot x="0.5" y="0" xunits="fraction" yunits="fraction"/></IconStyle><LabelStyle><scale>0.7</scale></LabelStyle></Style>
<Style id="w_vermellH_s"><IconStyle><color>ff0000ff</color><scale>1.4</scale><Icon><href>http://maps.google.com/mapfiles/kml/shapes/heliport.png</href></Icon><hotSpot x="0.5" y="0" xunits="fraction" yunits="fraction"/></IconStyle><LabelStyle><scale>0.7</scale></LabelStyle></Style>
<StyleMap id="w_vermellH"><Pair><key>normal</key><styleUrl>#w_vermellH_n</styleUrl></Pair><Pair><key>highlight</key><styleUrl>#w_vermellH_s</styleUrl></Pair></StyleMap>
<Style id="w_vermellA_n"><IconStyle><color>ff0000ff</color><scale>1.2</scale><Icon><href>http://maps.google.com/mapfiles/kml/shapes/airports.png</href></Icon><hotSpot x="0.5" y="0" xunits="fraction" yunits="fraction"/></IconStyle><LabelStyle><scale>0.7</scale></LabelStyle></Style>
<Style id="w_vermellA_s"><IconStyle><color>ff0000ff</color><scale>1.4</scale><Icon><href>http://maps.google.com/mapfiles/kml/shapes/airports.png</href></Icon><hotSpot x="0.5" y="0" xunits="fraction" yunits="fraction"/></IconStyle><LabelStyle><scale>0.7</scale></LabelStyle></Style>
<StyleMap id="w_vermellA"><Pair><key>normal</key><styleUrl>#w_vermellA_n</styleUrl></Pair><Pair><key>highlight</key><styleUrl>#w_vermellA_s</styleUrl></Pair></StyleMap>
<Style id="w_vermellB_n"><IconStyle><color>ff0000ff</color><scale>1.0</scale><Icon><href>http://maps.google.com/mapfiles/kml/shapes/sailing.png</href></Icon><hotSpot x="0.5" y="0" xunits="fraction" yunits="fraction"/></IconStyle><LabelStyle><scale>0.7</scale></LabelStyle></Style>
<Style id="w_vermellB_s"><IconStyle><color>ff0000ff</color><scale>1.4</scale><Icon><href>http://maps.google.com/mapfiles/kml/shapes/sailing.png</href></Icon><hotSpot x="0.5" y="0" xunits="fraction" yunits="fraction"/></IconStyle><LabelStyle><scale>0.7</scale></LabelStyle></Style>
<StyleMap id="w_vermellB"><Pair><key>normal</key><styleUrl>#w_vermellBAR_n</styleUrl></Pair><Pair><key>highlight</key><styleUrl>#w_vermellBAR_s</styleUrl></Pair></StyleMap>
<Style id="w_descarrega"><IconStyle><color>ff00ffff</color><scale>0.5</scale><Icon><href>http://maps.google.com/mapfiles/kml/shapes/road_shield3.png</href></Icon></IconStyle><LabelStyle><scale>0.7</scale></LabelStyle></Style><Style id="actuacio"><IconStyle><color>ff00ffff</color><scale>0.8</scale><Icon><href>http://maps.google.com/mapfiles/kml/shapes/caution.png</href></Icon></IconStyle><LabelStyle><scale>0.7</scale></LabelStyle></Style></Document></kml>