<?xml version="1.0" encoding="UTF-8"?>
<kml xmlns="http://www.opengis.net/kml/2.2" xmlns:gx="http://www.google.com/kml/ext/2.2" xmlns:kml="http://www.opengis.net/kml/2.2" xmlns:atom="http://www.w3.org/2005/Atom">
<Document>
<name>Terminals</name>
<Snippet maxLines="2">Created 04/08/2018 23:11:47</Snippet>
<Folder>
<name>Terminals</name>
<Placemark><name>03373</name><description>203373 GRAE
posicio de les: 04/08/2018 23:11:36</description><styleUrl>#w_verd</styleUrl><Point><coordinates>1.36717557907104,42.5737273693085,0</coordinates></Point></Placemark>
<Placemark><name>GGRAF12</name><description>204212 P.REC
posicio de les: 04/08/2018 23:10:56</description><styleUrl>#w_verdP</styleUrl><Point><coordinates>2.97485947608948,42.0298504829407,0</coordinates></Point></Placemark>
<Placemark><name>OP05087</name><description>205287 OP.AAV
posicio de les: 04/08/2018 23:09:45</description><styleUrl>#w_verdP</styleUrl><Point><coordinates>1.1581027507782,41.1479938030243,0</coordinates></Point></Placemark>
<Placemark><name>VIEL12</name><description>208012 P.PT VARAN
posicio de les: 04/08/2018 23:09:55</description><styleUrl>#w_verdP</styleUrl><Point><coordinates>0.795789957046509,42.7064001560211,0</coordinates></Point></Placemark>
<Placemark><name>VIEL17</name><description>208017 BASE CCA VARAN
posicio de les: 04/08/2018 23:09:52</description><styleUrl>#w_groc</styleUrl><Point><coordinates>0.796712636947632,42.7079021930695,0</coordinates></Point></Placemark>
<Placemark><name>BOSS01</name><description>208101 P.COMODIN VARAN
posicio de les: 04/08/2018 23:11:32</description><styleUrl>#w_verdP</styleUrl><Point><coordinates>0.69263219833374,42.7859115600586,0</coordinates></Point></Placemark>
<Placemark><name>E0REC</name><description>210012 P.Tec REGIÓ
posicio de les: 04/08/2018 23:11:03</description><styleUrl>#w_verdP</styleUrl><Point><coordinates>1.8511426448822,41.7416846752167,0</coordinates></Point></Placemark>
<Placemark><name>BER57</name><description>210357 PORT.COM BER (Centre)
posicio de les: 04/08/2018 23:09:17</description><styleUrl>#w_verdP</styleUrl><Point><coordinates>1.85803055763245,42.103385925293,0</coordinates></Point></Placemark>
<Placemark><name>CAF56</name><description>210456 PORT.COM CAF (Centre)
posicio de les: 04/08/2018 23:10:39</description><styleUrl>#w_verdP</styleUrl><Point><coordinates>1.52747511863708,41.7308485507965,0</coordinates></Point></Placemark>
<Placemark><name>GUA56</name><description>210856 PORT.COM GUA (Centre)
posicio de les: 04/08/2018 23:10:49</description><styleUrl>#w_verdP</styleUrl><Point><coordinates>1.86927437782288,42.2191071510315,0</coordinates></Point></Placemark>
<Placemark><name>11040</name><description>211040 BUP MAN (Centre)
posicio de les: 04/08/2018 23:06:10</description><styleUrl>#w_verdC</styleUrl><Point><coordinates>1.85243010520935,41.7413628101349,0</coordinates></Point></Placemark>
<Placemark><name>PRA07</name><description>211407 PORT PRA (Centre)
posicio de les: 04/08/2018 23:10:26</description><styleUrl>#w_verdP</styleUrl><Point><coordinates>2.03611850738525,42.0078778266907,0</coordinates></Point></Placemark>
<Placemark><name>PUIG01</name><description>211501 PORT PUIG (Centre)
posicio de les: 04/08/2018 23:08:52</description><styleUrl>#w_verdP</styleUrl><Point><coordinates>1.92152380943298,42.4205732345581,0</coordinates></Point></Placemark>
<Placemark><name>20134</name><description>220134 BFP AMER (Girona)
posicio de les: 04/08/2018 23:10:07</description><styleUrl>#w_grocC</styleUrl><Point><coordinates>3.15346240997314,42.3574447631836,0</coordinates></Point></Placemark>
<Placemark><name>BANY07</name><description>220307 PORT BANY (Girona)
posicio de les: 04/08/2018 23:11:11</description><styleUrl>#w_verdP</styleUrl><Point><coordinates>2.78578519821167,42.1175372600555,0</coordinates></Point></Placemark>
<Placemark><name>20330</name><description>220330 BRP BANY (Girona)
posicio de les: 04/08/2018 23:11:18</description><styleUrl>#w_grocC</styleUrl><Point><coordinates>2.78493762016296,42.1176767349243,0</coordinates></Point></Placemark>
<Placemark><name>20434</name><description>220434 BFP PERA (Girona)
posicio de les: 04/08/2018 23:07:18</description><styleUrl>#w_grocC</styleUrl><Point><coordinates>2.87153005599976,42.405971288681,0</coordinates></Point></Placemark>
<Placemark><name>CASS56</name><description>220856 PORT.COM CASS (Girona)
posicio de les: 04/08/2018 23:10:45</description><styleUrl>#w_grocP</styleUrl><Point><coordinates>2.88424372673035,41.8795394897461,0</coordinates></Point></Placemark>
<Placemark><name>FIGU 01</name><description>221001 PORT FIGU (Girona)
posicio de les: 04/08/2018 23:09:33</description><styleUrl>#w_verdP</styleUrl><Point><coordinates>2.87374019622803,42.4064540863037,0</coordinates></Point></Placemark>
<Placemark><name>21034</name><description>221034 BFP FIGU (Girona)
posicio de les: 04/08/2018 23:11:42</description><styleUrl>#w_verdC</styleUrl><Point><coordinates>2.9149067401886,42.3470163345337,0</coordinates></Point></Placemark>
<Placemark><name>FIGU56</name><description>221056 PORT.COM FIGU (Girona)
posicio de les: 04/08/2018 23:09:24</description><styleUrl>#w_verdP</styleUrl><Point><coordinates>2.97083616256714,42.2720110416412,0</coordinates></Point></Placemark>
<Placemark><name>GIRO56</name><description>221156 PORT.COM GIRO (Girona)
posicio de les: 04/08/2018 23:10:33</description><styleUrl>#w_verdP</styleUrl><Point><coordinates>2.80636310577393,41.9604027271271,0</coordinates></Point></Placemark>
<Placemark><name>HOST02</name><description>221202 PORT HOST (Girona)
posicio de les: 04/08/2018 23:11:00</description><styleUrl>#w_grocP</styleUrl><Point><coordinates>2.62446641921997,41.7482614517212,0</coordinates></Point></Placemark>
<Placemark><name>HOST03</name><description>221203 PORT HOST (Girona)
posicio de les: 04/08/2018 23:10:29</description><styleUrl>#w_grocP</styleUrl><Point><coordinates>2.62446641921997,41.7482507228851,0</coordinates></Point></Placemark>
<Placemark><name>21230</name><description>221230 BRP HOST (Girona)
posicio de les: 04/08/2018 23:07:50</description><styleUrl>#w_grocC</styleUrl><Point><coordinates>2.62452006340027,41.748229265213,0</coordinates></Point></Placemark>
<Placemark><name>HOST57</name><description>221257 PORT.COM HOST (Girona)
posicio de les: 04/08/2018 23:10:38</description><styleUrl>#w_verdP</styleUrl><Point><coordinates>2.62464880943298,41.7481219768524,0</coordinates></Point></Placemark>
<Placemark><name>JONQ03</name><description>221303 PORT JONQ (Girona)
posicio de les: 04/08/2018 23:10:21</description><styleUrl>#w_verdP</styleUrl><Point><coordinates>2.8763473033905,42.4120223522186,0</coordinates></Point></Placemark>
<Placemark><name>JONQ56</name><description>221356 PORT.COM JONQ (Girona)
posicio de les: 04/08/2018 23:08:43</description><styleUrl>#w_verdP</styleUrl><Point><coordinates>2.87397623062134,42.4060034751892,0</coordinates></Point></Placemark>
<Placemark><name>21434</name><description>221434 BFP LLAN (Girona)
posicio de les: 04/08/2018 23:11:22</description><styleUrl>#w_grocC</styleUrl><Point><coordinates>2.87149786949158,42.4060356616974,0</coordinates></Point></Placemark>
<Placemark><name>LLAN57</name><description>221457 PORT.COM LLAN (Girona)
posicio de les: 04/08/2018 23:10:17</description><styleUrl>#w_grocP</styleUrl><Point><coordinates>3.15346240997314,42.3574662208557,0</coordinates></Point></Placemark>
<Placemark><name>VILJ59</name><description>221459 BSAL LLAN (Girona)
posicio de les: 04/08/2018 23:10:07</description><styleUrl>#w_verdB</styleUrl><Point><coordinates>2.87176609039307,42.4062502384186,0</coordinates></Point></Placemark>
<Placemark><name>LLOR05</name><description>221505 PORT LLOR (Girona)
posicio de les: 04/08/2018 23:09:46</description><styleUrl>#w_verdP</styleUrl><Point><coordinates>2.83631801605225,41.6995525360107,0</coordinates></Point></Placemark>
<Placemark><name>21630</name><description>221630 BRP MACA (Girona)
posicio de les: 04/08/2018 23:08:45</description><styleUrl>#w_grocC</styleUrl><Point><coordinates>2.75310516357422,41.7795038223267,0</coordinates></Point></Placemark>
<Placemark><name>ORRI02</name><description>221710 PORT OLOT (Girona)
posicio de les: 04/08/2018 23:06:11</description><styleUrl>#w_verdP</styleUrl><Point><coordinates>2.87154078483582,42.4057030677795,0</coordinates></Point></Placemark>
<Placemark><name>ORRI03</name><description>221711 PORT OLOT (Girona)
posicio de les: 04/08/2018 23:05:59</description><styleUrl>#w_verdP</styleUrl><Point><coordinates>2.8715193271637,42.4063467979431,0</coordinates></Point></Placemark>
<Placemark><name>OLOT56</name><description>221756 PORT.COM OLOT (Girona)
posicio de les: 04/08/2018 23:11:07</description><styleUrl>#w_grocP</styleUrl><Point><coordinates>2.47457385063171,42.1898925304413,0</coordinates></Point></Placemark>
<Placemark><name>ORRI59</name><description>221759 BSAL OLOT (Girona)
posicio de les: 04/08/2018 23:08:48</description><styleUrl>#w_verdB</styleUrl><Point><coordinates>2.88506984710693,42.3831832408905,0</coordinates></Point></Placemark>
<Placemark><name>PALA56</name><description>221856 PORT.COM PALA (Girona)
posicio de les: 04/08/2018 23:09:05</description><styleUrl>#w_verdP</styleUrl><Point><coordinates>3.1561017036438,41.9258987903595,0</coordinates></Point></Placemark>
<Placemark><name>PALA57</name><description>221857 PORT.COM PALA (Girona)
posicio de les: 04/08/2018 23:06:23</description><styleUrl>#w_grocP</styleUrl><Point><coordinates>3.15634846687317,41.9259309768677,0</coordinates></Point></Placemark>
<Placemark><name>RIPO03</name><description>222103 PORT RIPO (Girona)
posicio de les: 04/08/2018 23:11:47</description><styleUrl>#w_verdP</styleUrl><Point><coordinates>2.16770768165588,42.2148263454437,0</coordinates></Point></Placemark>
<Placemark><name>22130</name><description>222130 BRP RIPO (Girona)
posicio de les: 04/08/2018 23:07:32</description><styleUrl>#w_grocC</styleUrl><Point><coordinates>2.16743946075439,42.2152125835419,0</coordinates></Point></Placemark>
<Placemark><name>RIPO56</name><description>222156 PORT.COM RIPO (Girona)
posicio de les: 04/08/2018 23:10:36</description><styleUrl>#w_verdP</styleUrl><Point><coordinates>2.16856598854065,42.2147190570831,0</coordinates></Point></Placemark>
<Placemark><name>ROSE56</name><description>222256 PORT.COM ROSE (Girona)
posicio de les: 04/08/2018 23:11:02</description><styleUrl>#w_verdP</styleUrl><Point><coordinates>3.16185235977173,42.2756803035736,0</coordinates></Point></Placemark>
<Placemark><name>TORR56</name><description>222656 PORT.COM TORR (Girona)
posicio de les: 04/08/2018 23:10:29</description><styleUrl>#w_verdP</styleUrl><Point><coordinates>3.1670880317688,42.0479929447174,0</coordinates></Point></Placemark>
<Placemark><name>VALL57</name><description>222857 PORT.COM VALL (Girona)
posicio de les: 04/08/2018 23:11:11</description><styleUrl>#w_verdP</styleUrl><Point><coordinates>3.03163647651672,41.8087935447693,0</coordinates></Point></Placemark>
<Placemark><name>I308</name><description>227308 P.GUAITA GUAITA
posicio de les: 04/08/2018 23:11:39</description><styleUrl>#w_verdP</styleUrl><Point><coordinates>3.15561890602112,41.925812959671,0</coordinates></Point></Placemark>
<Placemark><name>D9REG</name><description>228049  SERVEIS REGIÓ
posicio de les: 04/08/2018 23:09:31</description><styleUrl>#w_verd</styleUrl><Point><coordinates>2.80615925788879,41.9602739810944,0</coordinates></Point></Placemark>
<Placemark><name>D0REL</name><description>230010 P.CG REGIÓ
posicio de les: 04/08/2018 23:10:53</description><styleUrl>#w_verdP</styleUrl><Point><coordinates>0.604720115661621,41.623409986496,0</coordinates></Point></Placemark>
<Placemark><name>30084</name><description>230084  REGIÓ
posicio de les: 04/08/2018 23:11:17</description><styleUrl>#w_verd</styleUrl><Point><coordinates>0.625158548355103,41.6224551200867,0</coordinates></Point></Placemark>
<Placemark><name>30091</name><description>230091  REGIÓ
posicio de les: 04/08/2018 23:11:12</description><styleUrl>#w_groc</styleUrl><Point><coordinates>0.605438947677612,41.6241180896759,0</coordinates></Point></Placemark>
<Placemark><name>30092</name><description>230092  REGIÓ
posicio de les: 04/08/2018 23:09:34</description><styleUrl>#w_verd</styleUrl><Point><coordinates>0.605342388153076,41.6233777999878,0</coordinates></Point></Placemark>
<Placemark><name>ALMA01</name><description>230301 PORT ALMA (Lleida)
posicio de les: 04/08/2018 23:10:59</description><styleUrl>#w_verdP</styleUrl><Point><coordinates>0.43370246887207,41.7319750785828,0</coordinates></Point></Placemark>
<Placemark><name>ALMA02</name><description>230302 PORT ALMA (Lleida)
posicio de les: 04/08/2018 23:10:25</description><styleUrl>#w_grocP</styleUrl><Point><coordinates>0.433820486068726,41.7319750785828,0</coordinates></Point></Placemark>
<Placemark><name>ALME01</name><description>230401 PORT ALME (Lleida)
posicio de les: 04/08/2018 23:11:09</description><styleUrl>#w_grocP</styleUrl><Point><coordinates>0.568993091583252,41.7923355102539,0</coordinates></Point></Placemark>
<Placemark><name>BORG05</name><description>230705 PORT BORG (Lleida)
posicio de les: 04/08/2018 23:10:54</description><styleUrl>#w_grocP</styleUrl><Point><coordinates>0.844992399215698,41.5075278282166,0</coordinates></Point></Placemark>
<Placemark><name>BORG06</name><description>230706 PORT BORG (Lleida)
posicio de les: 04/08/2018 23:10:05</description><styleUrl>#w_grocP</styleUrl><Point><coordinates>0.845056772232056,41.5080535411835,0</coordinates></Point></Placemark>
<Placemark><name>BORG56</name><description>230756 PORT.COM BORG (Lleida)
posicio de les: 04/08/2018 23:11:24</description><styleUrl>#w_grocP</styleUrl><Point><coordinates>0.8449387550354,41.5069055557251,0</coordinates></Point></Placemark>
<Placemark><name>GUIS05</name><description>231405 PORT GUIS (Lleida)
posicio de les: 04/08/2018 23:11:28</description><styleUrl>#w_grocP</styleUrl><Point><coordinates>1.28291130065918,41.7823255062103,0</coordinates></Point></Placemark>
<Placemark><name>31430</name><description>231430 BRP GUIS (Lleida)
posicio de les: 04/08/2018 23:07:11</description><styleUrl>#w_grocC</styleUrl><Point><coordinates>1.28275036811829,41.7820358276367,0</coordinates></Point></Placemark>
<Placemark><name>MOLL07</name><description>232007 PORT MOLL (Lleida)
posicio de les: 04/08/2018 23:10:16</description><styleUrl>#w_verdP</styleUrl><Point><coordinates>0.898422002792358,41.6366815567017,0</coordinates></Point></Placemark>
<Placemark><name>MOLL56</name><description>232056 PORT.COM MOLL (Lleida)
posicio de les: 04/08/2018 23:10:20</description><styleUrl>#w_grocP</styleUrl><Point><coordinates>0.898647308349609,41.6365313529968,0</coordinates></Point></Placemark>
<Placemark><name>32090</name><description>232090 UPC MOLL (Lleida)
posicio de les: 04/08/2018 23:08:18</description><styleUrl>#w_groc</styleUrl><Point><coordinates>0.898261070251465,41.6364991664886,0</coordinates></Point></Placemark>
<Placemark><name>OLIA01</name><description>232201 PORT OLIA (Lleida)
posicio de les: 04/08/2018 23:10:11</description><styleUrl>#w_grocP</styleUrl><Point><coordinates>1.31391763687134,42.0643436908722,0</coordinates></Point></Placemark>
<Placemark><name>32230</name><description>232230 BRP OLIA (Lleida)
posicio de les: 04/08/2018 23:11:22</description><styleUrl>#w_grocC</styleUrl><Point><coordinates>1.31289839744568,42.0642578601837,0</coordinates></Point></Placemark>
<Placemark><name>32234</name><description>232234 BFP OLIA (Lleida)
posicio de les: 04/08/2018 23:09:17</description><styleUrl>#w_grocC</styleUrl><Point><coordinates>1.31192207336426,42.0662212371826,0</coordinates></Point></Placemark>
<Placemark><name>POBL01</name><description>232401 PORT POBL (Lleida)
posicio de les: 04/08/2018 23:10:52</description><styleUrl>#w_grocP</styleUrl><Point><coordinates>0.964372158050537,42.2390305995941,0</coordinates></Point></Placemark>
<Placemark><name>PONT56</name><description>232556 PORT.COM PONT (Lleida)
posicio de les: 04/08/2018 23:10:35</description><styleUrl>#w_grocP</styleUrl><Point><coordinates>0.739613771438599,42.4105739593506,0</coordinates></Point></Placemark>
<Placemark><name>PONS01</name><description>232601 PORT PONS (Lleida)
posicio de les: 04/08/2018 23:11:23</description><styleUrl>#w_grocP</styleUrl><Point><coordinates>1.17600917816162,41.8753659725189,0</coordinates></Point></Placemark>
<Placemark><name>32630</name><description>232630 BRP PONS (Lleida)
posicio de les: 04/08/2018 23:08:23</description><styleUrl>#w_grocC</styleUrl><Point><coordinates>1.1754298210144,41.875205039978,0</coordinates></Point></Placemark>
<Placemark><name>PONS56</name><description>232656 PORT.COM PONS (Lleida)
posicio de les: 04/08/2018 23:11:32</description><styleUrl>#w_grocP</styleUrl><Point><coordinates>1.17494702339172,41.8755376338959,0</coordinates></Point></Placemark>
<Placemark><name>SEU09</name><description>232909 PORT SEU (Lleida)
posicio de les: 04/08/2018 23:10:30</description><styleUrl>#w_verdP</styleUrl><Point><coordinates>1.47150278091431,42.3603737354279,0</coordinates></Point></Placemark>
<Placemark><name>TREM10</name><description>233310 PORT TREM (Lleida)
posicio de les: 04/08/2018 23:10:23</description><styleUrl>#w_grocP</styleUrl><Point><coordinates>0.889216661453247,42.1646475791931,0</coordinates></Point></Placemark>
<Placemark><name>40081</name><description>240081  REGIÓ
posicio de les: 04/08/2018 23:06:53</description><styleUrl>#w_groc</styleUrl><Point><coordinates>2.11263656616211,41.5023994445801,0</coordinates></Point></Placemark>
<Placemark><name>40091</name><description>240091  REGIÓ
posicio de les: 04/08/2018 23:07:27</description><styleUrl>#w_groc</styleUrl><Point><coordinates>2.11289405822754,41.5040624141693,0</coordinates></Point></Placemark>
<Placemark><name>40240</name><description>240240 BUP BAD (Metro. Nord)
posicio de les: 04/08/2018 23:11:39</description><styleUrl>#w_grocC</styleUrl><Point><coordinates>2.220139503479,41.4384663105011,0</coordinates></Point></Placemark>
<Placemark><name>40290</name><description>240290 UPC BAD (Metro. Nord)
posicio de les: 04/08/2018 23:07:43</description><styleUrl>#w_groc</styleUrl><Point><coordinates>2.03490614891052,41.4738178253174,0</coordinates></Point></Placemark>
<Placemark><name>CER03</name><description>240503 PORT CER (Metro. Nord)
posicio de les: 04/08/2018 23:08:08</description><styleUrl>#w_verdP</styleUrl><Point><coordinates>2.11183190345764,41.5023994445801,0</coordinates></Point></Placemark>
<Placemark><name>GRA05</name><description>240605 PORT GRA (Metro. Nord)
posicio de les: 04/08/2018 23:10:48</description><styleUrl>#w_verdP</styleUrl><Point><coordinates>2.27488875389099,41.5905153751373,0</coordinates></Point></Placemark>
<Placemark><name>GRA07</name><description>240607 PORT GRA (Metro. Nord)
posicio de les: 04/08/2018 23:08:47</description><styleUrl>#w_verdP</styleUrl><Point><coordinates>2.27447032928467,41.5905690193176,0</coordinates></Point></Placemark>
<Placemark><name>MOL03</name><description>241003 PORT MOL (Metro. Nord)
posicio de les: 04/08/2018 23:08:28</description><styleUrl>#w_verdP</styleUrl><Point><coordinates>2.20152497291565,41.5370321273804,0</coordinates></Point></Placemark>
<Placemark><name>41034</name><description>241034 BFP MOL (Metro. Nord)
posicio de les: 04/08/2018 23:10:48</description><styleUrl>#w_verdC</styleUrl><Point><coordinates>2.20241546630859,41.5370321273804,0</coordinates></Point></Placemark>
<Placemark><name>241040</name><description>241040 BUP MOL (Metro. Nord)
posicio de les: 04/08/2018 23:07:45</description><styleUrl>#w_grocC</styleUrl><Point><coordinates>2.20198631286621,41.5373432636261,0</coordinates></Point></Placemark>
<Placemark><name>241048</name><description>241048 BUL MOL (Metro. Nord)
posicio de les: 04/08/2018 23:11:25</description><styleUrl>#w_grocC</styleUrl><Point><coordinates>2.20206141471863,41.5368497371674,0</coordinates></Point></Placemark>
<Placemark><name>MFI01</name><description>241101 PORT MFI (Metro. Nord)
posicio de les: 04/08/2018 23:10:42</description><styleUrl>#w_grocP</styleUrl><Point><coordinates>2.27169156074524,41.7162680625916,0</coordinates></Point></Placemark>
<Placemark><name>SAB01</name><description>241401 PORT SAB (Metro. Nord)
posicio de les: 04/08/2018 23:10:47</description><styleUrl>#w_grocP</styleUrl><Point><coordinates>2.10210084915161,41.5132892131805,0</coordinates></Point></Placemark>
<Placemark><name>SAB06</name><description>241406 PORT SAB (Metro. Nord)
posicio de les: 04/08/2018 23:08:44</description><styleUrl>#w_verdP</styleUrl><Point><coordinates>2.10390329360962,41.5425145626068,0</coordinates></Point></Placemark>
<Placemark><name>41448</name><description>241448 BUL SAB (Metro. Nord)
posicio de les: 04/08/2018 23:11:28</description><styleUrl>#w_grocC</styleUrl><Point><coordinates>2.10213303565979,41.5131604671478,0</coordinates></Point></Placemark>
<Placemark><name>SCE08</name><description>241608 PORT SCE (Metro. Nord)
posicio de les: 04/08/2018 23:09:57</description><styleUrl>#w_verdP</styleUrl><Point><coordinates>2.50732898712158,41.6950356960297,0</coordinates></Point></Placemark>
<Placemark><name>SCG07</name><description>241807 PORT SCG (Metro. Nord)
posicio de les: 04/08/2018 23:09:02</description><styleUrl>#w_verdP</styleUrl><Point><coordinates>2.20932483673096,41.4631855487823,0</coordinates></Point></Placemark>
<Placemark><name>TER11</name><description>242011 PORT TER (Metro. Nord)
posicio de les: 04/08/2018 23:10:45</description><styleUrl>#w_grocP</styleUrl><Point><coordinates>2.02643036842346,41.5680921077728,0</coordinates></Point></Placemark>
<Placemark><name>TER56</name><description>242056 PORT.COM TER (Metro. Nord)
posicio de les: 04/08/2018 23:10:20</description><styleUrl>#w_verdP</styleUrl><Point><coordinates>2.02631235122681,41.5681779384613,0</coordinates></Point></Placemark>
<Placemark><name>50093</name><description>250093  REGIÓ
posicio de les: 04/08/2018 23:10:20</description><styleUrl>#w_verd</styleUrl><Point><coordinates>2.10003018379211,41.38028383255,0</coordinates></Point></Placemark>
<Placemark><name>COR56</name><description>250456 PORT.COM COR (Metro. Sud)
posicio de les: 04/08/2018 23:09:02</description><styleUrl>#w_verdP</styleUrl><Point><coordinates>2.07056879997253,41.3600277900696,0</coordinates></Point></Placemark>
<Placemark><name>50490</name><description>250490 UPC COR (Metro. Sud)
posicio de les: 04/08/2018 23:07:41</description><styleUrl>#w_groc</styleUrl><Point><coordinates>2.07025766372681,41.3625812530518,0</coordinates></Point></Placemark>
<Placemark><name>GAV02</name><description>250502 PORT GAV (Metro. Sud)
posicio de les: 04/08/2018 23:09:51</description><styleUrl>#w_verdP</styleUrl><Point><coordinates>1.99024200439453,41.2998497486115,0</coordinates></Point></Placemark>
<Placemark><name>GAV56</name><description>250556 PORT.COM GAV (Metro. Sud)
posicio de les: 04/08/2018 23:10:41</description><styleUrl>#w_grocP</styleUrl><Point><coordinates>1.99011325836182,41.3000428676605,0</coordinates></Point></Placemark>
<Placemark><name>HOS06</name><description>250706 PORT HOS (Metro. Sud)
posicio de les: 04/08/2018 23:11:23</description><styleUrl>#w_grocP</styleUrl><Point><coordinates>2.10572719573975,41.3699197769165,0</coordinates></Point></Placemark>
<Placemark><name>HOS14</name><description>250714 PORT HOS (Metro. Sud)
posicio de les: 04/08/2018 23:09:30</description><styleUrl>#w_verdP</styleUrl><Point><coordinates>2.10603833198547,41.3699841499329,0</coordinates></Point></Placemark>
<Placemark><name>HOS56</name><description>250756 PORT.COM HOS (Metro. Sud)
posicio de les: 04/08/2018 23:08:34</description><styleUrl>#w_verdP</styleUrl><Point><coordinates>2.10581302642822,41.3700377941132,0</coordinates></Point></Placemark>
<Placemark><name>HOS57</name><description>250757 PORT.COM HOS (Metro. Sud)
posicio de les: 04/08/2018 23:10:55</description><styleUrl>#w_verdP</styleUrl><Point><coordinates>2.10578083992004,41.369823217392,0</coordinates></Point></Placemark>
<Placemark><name>50790</name><description>250790 UPC HOS (Metro. Sud)
posicio de les: 04/08/2018 23:09:42</description><styleUrl>#w_groc</styleUrl><Point><coordinates>2.10588812828064,41.3698554039001,0</coordinates></Point></Placemark>
<Placemark><name>MAR57</name><description>251057 PORT.COM MAR (Metro. Sud)
posicio de les: 04/08/2018 23:11:52</description><styleUrl>#w_verdP</styleUrl><Point><coordinates>1.90802693367004,41.4986765384674,0</coordinates></Point></Placemark>
<Placemark><name>PLL06</name><description>251206 PORT PLL (Metro. Sud)
posicio de les: 04/08/2018 23:10:08</description><styleUrl>#w_verdP</styleUrl><Point><coordinates>2.08153367042542,41.3172948360443,0</coordinates></Point></Placemark>
<Placemark><name>SBOI57</name><description>251357 PORT.COM SBOI (Metro. Sud)
posicio de les: 04/08/2018 23:11:51</description><styleUrl>#w_grocP</styleUrl><Point><coordinates>2.03456282615662,41.3225948810577,0</coordinates></Point></Placemark>
<Placemark><name>SFE02</name><description>251502 PORT SFE (Metro. Sud)
posicio de les: 04/08/2018 23:10:33</description><styleUrl>#w_verdP</styleUrl><Point><coordinates>2.04317808151245,41.3886094093323,0</coordinates></Point></Placemark>
<Placemark><name>SFE03</name><description>251503 PORT SFE (Metro. Sud)
posicio de les: 04/08/2018 23:09:48</description><styleUrl>#w_verdP</styleUrl><Point><coordinates>2.04285621643066,41.388738155365,0</coordinates></Point></Placemark>
<Placemark><name>SFE57</name><description>251557 PORT.COM SFE (Metro. Sud)
posicio de les: 04/08/2018 23:11:42</description><styleUrl>#w_grocP</styleUrl><Point><coordinates>2.04293131828308,41.3884592056274,0</coordinates></Point></Placemark>
<Placemark><name>D2REMS</name><description>258042  SERVEIS REGIÓ
posicio de les: 04/08/2018 23:09:41</description><styleUrl>#w_verd</styleUrl><Point><coordinates>2.03388690948486,41.3224124908447,0</coordinates></Point></Placemark>
<Placemark><name>RET12</name><description>260012 P.Tec REGIÓ
posicio de les: 04/08/2018 23:11:05</description><styleUrl>#w_verdP</styleUrl><Point><coordinates>1.19120121002197,41.1999320983887,0</coordinates></Point></Placemark>
<Placemark><name>GE0RET</name><description>260013 P.Tec REGIÓ
posicio de les: 04/08/2018 23:06:48</description><styleUrl>#w_verdP</styleUrl><Point><coordinates>1.18479609489441,41.1345827579498,0</coordinates></Point></Placemark>
<Placemark><name>GE600</name><description>260017 P.Tec REGIÓ
posicio de les: 04/08/2018 23:11:15</description><styleUrl>#w_verdP</styleUrl><Point><coordinates>1.18512868881226,41.1350440979004,0</coordinates></Point></Placemark>
<Placemark><name>60092</name><description>260092  REGIÓ
posicio de les: 04/08/2018 23:11:43</description><styleUrl>#w_verd</styleUrl><Point><coordinates>1.19314312934875,41.2012839317322,0</coordinates></Point></Placemark>
<Placemark><name>CAMB06</name><description>260206 PORT CAMB (Tarragona)
posicio de les: 04/08/2018 23:10:05</description><styleUrl>#w_verdP</styleUrl><Point><coordinates>1.04065418243408,41.0768508911133,0</coordinates></Point></Placemark>
<Placemark><name>FALS06</name><description>260406 PORT FALS (Tarragona)
posicio de les: 04/08/2018 23:10:51</description><styleUrl>#w_grocP</styleUrl><Point><coordinates>0.823405981063843,41.1475217342377,0</coordinates></Point></Placemark>
<Placemark><name>260508</name><description>260508 PORT HOSP (Tarragona)
posicio de les: 04/08/2018 23:10:51</description><styleUrl>#w_verdP</styleUrl><Point><coordinates>0.919976234436035,40.9934449195862,0</coordinates></Point></Placemark>
<Placemark><name>REUS03</name><description>260803 PORT REUS (Tarragona)
posicio de les: 04/08/2018 23:11:50</description><styleUrl>#w_verdP</styleUrl><Point><coordinates>1.11843824386597,41.1510729789734,0</coordinates></Point></Placemark>
<Placemark><name>REUS12</name><description>260812 PORT REUS (Tarragona)
posicio de les: 04/08/2018 23:09:48</description><styleUrl>#w_verdP</styleUrl><Point><coordinates>1.11810564994812,41.1512231826782,0</coordinates></Point></Placemark>
<Placemark><name>60840</name><description>260840 BUP REUS (Tarragona)
posicio de les: 04/08/2018 23:08:02</description><styleUrl>#w_verdC</styleUrl><Point><coordinates>1.11838459968567,41.1514055728912,0</coordinates></Point></Placemark>
<Placemark><name>61248</name><description>261248 BUL TARR (Tarragona)
posicio de les: 04/08/2018 23:11:41</description><styleUrl>#w_verdC</styleUrl><Point><coordinates>1.23607993125916,41.1162686347961,0</coordinates></Point></Placemark>
<Placemark><name>E00RETE</name><description>270014 P.Tec REGIÓ
posicio de les: 04/08/2018 23:10:47</description><styleUrl>#w_grocP</styleUrl><Point><coordinates>0.513246059417725,40.8193588256836,0</coordinates></Point></Placemark>
<Placemark><name>AMET06</name><description>272006 PORT AMET (Terres de l'Ebre)
posicio de les: 04/08/2018 23:10:43</description><styleUrl>#w_verdP</styleUrl><Point><coordinates>0.792431831359863,40.8899009227753,0</coordinates></Point></Placemark>
<Placemark><name>ASCO56</name><description>272256 PORT.COM ASCO (Terres de l'Ebre)
posicio de les: 04/08/2018 23:10:58</description><styleUrl>#w_grocP</styleUrl><Point><coordinates>0.568885803222656,41.1879050731659,0</coordinates></Point></Placemark>
<Placemark><name>GAND56</name><description>272656 PORT.COM GAND (Terres de l'Ebre)
posicio de les: 04/08/2018 23:10:27</description><styleUrl>#w_grocP</styleUrl><Point><coordinates>0.439249277114868,41.0585904121399,0</coordinates></Point></Placemark>
<Placemark><name>MORA57</name><description>272857 PORT.COM MORA (Terres de l'Ebre)
posicio de les: 04/08/2018 23:09:14</description><styleUrl>#w_verdP</styleUrl><Point><coordinates>0.629653930664063,41.0860884189606,0</coordinates></Point></Placemark>
<Placemark><name>ULLD08</name><description>273108 PORT ULLD (Terres de l'Ebre)
posicio de les: 04/08/2018 23:10:23</description><styleUrl>#w_grocP</styleUrl><Point><coordinates>0.358289480209351,40.6086552143097,0</coordinates></Point></Placemark>
</Folder>
<Folder>
<name>Descarregues</name>
</Folder>
<Style id="w_verdP_n"><IconStyle><color>ff00ff00</color><scale>1.0</scale><Icon><href>http://maps.google.com/mapfiles/kml/shapes/man.png</href></Icon><hotSpot x="0.5" y="0" xunits="fraction" yunits="fraction"/></IconStyle><LabelStyle><scale>0.7</scale></LabelStyle></Style>
<Style id="w_verdP_s"><IconStyle><color>ff00ff00</color><scale>1.4</scale><Icon><href>http://maps.google.com/mapfiles/kml/shapes/man.png</href></Icon><hotSpot x="0.5" y="0" xunits="fraction" yunits="fraction"/></IconStyle><LabelStyle><scale>0.7</scale></LabelStyle></Style>
<StyleMap id="w_verdP"><Pair><key>normal</key><styleUrl>#w_verdP_n</styleUrl></Pair><Pair><key>highlight</key><styleUrl>#w_verdP_s</styleUrl></Pair></StyleMap>
<Style id="w_verd_n"><IconStyle><color>ff00ff00</color><scale>0.7</scale><Icon><href>http://maps.google.com/mapfiles/kml/shapes/cabs.png</href></Icon><hotSpot x="0.5" y="0" xunits="fraction" yunits="fraction"/></IconStyle><LabelStyle><scale>0.7</scale></LabelStyle></Style>
<Style id="w_verd_s"><IconStyle><color>ff00ff00</color><scale>1.0</scale><Icon><href>http://maps.google.com/mapfiles/kml/shapes/cabs.png</href></Icon><hotSpot x="0.5" y="0" xunits="fraction" yunits="fraction"/></IconStyle><LabelStyle><scale>0.7</scale></LabelStyle></Style>
<StyleMap id="w_verd"><Pair><key>normal</key><styleUrl>#w_verd_n</styleUrl></Pair><Pair><key>highlight</key><styleUrl>#w_verd_s</styleUrl></Pair></StyleMap>
<Style id="w_verdC_n"><IconStyle><color>ff00ff00</color><scale>1.0</scale><Icon><href>http://maps.google.com/mapfiles/kml/shapes/truck.png</href></Icon><hotSpot x="0.5" y="0" xunits="fraction" yunits="fraction"/></IconStyle><LabelStyle><scale>0.7</scale></LabelStyle></Style>
<Style id="w_verdC_s"><IconStyle><color>ff00ff00</color><scale>1.4</scale><Icon><href>http://maps.google.com/mapfiles/kml/shapes/truck.png</href></Icon><hotSpot x="0.5" y="0" xunits="fraction" yunits="fraction"/></IconStyle><LabelStyle><scale>0.7</scale></LabelStyle></Style>
<StyleMap id="w_verdC"><Pair><key>normal</key><styleUrl>#w_verdC_n</styleUrl></Pair><Pair><key>highlight</key><styleUrl>#w_verdC_s</styleUrl></Pair></StyleMap>
<Style id="w_verdH_n"><IconStyle><color>ff0000ff</color><scale>1.2</scale><Icon><href>http://maps.google.com/mapfiles/kml/shapes/heliport.png</href></Icon><hotSpot x="0.5" y="0" xunits="fraction" yunits="fraction"/></IconStyle><LabelStyle><scale>0.7</scale></LabelStyle></Style>
<Style id="w_verdH_s"><IconStyle><color>ff0000ff</color><scale>1.4</scale><Icon><href>http://maps.google.com/mapfiles/kml/shapes/heliport.png</href></Icon><hotSpot x="0.5" y="0" xunits="fraction" yunits="fraction"/></IconStyle><LabelStyle><scale>0.7</scale></LabelStyle></Style>
<StyleMap id="w_verdH"><Pair><key>normal</key><styleUrl>#w_verdH_n</styleUrl></Pair><Pair><key>highlight</key><styleUrl>#w_verdH_s</styleUrl></Pair></StyleMap>
<Style id="w_verdA_n"><IconStyle><color>ff0000ff</color><scale>1.2</scale><Icon><href>http://maps.google.com/mapfiles/kml/shapes/airports.png</href></Icon><hotSpot x="0.5" y="0" xunits="fraction" yunits="fraction"/></IconStyle><LabelStyle><scale>0.7</scale></LabelStyle></Style>
<Style id="w_verdA_s"><IconStyle><color>ff0000ff</color><scale>1.4</scale><Icon><href>http://maps.google.com/mapfiles/kml/shapes/airports.png</href></Icon><hotSpot x="0.5" y="0" xunits="fraction" yunits="fraction"/></IconStyle><LabelStyle><scale>0.7</scale></LabelStyle></Style>
<StyleMap id="w_verdA"><Pair><key>normal</key><styleUrl>#w_verdA_n</styleUrl></Pair><Pair><key>highlight</key><styleUrl>#w_verdA_s</styleUrl></Pair></StyleMap>
<Style id="w_verdB_n"><IconStyle><color>ff00ff00</color><scale>1.0</scale><Icon><href>http://maps.google.com/mapfiles/kml/shapes/sailing.png</href></Icon><hotSpot x="0.5" y="0" xunits="fraction" yunits="fraction"/></IconStyle><LabelStyle><scale>0.7</scale></LabelStyle></Style>
<Style id="w_verdB_s"><IconStyle><color>ff00ff00</color><scale>1.4</scale><Icon><href>http://maps.google.com/mapfiles/kml/shapes/sailing.png</href></Icon><hotSpot x="0.5" y="0" xunits="fraction" yunits="fraction"/></IconStyle><LabelStyle><scale>0.7</scale></LabelStyle></Style>
<StyleMap id="w_verdB"><Pair><key>normal</key><styleUrl>#w_verdBAR_n</styleUrl></Pair><Pair><key>highlight</key><styleUrl>#w_verdBAR_s</styleUrl></Pair></StyleMap>
<Style id="w_grocP_n"><IconStyle><color>ff00ffff</color><scale>1.0</scale><Icon><href>http://maps.google.com/mapfiles/kml/shapes/man.png</href></Icon><hotSpot x="0.5" y="0" xunits="fraction" yunits="fraction"/></IconStyle><LabelStyle><scale>0.7</scale></LabelStyle></Style>
<Style id="w_grocP_s"><IconStyle><color>ff00ffff</color><scale>1.4</scale><Icon><href>http://maps.google.com/mapfiles/kml/shapes/man.png</href></Icon><hotSpot x="0.5" y="0" xunits="fraction" yunits="fraction"/></IconStyle><LabelStyle><scale>0.7</scale></LabelStyle></Style>
<StyleMap id="w_grocP"><Pair><key>normal</key><styleUrl>#w_grocP_n</styleUrl></Pair><Pair><key>highlight</key><styleUrl>#w_grocP_s</styleUrl></Pair></StyleMap>
<Style id="w_groc_n"><IconStyle><color>ff00ffff</color><scale>0.7</scale><Icon><href>http://maps.google.com/mapfiles/kml/shapes/cabs.png</href></Icon><hotSpot x="0.5" y="0" xunits="fraction" yunits="fraction"/></IconStyle><LabelStyle><scale>0.7</scale></LabelStyle></Style>
<Style id="w_groc_s"><IconStyle><color>ff00ffff</color><scale>1.0</scale><Icon><href>http://maps.google.com/mapfiles/kml/shapes/cabs.png</href></Icon><hotSpot x="0.5" y="0" xunits="fraction" yunits="fraction"/></IconStyle><LabelStyle><scale>0.7</scale></LabelStyle></Style>
<StyleMap id="w_groc"><Pair><key>normal</key><styleUrl>#w_groc_n</styleUrl></Pair><Pair><key>highlight</key><styleUrl>#w_groc_s</styleUrl></Pair></StyleMap>
<Style id="w_grocC_n"><IconStyle><color>ff00ffff</color><scale>1.0</scale><Icon><href>http://maps.google.com/mapfiles/kml/shapes/truck.png</href></Icon><hotSpot x="0.5" y="0" xunits="fraction" yunits="fraction"/></IconStyle><LabelStyle><scale>0.7</scale></LabelStyle></Style>
<Style id="w_grocC_s"><IconStyle><color>ff00ffff</color><scale>1.4</scale><Icon><href>http://maps.google.com/mapfiles/kml/shapes/truck.png</href></Icon><hotSpot x="0.5" y="0" xunits="fraction" yunits="fraction"/></IconStyle><LabelStyle><scale>0.7</scale></LabelStyle></Style>
<StyleMap id="w_grocC"><Pair><key>normal</key><styleUrl>#w_grocC_n</styleUrl></Pair><Pair><key>highlight</key><styleUrl>#w_grocC_s</styleUrl></Pair></StyleMap>
<Style id="w_grocH_n"><IconStyle><color>ff0000ff</color><scale>1.2</scale><Icon><href>http://maps.google.com/mapfiles/kml/shapes/heliport.png</href></Icon><hotSpot x="0.5" y="0" xunits="fraction" yunits="fraction"/></IconStyle><LabelStyle><scale>0.7</scale></LabelStyle></Style>
<Style id="w_grocH_s"><IconStyle><color>ff0000ff</color><scale>1.4</scale><Icon><href>http://maps.google.com/mapfiles/kml/shapes/heliport.png</href></Icon><hotSpot x="0.5" y="0" xunits="fraction" yunits="fraction"/></IconStyle><LabelStyle><scale>0.7</scale></LabelStyle></Style>
<StyleMap id="w_grocH"><Pair><key>normal</key><styleUrl>#w_grocH_n</styleUrl></Pair><Pair><key>highlight</key><styleUrl>#w_grocH_s</styleUrl></Pair></StyleMap>
<Style id="w_grocA_n"><IconStyle><color>ff0000ff</color><scale>1.2</scale><Icon><href>http://maps.google.com/mapfiles/kml/shapes/airports.png</href></Icon><hotSpot x="0.5" y="0" xunits="fraction" yunits="fraction"/></IconStyle><LabelStyle><scale>0.7</scale></LabelStyle></Style>
<Style id="w_grocA_s"><IconStyle><color>ff0000ff</color><scale>1.4</scale><Icon><href>http://maps.google.com/mapfiles/kml/shapes/airports.png</href></Icon><hotSpot x="0.5" y="0" xunits="fraction" yunits="fraction"/></IconStyle><LabelStyle><scale>0.7</scale></LabelStyle></Style>
<StyleMap id="w_grocA"><Pair><key>normal</key><styleUrl>#w_grocA_n</styleUrl></Pair><Pair><key>highlight</key><styleUrl>#w_grocA_s</styleUrl></Pair></StyleMap>
<Style id="w_grocB_n"><IconStyle><color>ff00ffff</color><scale>1.0</scale><Icon><href>http://maps.google.com/mapfiles/kml/shapes/sailing.png</href></Icon><hotSpot x="0.5" y="0" xunits="fraction" yunits="fraction"/></IconStyle><LabelStyle><scale>0.7</scale></LabelStyle></Style>
<Style id="w_grocB_s"><IconStyle><color>ff00ffff</color><scale>1.4</scale><Icon><href>http://maps.google.com/mapfiles/kml/shapes/sailing.png</href></Icon><hotSpot x="0.5" y="0" xunits="fraction" yunits="fraction"/></IconStyle><LabelStyle><scale>0.7</scale></LabelStyle></Style>
<StyleMap id="w_grocB"><Pair><key>normal</key><styleUrl>#w_grocBAR_n</styleUrl></Pair><Pair><key>highlight</key><styleUrl>#w_grocBAR_s</styleUrl></Pair></StyleMap>
<Style id="w_vermellP_n"><IconStyle><color>ff0000ff</color><scale>1.0</scale><Icon><href>http://maps.google.com/mapfiles/kml/shapes/man.png</href></Icon><hotSpot x="0.5" y="0" xunits="fraction" yunits="fraction"/></IconStyle><LabelStyle><scale>0.7</scale></LabelStyle></Style>
<Style id="w_vermellP_s"><IconStyle><color>ff0000ff</color><scale>1.4</scale><Icon><href>http://maps.google.com/mapfiles/kml/shapes/man.png</href></Icon><hotSpot x="0.5" y="0" xunits="fraction" yunits="fraction"/></IconStyle><LabelStyle><scale>0.7</scale></LabelStyle></Style>
<StyleMap id="w_vermellP"><Pair><key>normal</key><styleUrl>#w_vermellP_n</styleUrl></Pair><Pair><key>highlight</key><styleUrl>#w_vermellP_s</styleUrl></Pair></StyleMap>
<Style id="w_vermell_n"><IconStyle><color>ff0000ff</color><scale>0.7</scale><Icon><href>http://maps.google.com/mapfiles/kml/shapes/cabs.png</href></Icon><hotSpot x="0.5" y="0" xunits="fraction" yunits="fraction"/></IconStyle><LabelStyle><scale>0.7</scale></LabelStyle></Style>
<Style id="w_vermell_s"><IconStyle><color>ff0000ff</color><scale>1.0</scale><Icon><href>http://maps.google.com/mapfiles/kml/shapes/cabs.png</href></Icon><hotSpot x="0.5" y="0" xunits="fraction" yunits="fraction"/></IconStyle><LabelStyle><scale>0.7</scale></LabelStyle></Style>
<StyleMap id="w_vermell"><Pair><key>normal</key><styleUrl>#w_vermell_n</styleUrl></Pair><Pair><key>highlight</key><styleUrl>#w_vermell_s</styleUrl></Pair></StyleMap>
<Style id="w_vermellC_n"><IconStyle><color>ff0000ff</color><scale>1.0</scale><Icon><href>http://maps.google.com/mapfiles/kml/shapes/truck.png</href></Icon><hotSpot x="0.5" y="0" xunits="fraction" yunits="fraction"/></IconStyle><LabelStyle><scale>0.7</scale></LabelStyle></Style>
<Style id="w_vermellC_s"><IconStyle><color>ff0000ff</color><scale>1.4</scale><Icon><href>http://maps.google.com/mapfiles/kml/shapes/truck.png</href></Icon><hotSpot x="0.5" y="0" xunits="fraction" yunits="fraction"/></IconStyle><LabelStyle><scale>0.7</scale></LabelStyle></Style>
<StyleMap id="w_vermellC"><Pair><key>normal</key><styleUrl>#w_vermellC_n</styleUrl></Pair><Pair><key>highlight</key><styleUrl>#w_vermellC_s</styleUrl></Pair></StyleMap>
<Style id="w_vermellH_n"><IconStyle><color>ff0000ff</color><scale>1.2</scale><Icon><href>http://maps.google.com/mapfiles/kml/shapes/heliport.png</href></Icon><hotSpot x="0.5" y="0" xunits="fraction" yunits="fraction"/></IconStyle><LabelStyle><scale>0.7</scale></LabelStyle></Style>
<Style id="w_vermellH_s"><IconStyle><color>ff0000ff</color><scale>1.4</scale><Icon><href>http://maps.google.com/mapfiles/kml/shapes/heliport.png</href></Icon><hotSpot x="0.5" y="0" xunits="fraction" yunits="fraction"/></IconStyle><LabelStyle><scale>0.7</scale></LabelStyle></Style>
<StyleMap id="w_vermellH"><Pair><key>normal</key><styleUrl>#w_vermellH_n</styleUrl></Pair><Pair><key>highlight</key><styleUrl>#w_vermellH_s</styleUrl></Pair></StyleMap>
<Style id="w_vermellA_n"><IconStyle><color>ff0000ff</color><scale>1.2</scale><Icon><href>http://maps.google.com/mapfiles/kml/shapes/airports.png</href></Icon><hotSpot x="0.5" y="0" xunits="fraction" yunits="fraction"/></IconStyle><LabelStyle><scale>0.7</scale></LabelStyle></Style>
<Style id="w_vermellA_s"><IconStyle><color>ff0000ff</color><scale>1.4</scale><Icon><href>http://maps.google.com/mapfiles/kml/shapes/airports.png</href></Icon><hotSpot x="0.5" y="0" xunits="fraction" yunits="fraction"/></IconStyle><LabelStyle><scale>0.7</scale></LabelStyle></Style>
<StyleMap id="w_vermellA"><Pair><key>normal</key><styleUrl>#w_vermellA_n</styleUrl></Pair><Pair><key>highlight</key><styleUrl>#w_vermellA_s</styleUrl></Pair></StyleMap>
<Style id="w_vermellB_n"><IconStyle><color>ff0000ff</color><scale>1.0</scale><Icon><href>http://maps.google.com/mapfiles/kml/shapes/sailing.png</href></Icon><hotSpot x="0.5" y="0" xunits="fraction" yunits="fraction"/></IconStyle><LabelStyle><scale>0.7</scale></LabelStyle></Style>
<Style id="w_vermellB_s"><IconStyle><color>ff0000ff</color><scale>1.4</scale><Icon><href>http://maps.google.com/mapfiles/kml/shapes/sailing.png</href></Icon><hotSpot x="0.5" y="0" xunits="fraction" yunits="fraction"/></IconStyle><LabelStyle><scale>0.7</scale></LabelStyle></Style>
<StyleMap id="w_vermellB"><Pair><key>normal</key><styleUrl>#w_vermellBAR_n</styleUrl></Pair><Pair><key>highlight</key><styleUrl>#w_vermellBAR_s</styleUrl></Pair></StyleMap>
<Style id="w_descarrega"><IconStyle><color>ff00ffff</color><scale>0.5</scale><Icon><href>http://maps.google.com/mapfiles/kml/shapes/road_shield3.png</href></Icon></IconStyle><LabelStyle><scale>0.7</scale></LabelStyle></Style><Style id="actuacio"><IconStyle><color>ff00ffff</color><scale>0.8</scale><Icon><href>http://maps.google.com/mapfiles/kml/shapes/caution.png</href></Icon></IconStyle><LabelStyle><scale>0.7</scale></LabelStyle></Style></Document></kml>