<?xml version="1.0" encoding="UTF-8"?>
<kml xmlns="http://www.opengis.net/kml/2.2" xmlns:gx="http://www.google.com/kml/ext/2.2" xmlns:kml="http://www.opengis.net/kml/2.2" xmlns:atom="http://www.w3.org/2005/Atom">
<Document>
<name>Terminals</name>
<Snippet maxLines="2">Created 05/08/2018 03:36:08</Snippet>
<Folder>
<name>Terminals</name>
<Placemark><name>A0202</name><description>200202 PORT Dept.
posicio de les: 05/08/2018 03:34:02</description><styleUrl>#w_verdP</styleUrl><Point><coordinates>0.798847675323486,42.7022802829742,0</coordinates></Point></Placemark>
<Placemark><name>GGRAF12</name><description>204212 P.REC
posicio de les: 05/08/2018 03:35:05</description><styleUrl>#w_grocP</styleUrl><Point><coordinates>2.97483801841736,42.0296895503998,0</coordinates></Point></Placemark>
<Placemark><name>OP05087</name><description>205287 OP.AAV
posicio de les: 05/08/2018 03:34:43</description><styleUrl>#w_verdP</styleUrl><Point><coordinates>1.1581027507782,41.1479938030243,0</coordinates></Point></Placemark>
<Placemark><name>VIEL12</name><description>208012 P.PT VARAN
posicio de les: 05/08/2018 03:35:35</description><styleUrl>#w_grocP</styleUrl><Point><coordinates>0.801218748092651,42.6993298530579,0</coordinates></Point></Placemark>
<Placemark><name>VIEL17</name><description>208017 BASE CCA VARAN
posicio de les: 05/08/2018 03:35:53</description><styleUrl>#w_groc</styleUrl><Point><coordinates>0.796787738800049,42.7081060409546,0</coordinates></Point></Placemark>
<Placemark><name>E0REC</name><description>210012 P.Tec REGIÓ
posicio de les: 05/08/2018 03:35:45</description><styleUrl>#w_grocP</styleUrl><Point><coordinates>1.85132503509521,41.7416524887085,0</coordinates></Point></Placemark>
<Placemark><name>BER57</name><description>210357 PORT.COM BER (Centre)
posicio de les: 05/08/2018 03:33:43</description><styleUrl>#w_verdP</styleUrl><Point><coordinates>1.85771942138672,42.1036005020142,0</coordinates></Point></Placemark>
<Placemark><name>CAF56</name><description>210456 PORT.COM CAF (Centre)
posicio de les: 05/08/2018 03:35:25</description><styleUrl>#w_verdP</styleUrl><Point><coordinates>1.52777552604675,41.7306017875671,0</coordinates></Point></Placemark>
<Placemark><name>GUA56</name><description>210856 PORT.COM GUA (Centre)
posicio de les: 05/08/2018 03:34:59</description><styleUrl>#w_verdP</styleUrl><Point><coordinates>1.86995029449463,42.2199869155884,0</coordinates></Point></Placemark>
<Placemark><name>PRA07</name><description>211407 PORT PRA (Centre)
posicio de les: 05/08/2018 03:34:55</description><styleUrl>#w_grocP</styleUrl><Point><coordinates>2.03613996505737,42.0080065727234,0</coordinates></Point></Placemark>
<Placemark><name>20134</name><description>220134 BFP AMER (Girona)
posicio de les: 05/08/2018 03:35:07</description><styleUrl>#w_grocC</styleUrl><Point><coordinates>3.15388083457947,42.3583459854126,0</coordinates></Point></Placemark>
<Placemark><name>20330</name><description>220330 BRP BANY (Girona)
posicio de les: 05/08/2018 03:31:18</description><styleUrl>#w_grocC</styleUrl><Point><coordinates>2.78545260429382,42.1179342269897,0</coordinates></Point></Placemark>
<Placemark><name>CASS56</name><description>220856 PORT.COM CASS (Girona)
posicio de les: 05/08/2018 03:34:37</description><styleUrl>#w_verdP</styleUrl><Point><coordinates>2.88435101509094,41.8796575069427,0</coordinates></Point></Placemark>
<Placemark><name>FIGU56</name><description>221056 PORT.COM FIGU (Girona)
posicio de les: 05/08/2018 03:33:59</description><styleUrl>#w_verdP</styleUrl><Point><coordinates>2.97070741653442,42.2722363471985,0</coordinates></Point></Placemark>
<Placemark><name>21131</name><description>221131 BRP GIRO (Girona)
posicio de les: 05/08/2018 03:34:57</description><styleUrl>#w_grocC</styleUrl><Point><coordinates>2.80961394309998,41.9757342338562,0</coordinates></Point></Placemark>
<Placemark><name>GIRO56</name><description>221156 PORT.COM GIRO (Girona)
posicio de les: 05/08/2018 03:35:40</description><styleUrl>#w_verdP</styleUrl><Point><coordinates>2.80872344970703,41.9770002365112,0</coordinates></Point></Placemark>
<Placemark><name>HOST05</name><description>221205 PORT HOST (Girona)
posicio de les: 05/08/2018 03:34:32</description><styleUrl>#w_verdP</styleUrl><Point><coordinates>2.62439131736755,41.7482078075409,0</coordinates></Point></Placemark>
<Placemark><name>HOST57</name><description>221257 PORT.COM HOST (Girona)
posicio de les: 05/08/2018 03:34:34</description><styleUrl>#w_grocP</styleUrl><Point><coordinates>2.6246702671051,41.7479932308197,0</coordinates></Point></Placemark>
<Placemark><name>JONQ56</name><description>221356 PORT.COM JONQ (Girona)
posicio de les: 05/08/2018 03:35:30</description><styleUrl>#w_verdP</styleUrl><Point><coordinates>2.87643313407898,42.4121081829071,0</coordinates></Point></Placemark>
<Placemark><name>LLAN57</name><description>221457 PORT.COM LLAN (Girona)
posicio de les: 05/08/2018 03:32:21</description><styleUrl>#w_verdP</styleUrl><Point><coordinates>3.1531298160553,42.3574340343475,0</coordinates></Point></Placemark>
<Placemark><name>LLOR56</name><description>221556 PORT.COM LLOR (Girona)
posicio de les: 05/08/2018 03:36:03</description><styleUrl>#w_verdP</styleUrl><Point><coordinates>2.83581376075745,41.699777841568,0</coordinates></Point></Placemark>
<Placemark><name>21630</name><description>221630 BRP MACA (Girona)
posicio de les: 05/08/2018 03:33:45</description><styleUrl>#w_grocC</styleUrl><Point><coordinates>2.75295495986938,41.7794287204742,0</coordinates></Point></Placemark>
<Placemark><name>MAÇA57</name><description>221657 PORT.COM MACA (Girona)
posicio de les: 05/08/2018 03:33:13</description><styleUrl>#w_verdP</styleUrl><Point><coordinates>2.75381326675415,41.7796003818512,0</coordinates></Point></Placemark>
<Placemark><name>OLOT56</name><description>221756 PORT.COM OLOT (Girona)
posicio de les: 05/08/2018 03:32:09</description><styleUrl>#w_verdP</styleUrl><Point><coordinates>2.4749493598938,42.1895921230316,0</coordinates></Point></Placemark>
<Placemark><name>PALA56</name><description>221856 PORT.COM PALA (Girona)
posicio de les: 05/08/2018 03:34:23</description><styleUrl>#w_verdP</styleUrl><Point><coordinates>3.15643429756165,41.9262206554413,0</coordinates></Point></Placemark>
<Placemark><name>PALA57</name><description>221857 PORT.COM PALA (Girona)
posicio de les: 05/08/2018 03:31:56</description><styleUrl>#w_verdP</styleUrl><Point><coordinates>3.15529704093933,41.9257378578186,0</coordinates></Point></Placemark>
<Placemark><name>RIPO03</name><description>222103 PORT RIPO (Girona)
posicio de les: 05/08/2018 03:34:20</description><styleUrl>#w_verdP</styleUrl><Point><coordinates>2.16821193695068,42.2149658203125,0</coordinates></Point></Placemark>
<Placemark><name>22130</name><description>222130 BRP RIPO (Girona)
posicio de les: 05/08/2018 03:32:32</description><styleUrl>#w_verdC</styleUrl><Point><coordinates>2.16801881790161,42.2149014472961,0</coordinates></Point></Placemark>
<Placemark><name>ROSE56</name><description>222256 PORT.COM ROSE (Girona)
posicio de les: 05/08/2018 03:34:55</description><styleUrl>#w_verdP</styleUrl><Point><coordinates>3.16118717193604,42.2761845588684,0</coordinates></Point></Placemark>
<Placemark><name>TORR56</name><description>222656 PORT.COM TORR (Girona)
posicio de les: 05/08/2018 03:36:02</description><styleUrl>#w_verdP</styleUrl><Point><coordinates>3.16749572753906,42.0474565029144,0</coordinates></Point></Placemark>
<Placemark><name>VALL57</name><description>222857 PORT.COM VALL (Girona)
posicio de les: 05/08/2018 03:35:13</description><styleUrl>#w_grocP</styleUrl><Point><coordinates>3.03157210350037,41.8088042736053,0</coordinates></Point></Placemark>
<Placemark><name>I308</name><description>227308 P.GUAITA GUAITA
posicio de les: 05/08/2018 03:35:40</description><styleUrl>#w_verdP</styleUrl><Point><coordinates>3.15596222877502,41.9258558750153,0</coordinates></Point></Placemark>
<Placemark><name>D0REL</name><description>230010 P.CG REGIÓ
posicio de les: 05/08/2018 03:32:18</description><styleUrl>#w_verdP</styleUrl><Point><coordinates>0.604612827301025,41.6235816478729,0</coordinates></Point></Placemark>
<Placemark><name>ALMA02</name><description>230302 PORT ALMA (Lleida)
posicio de les: 05/08/2018 03:34:28</description><styleUrl>#w_grocP</styleUrl><Point><coordinates>0.433863401412964,41.7316854000092,0</coordinates></Point></Placemark>
<Placemark><name>ALMA07</name><description>230307 PORT ALMA (Lleida)
posicio de les: 05/08/2018 03:34:14</description><styleUrl>#w_verdP</styleUrl><Point><coordinates>0.442779064178467,41.7296361923218,0</coordinates></Point></Placemark>
<Placemark><name>BORG05</name><description>230705 PORT BORG (Lleida)
posicio de les: 05/08/2018 03:34:18</description><styleUrl>#w_verdP</styleUrl><Point><coordinates>0.844777822494507,41.5073668956757,0</coordinates></Point></Placemark>
<Placemark><name>BORG06</name><description>230706 PORT BORG (Lleida)
posicio de les: 05/08/2018 03:35:54</description><styleUrl>#w_grocP</styleUrl><Point><coordinates>0.844895839691162,41.5071094036102,0</coordinates></Point></Placemark>
<Placemark><name>BORG56</name><description>230756 PORT.COM BORG (Lleida)
posicio de les: 05/08/2018 03:34:54</description><styleUrl>#w_verdP</styleUrl><Point><coordinates>0.844659805297852,41.507066488266,0</coordinates></Point></Placemark>
<Placemark><name>POBL01</name><description>232401 PORT POBL (Lleida)
posicio de les: 05/08/2018 03:34:06</description><styleUrl>#w_verdP</styleUrl><Point><coordinates>0.964500904083252,42.2389876842499,0</coordinates></Point></Placemark>
<Placemark><name>PONT56</name><description>232556 PORT.COM PONT (Lleida)
posicio de les: 05/08/2018 03:32:23</description><styleUrl>#w_verdP</styleUrl><Point><coordinates>0.739560127258301,42.4103271961212,0</coordinates></Point></Placemark>
<Placemark><name>SEU09</name><description>232909 PORT SEU (Lleida)
posicio de les: 05/08/2018 03:33:56</description><styleUrl>#w_verdP</styleUrl><Point><coordinates>1.47170662879944,42.3605453968048,0</coordinates></Point></Placemark>
<Placemark><name>40081</name><description>240081  REGIÓ
posicio de les: 05/08/2018 03:31:53</description><styleUrl>#w_groc</styleUrl><Point><coordinates>2.11263656616211,41.5023994445801,0</coordinates></Point></Placemark>
<Placemark><name>40290</name><description>240290 UPC BAD (Metro. Nord)
posicio de les: 05/08/2018 03:32:43</description><styleUrl>#w_groc</styleUrl><Point><coordinates>2.03467011451721,41.4740216732025,0</coordinates></Point></Placemark>
<Placemark><name>CER03</name><description>240503 PORT CER (Metro. Nord)
posicio de les: 05/08/2018 03:32:18</description><styleUrl>#w_verdP</styleUrl><Point><coordinates>2.11064100265503,41.5031397342682,0</coordinates></Point></Placemark>
<Placemark><name>GRA05</name><description>240605 PORT GRA (Metro. Nord)
posicio de les: 05/08/2018 03:31:44</description><styleUrl>#w_verdP</styleUrl><Point><coordinates>2.27444887161255,41.5911483764648,0</coordinates></Point></Placemark>
<Placemark><name>GRA07</name><description>240607 PORT GRA (Metro. Nord)
posicio de les: 05/08/2018 03:34:07</description><styleUrl>#w_verdP</styleUrl><Point><coordinates>2.2746205329895,41.5908586978912,0</coordinates></Point></Placemark>
<Placemark><name>MOL03</name><description>241003 PORT MOL (Metro. Nord)
posicio de les: 05/08/2018 03:30:48</description><styleUrl>#w_verdP</styleUrl><Point><coordinates>2.20148205757141,41.5372145175934,0</coordinates></Point></Placemark>
<Placemark><name>MFI01</name><description>241101 PORT MFI (Metro. Nord)
posicio de les: 05/08/2018 03:31:02</description><styleUrl>#w_verdP</styleUrl><Point><coordinates>2.27278590202332,41.7175555229187,0</coordinates></Point></Placemark>
<Placemark><name>SAB01</name><description>241401 PORT SAB (Metro. Nord)
posicio de les: 05/08/2018 03:35:24</description><styleUrl>#w_verdP</styleUrl><Point><coordinates>2.10435390472412,41.5425682067871,0</coordinates></Point></Placemark>
<Placemark><name>SAB06</name><description>241406 PORT SAB (Metro. Nord)
posicio de les: 05/08/2018 03:35:02</description><styleUrl>#w_verdP</styleUrl><Point><coordinates>2.10447192192078,41.5424180030823,0</coordinates></Point></Placemark>
<Placemark><name>SAB56</name><description>241456 PORT.COM SAB (Metro. Nord)
posicio de les: 05/08/2018 03:33:54</description><styleUrl>#w_verdP</styleUrl><Point><coordinates>2.1044397354126,41.5423965454102,0</coordinates></Point></Placemark>
<Placemark><name>SCE08</name><description>241608 PORT SCE (Metro. Nord)
posicio de les: 05/08/2018 03:33:42</description><styleUrl>#w_verdP</styleUrl><Point><coordinates>2.5069534778595,41.6951107978821,0</coordinates></Point></Placemark>
<Placemark><name>SCG07</name><description>241807 PORT SCG (Metro. Nord)
posicio de les: 05/08/2018 03:34:34</description><styleUrl>#w_verdP</styleUrl><Point><coordinates>2.20917463302612,41.4631855487823,0</coordinates></Point></Placemark>
<Placemark><name>TER56</name><description>242056 PORT.COM TER (Metro. Nord)
posicio de les: 05/08/2018 03:34:04</description><styleUrl>#w_verdP</styleUrl><Point><coordinates>2.02722430229187,41.5678131580353,0</coordinates></Point></Placemark>
<Placemark><name>GE00REMS</name><description>250015 P.Tec REGIÓ
posicio de les: 05/08/2018 03:30:18</description><styleUrl>#w_verdP</styleUrl><Point><coordinates>2.10716485977173,41.3702845573425,0</coordinates></Point></Placemark>
<Placemark><name>50093</name><description>250093  REGIÓ
posicio de les: 05/08/2018 03:36:06</description><styleUrl>#w_groc</styleUrl><Point><coordinates>2.10622072219849,41.3702523708344,0</coordinates></Point></Placemark>
<Placemark><name>COR07</name><description>250407 PORT COR (Metro. Sud)
posicio de les: 05/08/2018 03:33:04</description><styleUrl>#w_verdP</styleUrl><Point><coordinates>1.9736123085022,41.336145401001,0</coordinates></Point></Placemark>
<Placemark><name>50490</name><description>250490 UPC COR (Metro. Sud)
posicio de les: 05/08/2018 03:32:41</description><styleUrl>#w_groc</styleUrl><Point><coordinates>2.07046151161194,41.3616371154785,0</coordinates></Point></Placemark>
<Placemark><name>GAV56</name><description>250556 PORT.COM GAV (Metro. Sud)
posicio de les: 05/08/2018 03:34:45</description><styleUrl>#w_verdP</styleUrl><Point><coordinates>1.99004888534546,41.3001501560211,0</coordinates></Point></Placemark>
<Placemark><name>HOS06</name><description>250706 PORT HOS (Metro. Sud)
posicio de les: 05/08/2018 03:33:19</description><styleUrl>#w_grocP</styleUrl><Point><coordinates>2.10572719573975,41.3701128959656,0</coordinates></Point></Placemark>
<Placemark><name>50790</name><description>250790 UPC HOS (Metro. Sud)
posicio de les: 05/08/2018 03:32:13</description><styleUrl>#w_verd</styleUrl><Point><coordinates>2.10535168647766,41.3703489303589,0</coordinates></Point></Placemark>
<Placemark><name>MAR57</name><description>251057 PORT.COM MAR (Metro. Sud)
posicio de les: 05/08/2018 03:35:02</description><styleUrl>#w_verdP</styleUrl><Point><coordinates>1.90782308578491,41.4990198612213,0</coordinates></Point></Placemark>
<Placemark><name>SBOI57</name><description>251357 PORT.COM SBOI (Metro. Sud)
posicio de les: 05/08/2018 03:36:06</description><styleUrl>#w_verdP</styleUrl><Point><coordinates>2.03463792800903,41.3229274749756,0</coordinates></Point></Placemark>
<Placemark><name>GE600</name><description>260017 P.Tec REGIÓ
posicio de les: 05/08/2018 03:35:40</description><styleUrl>#w_verdP</styleUrl><Point><coordinates>1.18498921394348,41.1343574523926,0</coordinates></Point></Placemark>
<Placemark><name>FALS06</name><description>260406 PORT FALS (Tarragona)
posicio de les: 05/08/2018 03:33:54</description><styleUrl>#w_verdP</styleUrl><Point><coordinates>0.823534727096558,41.1474788188934,0</coordinates></Point></Placemark>
<Placemark><name>260508</name><description>260508 PORT HOSP (Tarragona)
posicio de les: 05/08/2018 03:34:50</description><styleUrl>#w_grocP</styleUrl><Point><coordinates>0.919826030731201,40.993595123291,0</coordinates></Point></Placemark>
<Placemark><name>REUS06</name><description>260806 PORT REUS (Tarragona)
posicio de les: 05/08/2018 03:35:10</description><styleUrl>#w_grocP</styleUrl><Point><coordinates>1.11854553222656,41.1509013175964,0</coordinates></Point></Placemark>
<Placemark><name>REUS56</name><description>260856 PORT.COM REUS (Tarragona)
posicio de les: 05/08/2018 03:35:13</description><styleUrl>#w_verdP</styleUrl><Point><coordinates>1.14078640937805,41.1733675003052,0</coordinates></Point></Placemark>
<Placemark><name>E00RETE</name><description>270014 P.Tec REGIÓ
posicio de les: 05/08/2018 03:34:49</description><styleUrl>#w_verdP</styleUrl><Point><coordinates>0.513331890106201,40.8191871643066,0</coordinates></Point></Placemark>
<Placemark><name>AMET06</name><description>272006 PORT AMET (Terres de l'Ebre)
posicio de les: 05/08/2018 03:33:46</description><styleUrl>#w_verdP</styleUrl><Point><coordinates>0.797367095947266,40.8902871608734,0</coordinates></Point></Placemark>
<Placemark><name>GAND56</name><description>272656 PORT.COM GAND (Terres de l'Ebre)
posicio de les: 05/08/2018 03:35:18</description><styleUrl>#w_grocP</styleUrl><Point><coordinates>0.439292192459106,41.0587513446808,0</coordinates></Point></Placemark>
<Placemark><name>E_93</name><description>278031  SERVEIS REGIÓ
posicio de les: 05/08/2018 03:35:37</description><styleUrl>#w_verd</styleUrl><Point><coordinates>0.513396263122559,40.8193266391754,0</coordinates></Point></Placemark>
</Folder>
<Folder>
<name>Descarregues</name>
</Folder>
<Style id="w_verdP_n"><IconStyle><color>ff00ff00</color><scale>1.0</scale><Icon><href>http://maps.google.com/mapfiles/kml/shapes/man.png</href></Icon><hotSpot x="0.5" y="0" xunits="fraction" yunits="fraction"/></IconStyle><LabelStyle><scale>0.7</scale></LabelStyle></Style>
<Style id="w_verdP_s"><IconStyle><color>ff00ff00</color><scale>1.4</scale><Icon><href>http://maps.google.com/mapfiles/kml/shapes/man.png</href></Icon><hotSpot x="0.5" y="0" xunits="fraction" yunits="fraction"/></IconStyle><LabelStyle><scale>0.7</scale></LabelStyle></Style>
<StyleMap id="w_verdP"><Pair><key>normal</key><styleUrl>#w_verdP_n</styleUrl></Pair><Pair><key>highlight</key><styleUrl>#w_verdP_s</styleUrl></Pair></StyleMap>
<Style id="w_verd_n"><IconStyle><color>ff00ff00</color><scale>0.7</scale><Icon><href>http://maps.google.com/mapfiles/kml/shapes/cabs.png</href></Icon><hotSpot x="0.5" y="0" xunits="fraction" yunits="fraction"/></IconStyle><LabelStyle><scale>0.7</scale></LabelStyle></Style>
<Style id="w_verd_s"><IconStyle><color>ff00ff00</color><scale>1.0</scale><Icon><href>http://maps.google.com/mapfiles/kml/shapes/cabs.png</href></Icon><hotSpot x="0.5" y="0" xunits="fraction" yunits="fraction"/></IconStyle><LabelStyle><scale>0.7</scale></LabelStyle></Style>
<StyleMap id="w_verd"><Pair><key>normal</key><styleUrl>#w_verd_n</styleUrl></Pair><Pair><key>highlight</key><styleUrl>#w_verd_s</styleUrl></Pair></StyleMap>
<Style id="w_verdC_n"><IconStyle><color>ff00ff00</color><scale>1.0</scale><Icon><href>http://maps.google.com/mapfiles/kml/shapes/truck.png</href></Icon><hotSpot x="0.5" y="0" xunits="fraction" yunits="fraction"/></IconStyle><LabelStyle><scale>0.7</scale></LabelStyle></Style>
<Style id="w_verdC_s"><IconStyle><color>ff00ff00</color><scale>1.4</scale><Icon><href>http://maps.google.com/mapfiles/kml/shapes/truck.png</href></Icon><hotSpot x="0.5" y="0" xunits="fraction" yunits="fraction"/></IconStyle><LabelStyle><scale>0.7</scale></LabelStyle></Style>
<StyleMap id="w_verdC"><Pair><key>normal</key><styleUrl>#w_verdC_n</styleUrl></Pair><Pair><key>highlight</key><styleUrl>#w_verdC_s</styleUrl></Pair></StyleMap>
<Style id="w_verdH_n"><IconStyle><color>ff0000ff</color><scale>1.2</scale><Icon><href>http://maps.google.com/mapfiles/kml/shapes/heliport.png</href></Icon><hotSpot x="0.5" y="0" xunits="fraction" yunits="fraction"/></IconStyle><LabelStyle><scale>0.7</scale></LabelStyle></Style>
<Style id="w_verdH_s"><IconStyle><color>ff0000ff</color><scale>1.4</scale><Icon><href>http://maps.google.com/mapfiles/kml/shapes/heliport.png</href></Icon><hotSpot x="0.5" y="0" xunits="fraction" yunits="fraction"/></IconStyle><LabelStyle><scale>0.7</scale></LabelStyle></Style>
<StyleMap id="w_verdH"><Pair><key>normal</key><styleUrl>#w_verdH_n</styleUrl></Pair><Pair><key>highlight</key><styleUrl>#w_verdH_s</styleUrl></Pair></StyleMap>
<Style id="w_verdA_n"><IconStyle><color>ff0000ff</color><scale>1.2</scale><Icon><href>http://maps.google.com/mapfiles/kml/shapes/airports.png</href></Icon><hotSpot x="0.5" y="0" xunits="fraction" yunits="fraction"/></IconStyle><LabelStyle><scale>0.7</scale></LabelStyle></Style>
<Style id="w_verdA_s"><IconStyle><color>ff0000ff</color><scale>1.4</scale><Icon><href>http://maps.google.com/mapfiles/kml/shapes/airports.png</href></Icon><hotSpot x="0.5" y="0" xunits="fraction" yunits="fraction"/></IconStyle><LabelStyle><scale>0.7</scale></LabelStyle></Style>
<StyleMap id="w_verdA"><Pair><key>normal</key><styleUrl>#w_verdA_n</styleUrl></Pair><Pair><key>highlight</key><styleUrl>#w_verdA_s</styleUrl></Pair></StyleMap>
<Style id="w_verdB_n"><IconStyle><color>ff00ff00</color><scale>1.0</scale><Icon><href>http://maps.google.com/mapfiles/kml/shapes/sailing.png</href></Icon><hotSpot x="0.5" y="0" xunits="fraction" yunits="fraction"/></IconStyle><LabelStyle><scale>0.7</scale></LabelStyle></Style>
<Style id="w_verdB_s"><IconStyle><color>ff00ff00</color><scale>1.4</scale><Icon><href>http://maps.google.com/mapfiles/kml/shapes/sailing.png</href></Icon><hotSpot x="0.5" y="0" xunits="fraction" yunits="fraction"/></IconStyle><LabelStyle><scale>0.7</scale></LabelStyle></Style>
<StyleMap id="w_verdB"><Pair><key>normal</key><styleUrl>#w_verdBAR_n</styleUrl></Pair><Pair><key>highlight</key><styleUrl>#w_verdBAR_s</styleUrl></Pair></StyleMap>
<Style id="w_grocP_n"><IconStyle><color>ff00ffff</color><scale>1.0</scale><Icon><href>http://maps.google.com/mapfiles/kml/shapes/man.png</href></Icon><hotSpot x="0.5" y="0" xunits="fraction" yunits="fraction"/></IconStyle><LabelStyle><scale>0.7</scale></LabelStyle></Style>
<Style id="w_grocP_s"><IconStyle><color>ff00ffff</color><scale>1.4</scale><Icon><href>http://maps.google.com/mapfiles/kml/shapes/man.png</href></Icon><hotSpot x="0.5" y="0" xunits="fraction" yunits="fraction"/></IconStyle><LabelStyle><scale>0.7</scale></LabelStyle></Style>
<StyleMap id="w_grocP"><Pair><key>normal</key><styleUrl>#w_grocP_n</styleUrl></Pair><Pair><key>highlight</key><styleUrl>#w_grocP_s</styleUrl></Pair></StyleMap>
<Style id="w_groc_n"><IconStyle><color>ff00ffff</color><scale>0.7</scale><Icon><href>http://maps.google.com/mapfiles/kml/shapes/cabs.png</href></Icon><hotSpot x="0.5" y="0" xunits="fraction" yunits="fraction"/></IconStyle><LabelStyle><scale>0.7</scale></LabelStyle></Style>
<Style id="w_groc_s"><IconStyle><color>ff00ffff</color><scale>1.0</scale><Icon><href>http://maps.google.com/mapfiles/kml/shapes/cabs.png</href></Icon><hotSpot x="0.5" y="0" xunits="fraction" yunits="fraction"/></IconStyle><LabelStyle><scale>0.7</scale></LabelStyle></Style>
<StyleMap id="w_groc"><Pair><key>normal</key><styleUrl>#w_groc_n</styleUrl></Pair><Pair><key>highlight</key><styleUrl>#w_groc_s</styleUrl></Pair></StyleMap>
<Style id="w_grocC_n"><IconStyle><color>ff00ffff</color><scale>1.0</scale><Icon><href>http://maps.google.com/mapfiles/kml/shapes/truck.png</href></Icon><hotSpot x="0.5" y="0" xunits="fraction" yunits="fraction"/></IconStyle><LabelStyle><scale>0.7</scale></LabelStyle></Style>
<Style id="w_grocC_s"><IconStyle><color>ff00ffff</color><scale>1.4</scale><Icon><href>http://maps.google.com/mapfiles/kml/shapes/truck.png</href></Icon><hotSpot x="0.5" y="0" xunits="fraction" yunits="fraction"/></IconStyle><LabelStyle><scale>0.7</scale></LabelStyle></Style>
<StyleMap id="w_grocC"><Pair><key>normal</key><styleUrl>#w_grocC_n</styleUrl></Pair><Pair><key>highlight</key><styleUrl>#w_grocC_s</styleUrl></Pair></StyleMap>
<Style id="w_grocH_n"><IconStyle><color>ff0000ff</color><scale>1.2</scale><Icon><href>http://maps.google.com/mapfiles/kml/shapes/heliport.png</href></Icon><hotSpot x="0.5" y="0" xunits="fraction" yunits="fraction"/></IconStyle><LabelStyle><scale>0.7</scale></LabelStyle></Style>
<Style id="w_grocH_s"><IconStyle><color>ff0000ff</color><scale>1.4</scale><Icon><href>http://maps.google.com/mapfiles/kml/shapes/heliport.png</href></Icon><hotSpot x="0.5" y="0" xunits="fraction" yunits="fraction"/></IconStyle><LabelStyle><scale>0.7</scale></LabelStyle></Style>
<StyleMap id="w_grocH"><Pair><key>normal</key><styleUrl>#w_grocH_n</styleUrl></Pair><Pair><key>highlight</key><styleUrl>#w_grocH_s</styleUrl></Pair></StyleMap>
<Style id="w_grocA_n"><IconStyle><color>ff0000ff</color><scale>1.2</scale><Icon><href>http://maps.google.com/mapfiles/kml/shapes/airports.png</href></Icon><hotSpot x="0.5" y="0" xunits="fraction" yunits="fraction"/></IconStyle><LabelStyle><scale>0.7</scale></LabelStyle></Style>
<Style id="w_grocA_s"><IconStyle><color>ff0000ff</color><scale>1.4</scale><Icon><href>http://maps.google.com/mapfiles/kml/shapes/airports.png</href></Icon><hotSpot x="0.5" y="0" xunits="fraction" yunits="fraction"/></IconStyle><LabelStyle><scale>0.7</scale></LabelStyle></Style>
<StyleMap id="w_grocA"><Pair><key>normal</key><styleUrl>#w_grocA_n</styleUrl></Pair><Pair><key>highlight</key><styleUrl>#w_grocA_s</styleUrl></Pair></StyleMap>
<Style id="w_grocB_n"><IconStyle><color>ff00ffff</color><scale>1.0</scale><Icon><href>http://maps.google.com/mapfiles/kml/shapes/sailing.png</href></Icon><hotSpot x="0.5" y="0" xunits="fraction" yunits="fraction"/></IconStyle><LabelStyle><scale>0.7</scale></LabelStyle></Style>
<Style id="w_grocB_s"><IconStyle><color>ff00ffff</color><scale>1.4</scale><Icon><href>http://maps.google.com/mapfiles/kml/shapes/sailing.png</href></Icon><hotSpot x="0.5" y="0" xunits="fraction" yunits="fraction"/></IconStyle><LabelStyle><scale>0.7</scale></LabelStyle></Style>
<StyleMap id="w_grocB"><Pair><key>normal</key><styleUrl>#w_grocBAR_n</styleUrl></Pair><Pair><key>highlight</key><styleUrl>#w_grocBAR_s</styleUrl></Pair></StyleMap>
<Style id="w_vermellP_n"><IconStyle><color>ff0000ff</color><scale>1.0</scale><Icon><href>http://maps.google.com/mapfiles/kml/shapes/man.png</href></Icon><hotSpot x="0.5" y="0" xunits="fraction" yunits="fraction"/></IconStyle><LabelStyle><scale>0.7</scale></LabelStyle></Style>
<Style id="w_vermellP_s"><IconStyle><color>ff0000ff</color><scale>1.4</scale><Icon><href>http://maps.google.com/mapfiles/kml/shapes/man.png</href></Icon><hotSpot x="0.5" y="0" xunits="fraction" yunits="fraction"/></IconStyle><LabelStyle><scale>0.7</scale></LabelStyle></Style>
<StyleMap id="w_vermellP"><Pair><key>normal</key><styleUrl>#w_vermellP_n</styleUrl></Pair><Pair><key>highlight</key><styleUrl>#w_vermellP_s</styleUrl></Pair></StyleMap>
<Style id="w_vermell_n"><IconStyle><color>ff0000ff</color><scale>0.7</scale><Icon><href>http://maps.google.com/mapfiles/kml/shapes/cabs.png</href></Icon><hotSpot x="0.5" y="0" xunits="fraction" yunits="fraction"/></IconStyle><LabelStyle><scale>0.7</scale></LabelStyle></Style>
<Style id="w_vermell_s"><IconStyle><color>ff0000ff</color><scale>1.0</scale><Icon><href>http://maps.google.com/mapfiles/kml/shapes/cabs.png</href></Icon><hotSpot x="0.5" y="0" xunits="fraction" yunits="fraction"/></IconStyle><LabelStyle><scale>0.7</scale></LabelStyle></Style>
<StyleMap id="w_vermell"><Pair><key>normal</key><styleUrl>#w_vermell_n</styleUrl></Pair><Pair><key>highlight</key><styleUrl>#w_vermell_s</styleUrl></Pair></StyleMap>
<Style id="w_vermellC_n"><IconStyle><color>ff0000ff</color><scale>1.0</scale><Icon><href>http://maps.google.com/mapfiles/kml/shapes/truck.png</href></Icon><hotSpot x="0.5" y="0" xunits="fraction" yunits="fraction"/></IconStyle><LabelStyle><scale>0.7</scale></LabelStyle></Style>
<Style id="w_vermellC_s"><IconStyle><color>ff0000ff</color><scale>1.4</scale><Icon><href>http://maps.google.com/mapfiles/kml/shapes/truck.png</href></Icon><hotSpot x="0.5" y="0" xunits="fraction" yunits="fraction"/></IconStyle><LabelStyle><scale>0.7</scale></LabelStyle></Style>
<StyleMap id="w_vermellC"><Pair><key>normal</key><styleUrl>#w_vermellC_n</styleUrl></Pair><Pair><key>highlight</key><styleUrl>#w_vermellC_s</styleUrl></Pair></StyleMap>
<Style id="w_vermellH_n"><IconStyle><color>ff0000ff</color><scale>1.2</scale><Icon><href>http://maps.google.com/mapfiles/kml/shapes/heliport.png</href></Icon><hotSpot x="0.5" y="0" xunits="fraction" yunits="fraction"/></IconStyle><LabelStyle><scale>0.7</scale></LabelStyle></Style>
<Style id="w_vermellH_s"><IconStyle><color>ff0000ff</color><scale>1.4</scale><Icon><href>http://maps.google.com/mapfiles/kml/shapes/heliport.png</href></Icon><hotSpot x="0.5" y="0" xunits="fraction" yunits="fraction"/></IconStyle><LabelStyle><scale>0.7</scale></LabelStyle></Style>
<StyleMap id="w_vermellH"><Pair><key>normal</key><styleUrl>#w_vermellH_n</styleUrl></Pair><Pair><key>highlight</key><styleUrl>#w_vermellH_s</styleUrl></Pair></StyleMap>
<Style id="w_vermellA_n"><IconStyle><color>ff0000ff</color><scale>1.2</scale><Icon><href>http://maps.google.com/mapfiles/kml/shapes/airports.png</href></Icon><hotSpot x="0.5" y="0" xunits="fraction" yunits="fraction"/></IconStyle><LabelStyle><scale>0.7</scale></LabelStyle></Style>
<Style id="w_vermellA_s"><IconStyle><color>ff0000ff</color><scale>1.4</scale><Icon><href>http://maps.google.com/mapfiles/kml/shapes/airports.png</href></Icon><hotSpot x="0.5" y="0" xunits="fraction" yunits="fraction"/></IconStyle><LabelStyle><scale>0.7</scale></LabelStyle></Style>
<StyleMap id="w_vermellA"><Pair><key>normal</key><styleUrl>#w_vermellA_n</styleUrl></Pair><Pair><key>highlight</key><styleUrl>#w_vermellA_s</styleUrl></Pair></StyleMap>
<Style id="w_vermellB_n"><IconStyle><color>ff0000ff</color><scale>1.0</scale><Icon><href>http://maps.google.com/mapfiles/kml/shapes/sailing.png</href></Icon><hotSpot x="0.5" y="0" xunits="fraction" yunits="fraction"/></IconStyle><LabelStyle><scale>0.7</scale></LabelStyle></Style>
<Style id="w_vermellB_s"><IconStyle><color>ff0000ff</color><scale>1.4</scale><Icon><href>http://maps.google.com/mapfiles/kml/shapes/sailing.png</href></Icon><hotSpot x="0.5" y="0" xunits="fraction" yunits="fraction"/></IconStyle><LabelStyle><scale>0.7</scale></LabelStyle></Style>
<StyleMap id="w_vermellB"><Pair><key>normal</key><styleUrl>#w_vermellBAR_n</styleUrl></Pair><Pair><key>highlight</key><styleUrl>#w_vermellBAR_s</styleUrl></Pair></StyleMap>
<Style id="w_descarrega"><IconStyle><color>ff00ffff</color><scale>0.5</scale><Icon><href>http://maps.google.com/mapfiles/kml/shapes/road_shield3.png</href></Icon></IconStyle><LabelStyle><scale>0.7</scale></LabelStyle></Style><Style id="actuacio"><IconStyle><color>ff00ffff</color><scale>0.8</scale><Icon><href>http://maps.google.com/mapfiles/kml/shapes/caution.png</href></Icon></IconStyle><LabelStyle><scale>0.7</scale></LabelStyle></Style></Document></kml>