<?xml version="1.0" encoding="UTF-8"?>
<kml xmlns="http://www.opengis.net/kml/2.2" xmlns:gx="http://www.google.com/kml/ext/2.2" xmlns:kml="http://www.opengis.net/kml/2.2" xmlns:atom="http://www.w3.org/2005/Atom">
<Document>
<name>Terminals</name>
<Snippet maxLines="2">Created 04/08/2018 04:28:40</Snippet>
<Folder>
<name>Terminals</name>
<Placemark><name>OP05081</name><description>205281 OP.AAV
posicio de les: 04/08/2018 04:28:30</description><styleUrl>#w_verdP</styleUrl><Point><coordinates>2.10338830947876,41.5148985385895,0</coordinates></Point></Placemark>
<Placemark><name>VIEL12</name><description>208012 P.PT VARAN
posicio de les: 04/08/2018 04:26:50</description><styleUrl>#w_grocP</styleUrl><Point><coordinates>0.801218748092651,42.6994585990906,0</coordinates></Point></Placemark>
<Placemark><name>VIEL17</name><description>208017 BASE CCA VARAN
posicio de les: 04/08/2018 04:28:27</description><styleUrl>#w_verd</styleUrl><Point><coordinates>0.796605348587036,42.707998752594,0</coordinates></Point></Placemark>
<Placemark><name>211130</name><description>211130 BRP MOI (Centre)
posicio de les: 04/08/2018 04:27:04</description><styleUrl>#w_verdC</styleUrl><Point><coordinates>2.08636164665222,41.8117332458496,0</coordinates></Point></Placemark>
<Placemark><name>PRA07</name><description>211407 PORT PRA (Centre)
posicio de les: 04/08/2018 04:27:29</description><styleUrl>#w_verdP</styleUrl><Point><coordinates>2.03657984733582,42.0083606243134,0</coordinates></Point></Placemark>
<Placemark><name>SOLS05</name><description>211905 PORT SOLS (Centre)
posicio de les: 04/08/2018 04:27:34</description><styleUrl>#w_grocP</styleUrl><Point><coordinates>1.5125298500061,41.9896709918976,0</coordinates></Point></Placemark>
<Placemark><name>VIC04</name><description>212104 PORT VIC (Centre)
posicio de les: 04/08/2018 04:26:57</description><styleUrl>#w_verdP</styleUrl><Point><coordinates>2.26947069168091,41.9418847560883,0</coordinates></Point></Placemark>
<Placemark><name>20091</name><description>220091  REGIÓ
posicio de les: 04/08/2018 04:24:59</description><styleUrl>#w_groc</styleUrl><Point><coordinates>2.80635237693787,41.9604671001434,0</coordinates></Point></Placemark>
<Placemark><name>20134</name><description>220134 BFP AMER (Girona)
posicio de les: 04/08/2018 04:27:56</description><styleUrl>#w_grocC</styleUrl><Point><coordinates>3.15335512161255,42.3576486110687,0</coordinates></Point></Placemark>
<Placemark><name>BANY56</name><description>220356 PORT.COM BANY (Girona)
posicio de les: 04/08/2018 04:25:38</description><styleUrl>#w_grocP</styleUrl><Point><coordinates>2.78599977493286,42.1176338195801,0</coordinates></Point></Placemark>
<Placemark><name>220656</name><description>220656 PORT.COM CALO (Girona)
posicio de les: 04/08/2018 04:26:29</description><styleUrl>#w_verdP</styleUrl><Point><coordinates>3.07458400726318,41.8526315689087,0</coordinates></Point></Placemark>
<Placemark><name>CASS04</name><description>220804 PORT CASS (Girona)
posicio de les: 04/08/2018 04:22:41</description><styleUrl>#w_verdP</styleUrl><Point><coordinates>2.883460521698,41.8796575069427,0</coordinates></Point></Placemark>
<Placemark><name>20830</name><description>220830 BRP CASS (Girona)
posicio de les: 04/08/2018 04:27:32</description><styleUrl>#w_verdC</styleUrl><Point><coordinates>2.88296699523926,41.8799686431885,0</coordinates></Point></Placemark>
<Placemark><name>CASS56</name><description>220856 PORT.COM CASS (Girona)
posicio de les: 04/08/2018 04:27:50</description><styleUrl>#w_grocP</styleUrl><Point><coordinates>2.88403987884521,41.8796575069427,0</coordinates></Point></Placemark>
<Placemark><name>GIRO06</name><description>221106 PORT GIRO (Girona)
posicio de les: 04/08/2018 04:24:47</description><styleUrl>#w_verdP</styleUrl><Point><coordinates>2.80447483062744,41.9597053527832,0</coordinates></Point></Placemark>
<Placemark><name>JONQ56</name><description>221356 PORT.COM JONQ (Girona)
posicio de les: 04/08/2018 04:28:05</description><styleUrl>#w_verdP</styleUrl><Point><coordinates>2.87647604942322,42.4123227596283,0</coordinates></Point></Placemark>
<Placemark><name>LLAN57</name><description>221457 PORT.COM LLAN (Girona)
posicio de les: 04/08/2018 04:28:12</description><styleUrl>#w_verdP</styleUrl><Point><coordinates>3.15323710441589,42.3576056957245,0</coordinates></Point></Placemark>
<Placemark><name>LLOR56</name><description>221556 PORT.COM LLOR (Girona)
posicio de les: 04/08/2018 04:28:27</description><styleUrl>#w_verdP</styleUrl><Point><coordinates>2.8355348110199,41.6998207569122,0</coordinates></Point></Placemark>
<Placemark><name>MAÇA57</name><description>221657 PORT.COM MACA (Girona)
posicio de les: 04/08/2018 04:27:27</description><styleUrl>#w_grocP</styleUrl><Point><coordinates>2.75290131568909,41.7792892456055,0</coordinates></Point></Placemark>
<Placemark><name>OLOT01</name><description>221701 PORT OLOT (Girona)
posicio de les: 04/08/2018 04:27:42</description><styleUrl>#w_verdP</styleUrl><Point><coordinates>3.16088676452637,42.2764205932617,0</coordinates></Point></Placemark>
<Placemark><name>OLOT56</name><description>221756 PORT.COM OLOT (Girona)
posicio de les: 04/08/2018 04:26:22</description><styleUrl>#w_verdP</styleUrl><Point><coordinates>2.47474551200867,42.1899569034576,0</coordinates></Point></Placemark>
<Placemark><name>OLOT57</name><description>221757 PORT.COM OLOT (Girona)
posicio de les: 04/08/2018 04:25:56</description><styleUrl>#w_verdP</styleUrl><Point><coordinates>2.47476696968079,42.1890449523926,0</coordinates></Point></Placemark>
<Placemark><name>PALA56</name><description>221856 PORT.COM PALA (Girona)
posicio de les: 04/08/2018 04:28:37</description><styleUrl>#w_grocP</styleUrl><Point><coordinates>3.15620899200439,41.9258236885071,0</coordinates></Point></Placemark>
<Placemark><name>RIPO56</name><description>222156 PORT.COM RIPO (Girona)
posicio de les: 04/08/2018 04:27:26</description><styleUrl>#w_verdP</styleUrl><Point><coordinates>2.1683406829834,42.2149550914764,0</coordinates></Point></Placemark>
<Placemark><name>ROSE57</name><description>222257 PORT.COM ROSE (Girona)
posicio de les: 04/08/2018 04:26:59</description><styleUrl>#w_grocP</styleUrl><Point><coordinates>3.16105842590332,42.276109457016,0</coordinates></Point></Placemark>
<Placemark><name>22430</name><description>222430 BRP SHIL (Girona)
posicio de les: 04/08/2018 04:24:36</description><styleUrl>#w_grocC</styleUrl><Point><coordinates>3.03188323974609,41.808750629425,0</coordinates></Point></Placemark>
<Placemark><name>VALL57</name><description>222857 PORT.COM VALL (Girona)
posicio de les: 04/08/2018 04:27:18</description><styleUrl>#w_verdP</styleUrl><Point><coordinates>3.03163647651672,41.8087720870972,0</coordinates></Point></Placemark>
<Placemark><name>22890</name><description>222890 UPC VALL (Girona)
posicio de les: 04/08/2018 04:28:16</description><styleUrl>#w_verd</styleUrl><Point><coordinates>3.03256988525391,41.8091154098511,0</coordinates></Point></Placemark>
<Placemark><name>D0REL</name><description>230010 P.CG REGIÓ
posicio de les: 04/08/2018 04:26:06</description><styleUrl>#w_verdP</styleUrl><Point><coordinates>0.604977607727051,41.6239249706268,0</coordinates></Point></Placemark>
<Placemark><name>30082</name><description>230082  REGIÓ
posicio de les: 04/08/2018 04:25:45</description><styleUrl>#w_groc</styleUrl><Point><coordinates>0.805574655532837,41.7995238304138,0</coordinates></Point></Placemark>
<Placemark><name>BALA57</name><description>230657 PORT.COM BALA (Lleida)
posicio de les: 04/08/2018 04:28:41</description><styleUrl>#w_grocP</styleUrl><Point><coordinates>0.805724859237671,41.7990946769714,0</coordinates></Point></Placemark>
<Placemark><name>BORG01</name><description>230701 PORT BORG (Lleida)
posicio de les: 04/08/2018 04:27:05</description><styleUrl>#w_verdP</styleUrl><Point><coordinates>0.844606161117554,41.5068411827087,0</coordinates></Point></Placemark>
<Placemark><name>BORG06</name><description>230706 PORT BORG (Lleida)
posicio de les: 04/08/2018 04:27:31</description><styleUrl>#w_grocP</styleUrl><Point><coordinates>0.844649076461792,41.5068519115448,0</coordinates></Point></Placemark>
<Placemark><name>BORG56</name><description>230756 PORT.COM BORG (Lleida)
posicio de les: 04/08/2018 04:28:43</description><styleUrl>#w_verdP</styleUrl><Point><coordinates>0.844788551330566,41.5067553520203,0</coordinates></Point></Placemark>
<Placemark><name>CERV08</name><description>230908 PORT CERV (Lleida)
posicio de les: 04/08/2018 04:24:10</description><styleUrl>#w_verdP</styleUrl><Point><coordinates>1.26395344734192,41.6719257831573,0</coordinates></Point></Placemark>
<Placemark><name>ISON56</name><description>231556 PORT.COM ISON (Lleida)
posicio de les: 04/08/2018 04:28:15</description><styleUrl>#w_verdP</styleUrl><Point><coordinates>1.04911923408508,42.119232416153,0</coordinates></Point></Placemark>
<Placemark><name>MOLL07</name><description>232007 PORT MOLL (Lleida)
posicio de les: 04/08/2018 04:27:44</description><styleUrl>#w_verdP</styleUrl><Point><coordinates>0.89838981628418,41.6364240646362,0</coordinates></Point></Placemark>
<Placemark><name>32031</name><description>232031 BRP MOLL (Lleida)
posicio de les: 04/08/2018 04:24:52</description><styleUrl>#w_grocC</styleUrl><Point><coordinates>0.897896289825439,41.6370356082916,0</coordinates></Point></Placemark>
<Placemark><name>POBL01</name><description>232401 PORT POBL (Lleida)
posicio de les: 04/08/2018 04:27:19</description><styleUrl>#w_verdP</styleUrl><Point><coordinates>0.96429705619812,42.2389018535614,0</coordinates></Point></Placemark>
<Placemark><name>REMN11</name><description>240011 P.Tec REGIÓ
posicio de les: 04/08/2018 04:28:30</description><styleUrl>#w_verdP</styleUrl><Point><coordinates>2.11168169975281,41.5020132064819,0</coordinates></Point></Placemark>
<Placemark><name>40081</name><description>240081  REGIÓ
posicio de les: 04/08/2018 04:26:53</description><styleUrl>#w_groc</styleUrl><Point><coordinates>2.11236834526062,41.5022492408752,0</coordinates></Point></Placemark>
<Placemark><name>40091</name><description>240091  REGIÓ
posicio de les: 04/08/2018 04:27:59</description><styleUrl>#w_verd</styleUrl><Point><coordinates>2.11168169975281,41.5026247501373,0</coordinates></Point></Placemark>
<Placemark><name>40093</name><description>240093  REGIÓ
posicio de les: 04/08/2018 04:28:41</description><styleUrl>#w_verd</styleUrl><Point><coordinates>2.21246838569641,41.5246403217316,0</coordinates></Point></Placemark>
<Placemark><name>40148</name><description>240148 BUL ARE (Metro. Nord)
posicio de les: 04/08/2018 04:25:01</description><styleUrl>#w_verdC</styleUrl><Point><coordinates>2.53904342651367,41.5795612335205,0</coordinates></Point></Placemark>
<Placemark><name>40290</name><description>240290 UPC BAD (Metro. Nord)
posicio de les: 04/08/2018 04:27:28</description><styleUrl>#w_groc</styleUrl><Point><coordinates>2.20892786979675,41.4632713794708,0</coordinates></Point></Placemark>
<Placemark><name>CER06</name><description>240506 PORT CER (Metro. Nord)
posicio de les: 04/08/2018 04:23:12</description><styleUrl>#w_verdP</styleUrl><Point><coordinates>2.11153149604797,41.5025389194489,0</coordinates></Point></Placemark>
<Placemark><name>40690</name><description>240690 UPC GRA (Metro. Nord)
posicio de les: 04/08/2018 04:28:36</description><styleUrl>#w_groc</styleUrl><Point><coordinates>2.42250680923462,41.5320110321045,0</coordinates></Point></Placemark>
<Placemark><name>MAT07</name><description>240907 PORT MAT (Metro. Nord)
posicio de les: 04/08/2018 04:28:01</description><styleUrl>#w_verdP</styleUrl><Point><coordinates>2.42276430130005,41.5319359302521,0</coordinates></Point></Placemark>
<Placemark><name>240950</name><description>240950 FSV/FRQ/FER/FRM/FRA/FSA MAT (Metro. Nord)
posicio de les: 04/08/2018 04:27:43</description><styleUrl>#w_verdC</styleUrl><Point><coordinates>2.42281794548035,41.5321826934814,0</coordinates></Point></Placemark>
<Placemark><name>MOL03</name><description>241003 PORT MOL (Metro. Nord)
posicio de les: 04/08/2018 04:28:24</description><styleUrl>#w_verdP</styleUrl><Point><coordinates>2.20104217529297,41.5368175506592,0</coordinates></Point></Placemark>
<Placemark><name>241040</name><description>241040 BUP MOL (Metro. Nord)
posicio de les: 04/08/2018 04:28:32</description><styleUrl>#w_verdC</styleUrl><Point><coordinates>2.22063302993774,41.5696585178375,0</coordinates></Point></Placemark>
<Placemark><name>241048</name><description>241048 BUL MOL (Metro. Nord)
posicio de les: 04/08/2018 04:26:08</description><styleUrl>#w_verdC</styleUrl><Point><coordinates>2.21768260002136,41.5696263313293,0</coordinates></Point></Placemark>
<Placemark><name>MOL56</name><description>241056 PORT.COM MOL (Metro. Nord)
posicio de les: 04/08/2018 04:28:03</description><styleUrl>#w_grocP</styleUrl><Point><coordinates>2.21753239631653,41.5695405006409,0</coordinates></Point></Placemark>
<Placemark><name>RUB01</name><description>241301 PORT RUB (Metro. Nord)
posicio de les: 04/08/2018 04:26:52</description><styleUrl>#w_verdP</styleUrl><Point><coordinates>2.0354962348938,41.4739680290222,0</coordinates></Point></Placemark>
<Placemark><name>41848</name><description>241848 BUL SCG (Metro. Nord)
posicio de les: 04/08/2018 04:24:49</description><styleUrl>#w_grocC</styleUrl><Point><coordinates>2.20914244651794,41.4632713794708,0</coordinates></Point></Placemark>
<Placemark><name>241858</name><description>241858 BSAL SCG (Metro. Nord)
posicio de les: 04/08/2018 04:28:25</description><styleUrl>#w_grocB</styleUrl><Point><coordinates>2.20934629440308,41.4633786678314,0</coordinates></Point></Placemark>
<Placemark><name>242040</name><description>242040 BUP TER (Metro. Nord)
posicio de les: 04/08/2018 04:23:45</description><styleUrl>#w_verdC</styleUrl><Point><coordinates>2.0264196395874,41.5680062770844,0</coordinates></Point></Placemark>
<Placemark><name>D3REMN</name><description>248043  SERVEIS REGIÓ
posicio de les: 04/08/2018 04:28:41</description><styleUrl>#w_groc</styleUrl><Point><coordinates>2.11238980293274,41.5023672580719,0</coordinates></Point></Placemark>
<Placemark><name>REMS14</name><description>250014 P.Tec REGIÓ
posicio de les: 04/08/2018 04:24:55</description><styleUrl>#w_verdP</styleUrl><Point><coordinates>2.03413367271423,41.3227987289429,0</coordinates></Point></Placemark>
<Placemark><name>50093</name><description>250093  REGIÓ
posicio de les: 04/08/2018 04:27:37</description><styleUrl>#w_groc</styleUrl><Point><coordinates>2.0343804359436,41.3229703903198,0</coordinates></Point></Placemark>
<Placemark><name>COR03</name><description>250403 PORT COR (Metro. Sud)
posicio de les: 04/08/2018 04:27:36</description><styleUrl>#w_verdP</styleUrl><Point><coordinates>2.06671714782715,41.3605749607086,0</coordinates></Point></Placemark>
<Placemark><name>GAV09</name><description>250509 PORT GAV (Metro. Sud)
posicio de les: 04/08/2018 04:25:54</description><styleUrl>#w_verdP</styleUrl><Point><coordinates>1.98982357978821,41.3014268875122,0</coordinates></Point></Placemark>
<Placemark><name>50530</name><description>250530 BRP GAV (Metro. Sud)
posicio de les: 04/08/2018 04:25:38</description><styleUrl>#w_grocC</styleUrl><Point><coordinates>1.99134707450867,41.3093769550323,0</coordinates></Point></Placemark>
<Placemark><name>GAV57</name><description>250557 PORT.COM GAV (Metro. Sud)
posicio de les: 04/08/2018 04:26:31</description><styleUrl>#w_grocP</styleUrl><Point><coordinates>1.99120759963989,41.3090980052948,0</coordinates></Point></Placemark>
<Placemark><name>MAR01</name><description>251001 PORT MAR (Metro. Sud)
posicio de les: 04/08/2018 04:27:59</description><styleUrl>#w_verdP</styleUrl><Point><coordinates>1.90804839134216,41.4987623691559,0</coordinates></Point></Placemark>
<Placemark><name>MAR10</name><description>251010 PORT MAR (Metro. Sud)
posicio de les: 04/08/2018 04:28:13</description><styleUrl>#w_verdP</styleUrl><Point><coordinates>1.90815567970276,41.4990735054016,0</coordinates></Point></Placemark>
<Placemark><name>251040</name><description>251040 BUP MAR (Metro. Sud)
posicio de les: 04/08/2018 04:28:22</description><styleUrl>#w_verdC</styleUrl><Point><coordinates>1.88120484352112,41.5242755413055,0</coordinates></Point></Placemark>
<Placemark><name>MAR56</name><description>251056 PORT.COM MAR (Metro. Sud)
posicio de les: 04/08/2018 04:27:49</description><styleUrl>#w_grocP</styleUrl><Point><coordinates>1.881183385849,41.5242755413055,0</coordinates></Point></Placemark>
<Placemark><name>51060</name><description>251060 AEA/AES/ABA MAR (Metro. Sud)
posicio de les: 04/08/2018 04:28:14</description><styleUrl>#w_grocC</styleUrl><Point><coordinates>1.88120484352112,41.5244364738464,0</coordinates></Point></Placemark>
<Placemark><name>SBOI02</name><description>251302 PORT SBOI (Metro. Sud)
posicio de les: 04/08/2018 04:26:51</description><styleUrl>#w_grocP</styleUrl><Point><coordinates>2.03418731689453,41.3224768638611,0</coordinates></Point></Placemark>
<Placemark><name>SFE03</name><description>251503 PORT SFE (Metro. Sud)
posicio de les: 04/08/2018 04:27:55</description><styleUrl>#w_verdP</styleUrl><Point><coordinates>2.04287767410278,41.3885235786438,0</coordinates></Point></Placemark>
<Placemark><name>VIF03</name><description>251803 PORT VIF (Metro. Sud)
posicio de les: 04/08/2018 04:27:34</description><styleUrl>#w_grocP</styleUrl><Point><coordinates>1.70420050621033,41.3544595241547,0</coordinates></Point></Placemark>
<Placemark><name>60086</name><description>260086  REGIÓ
posicio de les: 04/08/2018 04:28:44</description><styleUrl>#w_verd</styleUrl><Point><coordinates>1.13786816596985,41.2405943870544,0</coordinates></Point></Placemark>
<Placemark><name>260508</name><description>260508 PORT HOSP (Tarragona)
posicio de les: 04/08/2018 04:27:16</description><styleUrl>#w_verdP</styleUrl><Point><coordinates>0.919826030731201,40.993584394455,0</coordinates></Point></Placemark>
<Placemark><name>60848</name><description>260848 BUL REUS (Tarragona)
posicio de les: 04/08/2018 04:28:44</description><styleUrl>#w_verdC</styleUrl><Point><coordinates>1.13716006278992,41.2413668632507,0</coordinates></Point></Placemark>
<Placemark><name>TARR01</name><description>261201 PORT TARR (Tarragona)
posicio de les: 04/08/2018 04:27:30</description><styleUrl>#w_grocP</styleUrl><Point><coordinates>1.18502140045166,41.1345720291138,0</coordinates></Point></Placemark>
<Placemark><name>SCRET</name><description>268001 P.COMODIN SERVEIS REGIÓ
posicio de les: 04/08/2018 04:28:23</description><styleUrl>#w_grocP</styleUrl><Point><coordinates>1.18545055389404,41.1344003677368,0</coordinates></Point></Placemark>
<Placemark><name>E00RETE</name><description>270014 P.Tec REGIÓ
posicio de les: 04/08/2018 04:28:27</description><styleUrl>#w_verdP</styleUrl><Point><coordinates>0.513331890106201,40.8191978931427,0</coordinates></Point></Placemark>
<Placemark><name>ASCO56</name><description>272256 PORT.COM ASCO (Terres de l'Ebre)
posicio de les: 04/08/2018 04:28:39</description><styleUrl>#w_verdP</styleUrl><Point><coordinates>0.568810701370239,41.1875081062317,0</coordinates></Point></Placemark>
<Placemark><name>MORA06</name><description>272806 PORT MORA (Terres de l'Ebre)
posicio de les: 04/08/2018 04:27:37</description><styleUrl>#w_verdP</styleUrl><Point><coordinates>0.62997579574585,41.0862171649933,0</coordinates></Point></Placemark>
<Placemark><name>ULLD08</name><description>273108 PORT ULLD (Terres de l'Ebre)
posicio de les: 04/08/2018 04:27:28</description><styleUrl>#w_grocP</styleUrl><Point><coordinates>0.358257293701172,40.6086230278015,0</coordinates></Point></Placemark>
</Folder>
<Folder>
<name>Descarregues</name>
</Folder>
<Style id="w_verdP_n"><IconStyle><color>ff00ff00</color><scale>1.0</scale><Icon><href>http://maps.google.com/mapfiles/kml/shapes/man.png</href></Icon><hotSpot x="0.5" y="0" xunits="fraction" yunits="fraction"/></IconStyle><LabelStyle><scale>0.7</scale></LabelStyle></Style>
<Style id="w_verdP_s"><IconStyle><color>ff00ff00</color><scale>1.4</scale><Icon><href>http://maps.google.com/mapfiles/kml/shapes/man.png</href></Icon><hotSpot x="0.5" y="0" xunits="fraction" yunits="fraction"/></IconStyle><LabelStyle><scale>0.7</scale></LabelStyle></Style>
<StyleMap id="w_verdP"><Pair><key>normal</key><styleUrl>#w_verdP_n</styleUrl></Pair><Pair><key>highlight</key><styleUrl>#w_verdP_s</styleUrl></Pair></StyleMap>
<Style id="w_verd_n"><IconStyle><color>ff00ff00</color><scale>0.7</scale><Icon><href>http://maps.google.com/mapfiles/kml/shapes/cabs.png</href></Icon><hotSpot x="0.5" y="0" xunits="fraction" yunits="fraction"/></IconStyle><LabelStyle><scale>0.7</scale></LabelStyle></Style>
<Style id="w_verd_s"><IconStyle><color>ff00ff00</color><scale>1.0</scale><Icon><href>http://maps.google.com/mapfiles/kml/shapes/cabs.png</href></Icon><hotSpot x="0.5" y="0" xunits="fraction" yunits="fraction"/></IconStyle><LabelStyle><scale>0.7</scale></LabelStyle></Style>
<StyleMap id="w_verd"><Pair><key>normal</key><styleUrl>#w_verd_n</styleUrl></Pair><Pair><key>highlight</key><styleUrl>#w_verd_s</styleUrl></Pair></StyleMap>
<Style id="w_verdC_n"><IconStyle><color>ff00ff00</color><scale>1.0</scale><Icon><href>http://maps.google.com/mapfiles/kml/shapes/truck.png</href></Icon><hotSpot x="0.5" y="0" xunits="fraction" yunits="fraction"/></IconStyle><LabelStyle><scale>0.7</scale></LabelStyle></Style>
<Style id="w_verdC_s"><IconStyle><color>ff00ff00</color><scale>1.4</scale><Icon><href>http://maps.google.com/mapfiles/kml/shapes/truck.png</href></Icon><hotSpot x="0.5" y="0" xunits="fraction" yunits="fraction"/></IconStyle><LabelStyle><scale>0.7</scale></LabelStyle></Style>
<StyleMap id="w_verdC"><Pair><key>normal</key><styleUrl>#w_verdC_n</styleUrl></Pair><Pair><key>highlight</key><styleUrl>#w_verdC_s</styleUrl></Pair></StyleMap>
<Style id="w_verdH_n"><IconStyle><color>ff0000ff</color><scale>1.2</scale><Icon><href>http://maps.google.com/mapfiles/kml/shapes/heliport.png</href></Icon><hotSpot x="0.5" y="0" xunits="fraction" yunits="fraction"/></IconStyle><LabelStyle><scale>0.7</scale></LabelStyle></Style>
<Style id="w_verdH_s"><IconStyle><color>ff0000ff</color><scale>1.4</scale><Icon><href>http://maps.google.com/mapfiles/kml/shapes/heliport.png</href></Icon><hotSpot x="0.5" y="0" xunits="fraction" yunits="fraction"/></IconStyle><LabelStyle><scale>0.7</scale></LabelStyle></Style>
<StyleMap id="w_verdH"><Pair><key>normal</key><styleUrl>#w_verdH_n</styleUrl></Pair><Pair><key>highlight</key><styleUrl>#w_verdH_s</styleUrl></Pair></StyleMap>
<Style id="w_verdA_n"><IconStyle><color>ff0000ff</color><scale>1.2</scale><Icon><href>http://maps.google.com/mapfiles/kml/shapes/airports.png</href></Icon><hotSpot x="0.5" y="0" xunits="fraction" yunits="fraction"/></IconStyle><LabelStyle><scale>0.7</scale></LabelStyle></Style>
<Style id="w_verdA_s"><IconStyle><color>ff0000ff</color><scale>1.4</scale><Icon><href>http://maps.google.com/mapfiles/kml/shapes/airports.png</href></Icon><hotSpot x="0.5" y="0" xunits="fraction" yunits="fraction"/></IconStyle><LabelStyle><scale>0.7</scale></LabelStyle></Style>
<StyleMap id="w_verdA"><Pair><key>normal</key><styleUrl>#w_verdA_n</styleUrl></Pair><Pair><key>highlight</key><styleUrl>#w_verdA_s</styleUrl></Pair></StyleMap>
<Style id="w_verdB_n"><IconStyle><color>ff00ff00</color><scale>1.0</scale><Icon><href>http://maps.google.com/mapfiles/kml/shapes/sailing.png</href></Icon><hotSpot x="0.5" y="0" xunits="fraction" yunits="fraction"/></IconStyle><LabelStyle><scale>0.7</scale></LabelStyle></Style>
<Style id="w_verdB_s"><IconStyle><color>ff00ff00</color><scale>1.4</scale><Icon><href>http://maps.google.com/mapfiles/kml/shapes/sailing.png</href></Icon><hotSpot x="0.5" y="0" xunits="fraction" yunits="fraction"/></IconStyle><LabelStyle><scale>0.7</scale></LabelStyle></Style>
<StyleMap id="w_verdB"><Pair><key>normal</key><styleUrl>#w_verdBAR_n</styleUrl></Pair><Pair><key>highlight</key><styleUrl>#w_verdBAR_s</styleUrl></Pair></StyleMap>
<Style id="w_grocP_n"><IconStyle><color>ff00ffff</color><scale>1.0</scale><Icon><href>http://maps.google.com/mapfiles/kml/shapes/man.png</href></Icon><hotSpot x="0.5" y="0" xunits="fraction" yunits="fraction"/></IconStyle><LabelStyle><scale>0.7</scale></LabelStyle></Style>
<Style id="w_grocP_s"><IconStyle><color>ff00ffff</color><scale>1.4</scale><Icon><href>http://maps.google.com/mapfiles/kml/shapes/man.png</href></Icon><hotSpot x="0.5" y="0" xunits="fraction" yunits="fraction"/></IconStyle><LabelStyle><scale>0.7</scale></LabelStyle></Style>
<StyleMap id="w_grocP"><Pair><key>normal</key><styleUrl>#w_grocP_n</styleUrl></Pair><Pair><key>highlight</key><styleUrl>#w_grocP_s</styleUrl></Pair></StyleMap>
<Style id="w_groc_n"><IconStyle><color>ff00ffff</color><scale>0.7</scale><Icon><href>http://maps.google.com/mapfiles/kml/shapes/cabs.png</href></Icon><hotSpot x="0.5" y="0" xunits="fraction" yunits="fraction"/></IconStyle><LabelStyle><scale>0.7</scale></LabelStyle></Style>
<Style id="w_groc_s"><IconStyle><color>ff00ffff</color><scale>1.0</scale><Icon><href>http://maps.google.com/mapfiles/kml/shapes/cabs.png</href></Icon><hotSpot x="0.5" y="0" xunits="fraction" yunits="fraction"/></IconStyle><LabelStyle><scale>0.7</scale></LabelStyle></Style>
<StyleMap id="w_groc"><Pair><key>normal</key><styleUrl>#w_groc_n</styleUrl></Pair><Pair><key>highlight</key><styleUrl>#w_groc_s</styleUrl></Pair></StyleMap>
<Style id="w_grocC_n"><IconStyle><color>ff00ffff</color><scale>1.0</scale><Icon><href>http://maps.google.com/mapfiles/kml/shapes/truck.png</href></Icon><hotSpot x="0.5" y="0" xunits="fraction" yunits="fraction"/></IconStyle><LabelStyle><scale>0.7</scale></LabelStyle></Style>
<Style id="w_grocC_s"><IconStyle><color>ff00ffff</color><scale>1.4</scale><Icon><href>http://maps.google.com/mapfiles/kml/shapes/truck.png</href></Icon><hotSpot x="0.5" y="0" xunits="fraction" yunits="fraction"/></IconStyle><LabelStyle><scale>0.7</scale></LabelStyle></Style>
<StyleMap id="w_grocC"><Pair><key>normal</key><styleUrl>#w_grocC_n</styleUrl></Pair><Pair><key>highlight</key><styleUrl>#w_grocC_s</styleUrl></Pair></StyleMap>
<Style id="w_grocH_n"><IconStyle><color>ff0000ff</color><scale>1.2</scale><Icon><href>http://maps.google.com/mapfiles/kml/shapes/heliport.png</href></Icon><hotSpot x="0.5" y="0" xunits="fraction" yunits="fraction"/></IconStyle><LabelStyle><scale>0.7</scale></LabelStyle></Style>
<Style id="w_grocH_s"><IconStyle><color>ff0000ff</color><scale>1.4</scale><Icon><href>http://maps.google.com/mapfiles/kml/shapes/heliport.png</href></Icon><hotSpot x="0.5" y="0" xunits="fraction" yunits="fraction"/></IconStyle><LabelStyle><scale>0.7</scale></LabelStyle></Style>
<StyleMap id="w_grocH"><Pair><key>normal</key><styleUrl>#w_grocH_n</styleUrl></Pair><Pair><key>highlight</key><styleUrl>#w_grocH_s</styleUrl></Pair></StyleMap>
<Style id="w_grocA_n"><IconStyle><color>ff0000ff</color><scale>1.2</scale><Icon><href>http://maps.google.com/mapfiles/kml/shapes/airports.png</href></Icon><hotSpot x="0.5" y="0" xunits="fraction" yunits="fraction"/></IconStyle><LabelStyle><scale>0.7</scale></LabelStyle></Style>
<Style id="w_grocA_s"><IconStyle><color>ff0000ff</color><scale>1.4</scale><Icon><href>http://maps.google.com/mapfiles/kml/shapes/airports.png</href></Icon><hotSpot x="0.5" y="0" xunits="fraction" yunits="fraction"/></IconStyle><LabelStyle><scale>0.7</scale></LabelStyle></Style>
<StyleMap id="w_grocA"><Pair><key>normal</key><styleUrl>#w_grocA_n</styleUrl></Pair><Pair><key>highlight</key><styleUrl>#w_grocA_s</styleUrl></Pair></StyleMap>
<Style id="w_grocB_n"><IconStyle><color>ff00ffff</color><scale>1.0</scale><Icon><href>http://maps.google.com/mapfiles/kml/shapes/sailing.png</href></Icon><hotSpot x="0.5" y="0" xunits="fraction" yunits="fraction"/></IconStyle><LabelStyle><scale>0.7</scale></LabelStyle></Style>
<Style id="w_grocB_s"><IconStyle><color>ff00ffff</color><scale>1.4</scale><Icon><href>http://maps.google.com/mapfiles/kml/shapes/sailing.png</href></Icon><hotSpot x="0.5" y="0" xunits="fraction" yunits="fraction"/></IconStyle><LabelStyle><scale>0.7</scale></LabelStyle></Style>
<StyleMap id="w_grocB"><Pair><key>normal</key><styleUrl>#w_grocBAR_n</styleUrl></Pair><Pair><key>highlight</key><styleUrl>#w_grocBAR_s</styleUrl></Pair></StyleMap>
<Style id="w_vermellP_n"><IconStyle><color>ff0000ff</color><scale>1.0</scale><Icon><href>http://maps.google.com/mapfiles/kml/shapes/man.png</href></Icon><hotSpot x="0.5" y="0" xunits="fraction" yunits="fraction"/></IconStyle><LabelStyle><scale>0.7</scale></LabelStyle></Style>
<Style id="w_vermellP_s"><IconStyle><color>ff0000ff</color><scale>1.4</scale><Icon><href>http://maps.google.com/mapfiles/kml/shapes/man.png</href></Icon><hotSpot x="0.5" y="0" xunits="fraction" yunits="fraction"/></IconStyle><LabelStyle><scale>0.7</scale></LabelStyle></Style>
<StyleMap id="w_vermellP"><Pair><key>normal</key><styleUrl>#w_vermellP_n</styleUrl></Pair><Pair><key>highlight</key><styleUrl>#w_vermellP_s</styleUrl></Pair></StyleMap>
<Style id="w_vermell_n"><IconStyle><color>ff0000ff</color><scale>0.7</scale><Icon><href>http://maps.google.com/mapfiles/kml/shapes/cabs.png</href></Icon><hotSpot x="0.5" y="0" xunits="fraction" yunits="fraction"/></IconStyle><LabelStyle><scale>0.7</scale></LabelStyle></Style>
<Style id="w_vermell_s"><IconStyle><color>ff0000ff</color><scale>1.0</scale><Icon><href>http://maps.google.com/mapfiles/kml/shapes/cabs.png</href></Icon><hotSpot x="0.5" y="0" xunits="fraction" yunits="fraction"/></IconStyle><LabelStyle><scale>0.7</scale></LabelStyle></Style>
<StyleMap id="w_vermell"><Pair><key>normal</key><styleUrl>#w_vermell_n</styleUrl></Pair><Pair><key>highlight</key><styleUrl>#w_vermell_s</styleUrl></Pair></StyleMap>
<Style id="w_vermellC_n"><IconStyle><color>ff0000ff</color><scale>1.0</scale><Icon><href>http://maps.google.com/mapfiles/kml/shapes/truck.png</href></Icon><hotSpot x="0.5" y="0" xunits="fraction" yunits="fraction"/></IconStyle><LabelStyle><scale>0.7</scale></LabelStyle></Style>
<Style id="w_vermellC_s"><IconStyle><color>ff0000ff</color><scale>1.4</scale><Icon><href>http://maps.google.com/mapfiles/kml/shapes/truck.png</href></Icon><hotSpot x="0.5" y="0" xunits="fraction" yunits="fraction"/></IconStyle><LabelStyle><scale>0.7</scale></LabelStyle></Style>
<StyleMap id="w_vermellC"><Pair><key>normal</key><styleUrl>#w_vermellC_n</styleUrl></Pair><Pair><key>highlight</key><styleUrl>#w_vermellC_s</styleUrl></Pair></StyleMap>
<Style id="w_vermellH_n"><IconStyle><color>ff0000ff</color><scale>1.2</scale><Icon><href>http://maps.google.com/mapfiles/kml/shapes/heliport.png</href></Icon><hotSpot x="0.5" y="0" xunits="fraction" yunits="fraction"/></IconStyle><LabelStyle><scale>0.7</scale></LabelStyle></Style>
<Style id="w_vermellH_s"><IconStyle><color>ff0000ff</color><scale>1.4</scale><Icon><href>http://maps.google.com/mapfiles/kml/shapes/heliport.png</href></Icon><hotSpot x="0.5" y="0" xunits="fraction" yunits="fraction"/></IconStyle><LabelStyle><scale>0.7</scale></LabelStyle></Style>
<StyleMap id="w_vermellH"><Pair><key>normal</key><styleUrl>#w_vermellH_n</styleUrl></Pair><Pair><key>highlight</key><styleUrl>#w_vermellH_s</styleUrl></Pair></StyleMap>
<Style id="w_vermellA_n"><IconStyle><color>ff0000ff</color><scale>1.2</scale><Icon><href>http://maps.google.com/mapfiles/kml/shapes/airports.png</href></Icon><hotSpot x="0.5" y="0" xunits="fraction" yunits="fraction"/></IconStyle><LabelStyle><scale>0.7</scale></LabelStyle></Style>
<Style id="w_vermellA_s"><IconStyle><color>ff0000ff</color><scale>1.4</scale><Icon><href>http://maps.google.com/mapfiles/kml/shapes/airports.png</href></Icon><hotSpot x="0.5" y="0" xunits="fraction" yunits="fraction"/></IconStyle><LabelStyle><scale>0.7</scale></LabelStyle></Style>
<StyleMap id="w_vermellA"><Pair><key>normal</key><styleUrl>#w_vermellA_n</styleUrl></Pair><Pair><key>highlight</key><styleUrl>#w_vermellA_s</styleUrl></Pair></StyleMap>
<Style id="w_vermellB_n"><IconStyle><color>ff0000ff</color><scale>1.0</scale><Icon><href>http://maps.google.com/mapfiles/kml/shapes/sailing.png</href></Icon><hotSpot x="0.5" y="0" xunits="fraction" yunits="fraction"/></IconStyle><LabelStyle><scale>0.7</scale></LabelStyle></Style>
<Style id="w_vermellB_s"><IconStyle><color>ff0000ff</color><scale>1.4</scale><Icon><href>http://maps.google.com/mapfiles/kml/shapes/sailing.png</href></Icon><hotSpot x="0.5" y="0" xunits="fraction" yunits="fraction"/></IconStyle><LabelStyle><scale>0.7</scale></LabelStyle></Style>
<StyleMap id="w_vermellB"><Pair><key>normal</key><styleUrl>#w_vermellBAR_n</styleUrl></Pair><Pair><key>highlight</key><styleUrl>#w_vermellBAR_s</styleUrl></Pair></StyleMap>
<Style id="w_descarrega"><IconStyle><color>ff00ffff</color><scale>0.5</scale><Icon><href>http://maps.google.com/mapfiles/kml/shapes/road_shield3.png</href></Icon></IconStyle><LabelStyle><scale>0.7</scale></LabelStyle></Style><Style id="actuacio"><IconStyle><color>ff00ffff</color><scale>0.8</scale><Icon><href>http://maps.google.com/mapfiles/kml/shapes/caution.png</href></Icon></IconStyle><LabelStyle><scale>0.7</scale></LabelStyle></Style></Document></kml>