<?xml version="1.0" encoding="UTF-8"?>
<kml xmlns="http://www.opengis.net/kml/2.2" xmlns:gx="http://www.google.com/kml/ext/2.2" xmlns:kml="http://www.opengis.net/kml/2.2" xmlns:atom="http://www.w3.org/2005/Atom">
<Document>
<name>Terminals</name>
<Snippet maxLines="2">Created 06/08/2018 22:05:13</Snippet>
<Folder>
<name>Terminals</name>
<Placemark><name>A0103</name><description>200103 PORT Dept.
posicio de les: 06/08/2018 22:05:08</description><styleUrl>#w_verdP</styleUrl><Point><coordinates>0.756275653839111,42.5751006603241,0</coordinates></Point></Placemark>
<Placemark><name>GEM08</name><description>202008 GEM
posicio de les: 06/08/2018 22:05:02</description><styleUrl>#w_verdP</styleUrl><Point><coordinates>2.13150858879089,41.5059614181519,0</coordinates></Point></Placemark>
<Placemark><name>02062</name><description>202062 GEM
posicio de les: 06/08/2018 22:03:08</description><styleUrl>#w_groc</styleUrl><Point><coordinates>2.03461647033691,41.3228631019592,0</coordinates></Point></Placemark>
<Placemark><name>03095</name><description>203095 GRAE
posicio de les: 06/08/2018 22:05:04</description><styleUrl>#w_verd</styleUrl><Point><coordinates>2.13122963905334,41.5058219432831,0</coordinates></Point></Placemark>
<Placemark><name>03373</name><description>203373 GRAE
posicio de les: 06/08/2018 22:05:02</description><styleUrl>#w_verd</styleUrl><Point><coordinates>1.47047281265259,42.3610389232636,0</coordinates></Point></Placemark>
<Placemark><name>03472</name><description>203472 GRAE
posicio de les: 06/08/2018 22:05:08</description><styleUrl>#w_verd</styleUrl><Point><coordinates>2.13090777397156,41.5057146549225,0</coordinates></Point></Placemark>
<Placemark><name>VIEL12</name><description>208012 P.PT VARAN
posicio de les: 06/08/2018 22:04:32</description><styleUrl>#w_grocP</styleUrl><Point><coordinates>0.800896883010864,42.6990723609924,0</coordinates></Point></Placemark>
<Placemark><name>VIEL17</name><description>208017 BASE CCA VARAN
posicio de les: 06/08/2018 22:03:44</description><styleUrl>#w_verd</styleUrl><Point><coordinates>0.796401500701904,42.7078378200531,0</coordinates></Point></Placemark>
<Placemark><name>GE0REC</name><description>210013 P.Tec REGIÓ
posicio de les: 06/08/2018 22:03:35</description><styleUrl>#w_verdP</styleUrl><Point><coordinates>1.85235500335693,41.7413949966431,0</coordinates></Point></Placemark>
<Placemark><name>ALP02</name><description>210102 PORT ALP (Centre)
posicio de les: 06/08/2018 22:01:57</description><styleUrl>#w_verdP</styleUrl><Point><coordinates>1.88709497451782,42.3741066455841,0</coordinates></Point></Placemark>
<Placemark><name>BER57</name><description>210357 PORT.COM BER (Centre)
posicio de les: 06/08/2018 22:04:41</description><styleUrl>#w_verdP</styleUrl><Point><coordinates>1.85771942138672,42.1039545536041,0</coordinates></Point></Placemark>
<Placemark><name>GUA57</name><description>210857 PORT.COM GUA (Centre)
posicio de les: 06/08/2018 22:02:24</description><styleUrl>#w_verdP</styleUrl><Point><coordinates>1.87060475349426,42.2194075584412,0</coordinates></Point></Placemark>
<Placemark><name>PRA01</name><description>211401 PORT PRA (Centre)
posicio de les: 06/08/2018 22:04:08</description><styleUrl>#w_grocP</styleUrl><Point><coordinates>1.85140013694763,41.7416203022003,0</coordinates></Point></Placemark>
<Placemark><name>PRA07</name><description>211407 PORT PRA (Centre)
posicio de les: 06/08/2018 22:04:54</description><styleUrl>#w_verdP</styleUrl><Point><coordinates>2.03657984733582,42.0078134536743,0</coordinates></Point></Placemark>
<Placemark><name>SOLS03</name><description>211903 PORT SOLS (Centre)
posicio de les: 06/08/2018 22:03:22</description><styleUrl>#w_verdP</styleUrl><Point><coordinates>1.51283025741577,41.9897782802582,0</coordinates></Point></Placemark>
<Placemark><name>CMC08</name><description>214508 PORT Parc X
posicio de les: 06/08/2018 22:04:20</description><styleUrl>#w_grocP</styleUrl><Point><coordinates>1.85214042663574,41.7415237426758,0</coordinates></Point></Placemark>
<Placemark><name>D00REG</name><description>220018 P.Tec REGIÓ
posicio de les: 06/08/2018 22:05:00</description><styleUrl>#w_grocP</styleUrl><Point><coordinates>2.80666351318359,41.9599092006683,0</coordinates></Point></Placemark>
<Placemark><name>20093</name><description>220093  REGIÓ
posicio de les: 06/08/2018 22:05:10</description><styleUrl>#w_verd</styleUrl><Point><coordinates>2.88384675979614,41.8785095214844,0</coordinates></Point></Placemark>
<Placemark><name>AMER57</name><description>220157 PORT.COM AMER (Girona)
posicio de les: 06/08/2018 22:04:57</description><styleUrl>#w_verdP</styleUrl><Point><coordinates>2.59678602218628,42.0112788677216,0</coordinates></Point></Placemark>
<Placemark><name>BANY56</name><description>220356 PORT.COM BANY (Girona)
posicio de les: 06/08/2018 22:04:00</description><styleUrl>#w_verdP</styleUrl><Point><coordinates>2.78583884239197,42.1178913116455,0</coordinates></Point></Placemark>
<Placemark><name>CALO04</name><description>220604 PORT CALO (Girona)
posicio de les: 06/08/2018 22:04:53</description><styleUrl>#w_verdP</styleUrl><Point><coordinates>3.07439088821411,41.8522453308105,0</coordinates></Point></Placemark>
<Placemark><name>CALO05</name><description>220605 PORT CALO (Girona)
posicio de les: 06/08/2018 22:03:26</description><styleUrl>#w_verdP</styleUrl><Point><coordinates>3.07444453239441,41.8528568744659,0</coordinates></Point></Placemark>
<Placemark><name>20630</name><description>220630 BRP CALO (Girona)
posicio de les: 06/08/2018 22:05:03</description><styleUrl>#w_verdC</styleUrl><Point><coordinates>3.1340217590332,41.8644547462463,0</coordinates></Point></Placemark>
<Placemark><name>220656</name><description>220656 PORT.COM CALO (Girona)
posicio de les: 06/08/2018 22:05:13</description><styleUrl>#w_verdP</styleUrl><Point><coordinates>3.13287377357483,41.8649804592133,0</coordinates></Point></Placemark>
<Placemark><name>20690</name><description>220690 UPC CALO (Girona)
posicio de les: 06/08/2018 22:00:57</description><styleUrl>#w_groc</styleUrl><Point><coordinates>3.07478785514832,41.8524491786957,0</coordinates></Point></Placemark>
<Placemark><name>CASS03</name><description>220803 PORT CASS (Girona)
posicio de les: 06/08/2018 22:04:36</description><styleUrl>#w_verdP</styleUrl><Point><coordinates>2.88394331932068,41.8796789646149,0</coordinates></Point></Placemark>
<Placemark><name>CASS04</name><description>220804 PORT CASS (Girona)
posicio de les: 06/08/2018 22:03:43</description><styleUrl>#w_grocP</styleUrl><Point><coordinates>2.88429737091064,41.8798613548279,0</coordinates></Point></Placemark>
<Placemark><name>CASS07</name><description>220807 PORT CASS (Girona)
posicio de les: 06/08/2018 22:05:05</description><styleUrl>#w_verdP</styleUrl><Point><coordinates>2.88431882858276,41.8796682357788,0</coordinates></Point></Placemark>
<Placemark><name>CASS56</name><description>220856 PORT.COM CASS (Girona)
posicio de les: 06/08/2018 22:04:32</description><styleUrl>#w_verdP</styleUrl><Point><coordinates>2.88369655609131,41.8798291683197,0</coordinates></Point></Placemark>
<Placemark><name>CASS57</name><description>220857 PORT.COM CASS (Girona)
posicio de les: 06/08/2018 22:03:57</description><styleUrl>#w_verdP</styleUrl><Point><coordinates>2.88332104682922,41.8800973892212,0</coordinates></Point></Placemark>
<Placemark><name>FIGU56</name><description>221056 PORT.COM FIGU (Girona)
posicio de les: 06/08/2018 22:03:19</description><styleUrl>#w_verdP</styleUrl><Point><coordinates>2.97067523002625,42.2719573974609,0</coordinates></Point></Placemark>
<Placemark><name>21130</name><description>221130 BRP GIRO (Girona)
posicio de les: 06/08/2018 22:02:58</description><styleUrl>#w_verdC</styleUrl><Point><coordinates>2.80678153038025,41.9605314731598,0</coordinates></Point></Placemark>
<Placemark><name>HOST03</name><description>221203 PORT HOST (Girona)
posicio de les: 06/08/2018 22:03:47</description><styleUrl>#w_verdP</styleUrl><Point><coordinates>2.62447714805603,41.7480254173279,0</coordinates></Point></Placemark>
<Placemark><name>21230</name><description>221230 BRP HOST (Girona)
posicio de les: 06/08/2018 22:04:29</description><styleUrl>#w_grocC</styleUrl><Point><coordinates>2.62428402900696,41.7481863498688,0</coordinates></Point></Placemark>
<Placemark><name>JONQ56</name><description>221356 PORT.COM JONQ (Girona)
posicio de les: 06/08/2018 22:04:23</description><styleUrl>#w_verdP</styleUrl><Point><coordinates>2.87714123725891,42.411185503006,0</coordinates></Point></Placemark>
<Placemark><name>LLAN57</name><description>221457 PORT.COM LLAN (Girona)
posicio de les: 06/08/2018 22:02:31</description><styleUrl>#w_verdP</styleUrl><Point><coordinates>3.15411686897278,42.3577773571014,0</coordinates></Point></Placemark>
<Placemark><name>LLOR56</name><description>221556 PORT.COM LLOR (Girona)
posicio de les: 06/08/2018 22:04:18</description><styleUrl>#w_verdP</styleUrl><Point><coordinates>2.83655405044556,41.6994023323059,0</coordinates></Point></Placemark>
<Placemark><name>221557</name><description>221557 PORT.COM LLOR (Girona)
posicio de les: 06/08/2018 22:03:14</description><styleUrl>#w_verdP</styleUrl><Point><coordinates>2.83617854118347,41.6995203495026,0</coordinates></Point></Placemark>
<Placemark><name>MAÇA57</name><description>221657 PORT.COM MACA (Girona)
posicio de les: 06/08/2018 22:03:05</description><styleUrl>#w_grocP</styleUrl><Point><coordinates>2.75306224822998,41.779568195343,0</coordinates></Point></Placemark>
<Placemark><name>OLOT56</name><description>221756 PORT.COM OLOT (Girona)
posicio de les: 06/08/2018 22:05:07</description><styleUrl>#w_verdP</styleUrl><Point><coordinates>2.4743378162384,42.1901392936707,0</coordinates></Point></Placemark>
<Placemark><name>OLOT57</name><description>221757 PORT.COM OLOT (Girona)
posicio de les: 06/08/2018 22:03:57</description><styleUrl>#w_verdP</styleUrl><Point><coordinates>2.4743914604187,42.1899783611298,0</coordinates></Point></Placemark>
<Placemark><name>21790</name><description>221790 UPC OLOT (Girona)
posicio de les: 06/08/2018 22:02:10</description><styleUrl>#w_groc</styleUrl><Point><coordinates>2.47503519058228,42.190568447113,0</coordinates></Point></Placemark>
<Placemark><name>PALA02</name><description>221802 PORT PALA (Girona)
posicio de les: 06/08/2018 22:03:40</description><styleUrl>#w_verdP</styleUrl><Point><coordinates>3.15579056739807,41.925812959671,0</coordinates></Point></Placemark>
<Placemark><name>PALA56</name><description>221856 PORT.COM PALA (Girona)
posicio de les: 06/08/2018 22:02:20</description><styleUrl>#w_verdP</styleUrl><Point><coordinates>3.15654158592224,41.9261133670807,0</coordinates></Point></Placemark>
<Placemark><name>RIPO03</name><description>222103 PORT RIPO (Girona)
posicio de les: 06/08/2018 21:59:54</description><styleUrl>#w_verdP</styleUrl><Point><coordinates>2.16825485229492,42.2149229049683,0</coordinates></Point></Placemark>
<Placemark><name>22130</name><description>222130 BRP RIPO (Girona)
posicio de les: 06/08/2018 22:04:51</description><styleUrl>#w_grocC</styleUrl><Point><coordinates>2.1691882610321,42.2150409221649,0</coordinates></Point></Placemark>
<Placemark><name>RIPO57</name><description>222157 PORT.COM RIPO (Girona)
posicio de les: 06/08/2018 22:04:45</description><styleUrl>#w_grocP</styleUrl><Point><coordinates>2.16824412345886,42.2149658203125,0</coordinates></Point></Placemark>
<Placemark><name>22230</name><description>222230 BRP ROSE (Girona)
posicio de les: 06/08/2018 22:00:56</description><styleUrl>#w_grocC</styleUrl><Point><coordinates>3.16068291664124,42.2763240337372,0</coordinates></Point></Placemark>
<Placemark><name>ROSE57</name><description>222257 PORT.COM ROSE (Girona)
posicio de les: 06/08/2018 22:03:50</description><styleUrl>#w_grocP</styleUrl><Point><coordinates>3.16118717193604,42.2764205932617,0</coordinates></Point></Placemark>
<Placemark><name>22290</name><description>222290 UPC ROSE (Girona)
posicio de les: 06/08/2018 22:00:46</description><styleUrl>#w_groc</styleUrl><Point><coordinates>3.16092967987061,42.2768926620483,0</coordinates></Point></Placemark>
<Placemark><name>22531</name><description>222531 BRP SCFA (Girona)
posicio de les: 06/08/2018 22:03:21</description><styleUrl>#w_grocC</styleUrl><Point><coordinates>2.70464301109314,41.8197047710419,0</coordinates></Point></Placemark>
<Placemark><name>SCFA57</name><description>222557 PORT.COM SCFA (Girona)
posicio de les: 06/08/2018 22:02:32</description><styleUrl>#w_verdP</styleUrl><Point><coordinates>2.66428112983704,41.8681454658508,0</coordinates></Point></Placemark>
<Placemark><name>TORR02</name><description>222602 PORT TORR (Girona)
posicio de les: 06/08/2018 22:00:26</description><styleUrl>#w_verdP</styleUrl><Point><coordinates>3.16736698150635,42.0480680465698,0</coordinates></Point></Placemark>
<Placemark><name>22630</name><description>222630 BRP TORR (Girona)
posicio de les: 06/08/2018 22:04:05</description><styleUrl>#w_grocC</styleUrl><Point><coordinates>3.16718459129334,42.0477890968323,0</coordinates></Point></Placemark>
<Placemark><name>VALL05</name><description>222805 PORT VALL (Girona)
posicio de les: 06/08/2018 22:04:36</description><styleUrl>#w_verdP</styleUrl><Point><coordinates>3.03164720535278,41.8087291717529,0</coordinates></Point></Placemark>
<Placemark><name>VALL07</name><description>222807 PORT VALL (Girona)
posicio de les: 06/08/2018 22:04:43</description><styleUrl>#w_grocP</styleUrl><Point><coordinates>3.03156137466431,41.808750629425,0</coordinates></Point></Placemark>
<Placemark><name>D9REG</name><description>228049  SERVEIS REGIÓ
posicio de les: 06/08/2018 22:05:11</description><styleUrl>#w_groc</styleUrl><Point><coordinates>2.80653476715088,41.9602739810944,0</coordinates></Point></Placemark>
<Placemark><name>D0REL</name><description>230010 P.CG REGIÓ
posicio de les: 06/08/2018 21:59:45</description><styleUrl>#w_verdP</styleUrl><Point><coordinates>0.60549259185791,41.6229915618896,0</coordinates></Point></Placemark>
<Placemark><name>RELL12</name><description>230012 P.Tec REGIÓ
posicio de les: 06/08/2018 22:03:49</description><styleUrl>#w_grocP</styleUrl><Point><coordinates>0.617133378982544,41.541645526886,0</coordinates></Point></Placemark>
<Placemark><name>30092</name><description>230092  REGIÓ
posicio de les: 06/08/2018 22:01:45</description><styleUrl>#w_groc</styleUrl><Point><coordinates>0.592789649963379,41.6316819190979,0</coordinates></Point></Placemark>
<Placemark><name>30096</name><description>230096  REGIÓ
posicio de les: 06/08/2018 22:05:00</description><styleUrl>#w_groc</styleUrl><Point><coordinates>0.80574631690979,41.7992126941681,0</coordinates></Point></Placemark>
<Placemark><name>ALMA01</name><description>230301 PORT ALMA (Lleida)
posicio de les: 06/08/2018 22:04:34</description><styleUrl>#w_verdP</styleUrl><Point><coordinates>0.60099720954895,41.6284310817719,0</coordinates></Point></Placemark>
<Placemark><name>30330</name><description>230330 BRP ALMA (Lleida)
posicio de les: 06/08/2018 22:05:07</description><styleUrl>#w_verdC</styleUrl><Point><coordinates>0.611522197723389,41.6257917881012,0</coordinates></Point></Placemark>
<Placemark><name>230356</name><description>230356 PORT.COM ALMA (Lleida)
posicio de les: 06/08/2018 22:05:09</description><styleUrl>#w_verdP</styleUrl><Point><coordinates>0.433884859085083,41.7319643497467,0</coordinates></Point></Placemark>
<Placemark><name>30530</name><description>230530 BRP ARTE (Lleida)
posicio de les: 06/08/2018 22:04:08</description><styleUrl>#w_verdC</styleUrl><Point><coordinates>1.04514956474304,41.8921780586243,0</coordinates></Point></Placemark>
<Placemark><name>BALA56</name><description>230656 PORT.COM BALA (Lleida)
posicio de les: 06/08/2018 22:04:27</description><styleUrl>#w_verdP</styleUrl><Point><coordinates>0.805789232254028,41.799201965332,0</coordinates></Point></Placemark>
<Placemark><name>BORG02</name><description>230702 PORT BORG (Lleida)
posicio de les: 06/08/2018 22:03:02</description><styleUrl>#w_grocP</styleUrl><Point><coordinates>0.844992399215698,41.5075707435608,0</coordinates></Point></Placemark>
<Placemark><name>30748</name><description>230748 BUL BORG (Lleida)
posicio de les: 06/08/2018 22:04:24</description><styleUrl>#w_grocC</styleUrl><Point><coordinates>0.845614671707153,41.5067553520203,0</coordinates></Point></Placemark>
<Placemark><name>LLEI04</name><description>231904 PORT LLEI (Lleida)
posicio de les: 06/08/2018 22:04:00</description><styleUrl>#w_grocP</styleUrl><Point><coordinates>0.618109703063965,41.5412056446075,0</coordinates></Point></Placemark>
<Placemark><name>31940</name><description>231940 BUP LLEI (Lleida)
posicio de les: 06/08/2018 22:01:55</description><styleUrl>#w_grocC</styleUrl><Point><coordinates>0.618249177932739,41.5411841869354,0</coordinates></Point></Placemark>
<Placemark><name>31944</name><description>231944 BNP LLEI (Lleida)
posicio de les: 06/08/2018 22:03:07</description><styleUrl>#w_grocC</styleUrl><Point><coordinates>0.618249177932739,41.5411841869354,0</coordinates></Point></Placemark>
<Placemark><name>MOLL05</name><description>232005 PORT MOLL (Lleida)
posicio de les: 06/08/2018 22:02:09</description><styleUrl>#w_verdP</styleUrl><Point><coordinates>0.898218154907227,41.6367566585541,0</coordinates></Point></Placemark>
<Placemark><name>MOLL07</name><description>232007 PORT MOLL (Lleida)
posicio de les: 06/08/2018 22:05:00</description><styleUrl>#w_grocP</styleUrl><Point><coordinates>0.897971391677856,41.6369605064392,0</coordinates></Point></Placemark>
<Placemark><name>POBL01</name><description>232401 PORT POBL (Lleida)
posicio de les: 06/08/2018 22:03:57</description><styleUrl>#w_grocP</styleUrl><Point><coordinates>0.964243412017822,42.2391486167908,0</coordinates></Point></Placemark>
<Placemark><name>PONT06</name><description>232506 PORT PONT (Lleida)
posicio de les: 06/08/2018 22:04:42</description><styleUrl>#w_grocP</styleUrl><Point><coordinates>0.739849805831909,42.4106597900391,0</coordinates></Point></Placemark>
<Placemark><name>SEU02</name><description>232902 PORT SEU (Lleida)
posicio de les: 06/08/2018 22:04:58</description><styleUrl>#w_verdP</styleUrl><Point><coordinates>1.47184610366821,42.3600518703461,0</coordinates></Point></Placemark>
<Placemark><name>TAR57</name><description>233157 PORT.COM TAR (Lleida)
posicio de les: 06/08/2018 22:04:02</description><styleUrl>#w_verdP</styleUrl><Point><coordinates>1.14988446235657,41.6511118412018,0</coordinates></Point></Placemark>
<Placemark><name>FSORT1</name><description>234511 PORT Parc X
posicio de les: 06/08/2018 22:04:03</description><styleUrl>#w_verdP</styleUrl><Point><coordinates>1.12874865531921,42.4089968204498,0</coordinates></Point></Placemark>
<Placemark><name>I405</name><description>237405 P.GUAITA GUAITA
posicio de les: 06/08/2018 22:03:20</description><styleUrl>#w_verdP</styleUrl><Point><coordinates>0.766521692276001,42.0401501655579,0</coordinates></Point></Placemark>
<Placemark><name>I408</name><description>237408 P.GUAITA GUAITA
posicio de les: 06/08/2018 22:04:02</description><styleUrl>#w_verdP</styleUrl><Point><coordinates>0.894688367843628,42.160849571228,0</coordinates></Point></Placemark>
<Placemark><name>D8RELL</name><description>238048  SERVEIS REGIÓ
posicio de les: 06/08/2018 22:04:49</description><styleUrl>#w_verd</styleUrl><Point><coordinates>0.604977607727051,41.6235387325287,0</coordinates></Point></Placemark>
<Placemark><name>REMN11</name><description>240011 P.Tec REGIÓ
posicio de les: 06/08/2018 22:02:43</description><styleUrl>#w_verdP</styleUrl><Point><coordinates>2.11226105690002,41.5022921562195,0</coordinates></Point></Placemark>
<Placemark><name>GE00REMN</name><description>240015 P.Tec REGIÓ
posicio de les: 06/08/2018 22:01:53</description><styleUrl>#w_verdP</styleUrl><Point><coordinates>2.10411787033081,41.5421497821808,0</coordinates></Point></Placemark>
<Placemark><name>40091</name><description>240091  REGIÓ
posicio de les: 06/08/2018 22:04:35</description><styleUrl>#w_verd</styleUrl><Point><coordinates>2.11217522621155,41.5028285980225,0</coordinates></Point></Placemark>
<Placemark><name>BAD07</name><description>240207 PORT BAD (Metro. Nord)
posicio de les: 06/08/2018 22:04:35</description><styleUrl>#w_verdP</styleUrl><Point><coordinates>2.23747730255127,41.4654922485352,0</coordinates></Point></Placemark>
<Placemark><name>40260</name><description>240260 AEA/AES/ABA BAD (Metro. Nord)
posicio de les: 06/08/2018 22:02:29</description><styleUrl>#w_verdC</styleUrl><Point><coordinates>2.25198268890381,41.4655244350433,0</coordinates></Point></Placemark>
<Placemark><name>40290</name><description>240290 UPC BAD (Metro. Nord)
posicio de les: 06/08/2018 22:01:16</description><styleUrl>#w_groc</styleUrl><Point><coordinates>2.10397839546204,41.5425252914429,0</coordinates></Point></Placemark>
<Placemark><name>CAS02</name><description>240402 PORT CAS (Metro. Nord)
posicio de les: 06/08/2018 22:04:10</description><styleUrl>#w_grocP</styleUrl><Point><coordinates>2.09080338478088,41.5962016582489,0</coordinates></Point></Placemark>
<Placemark><name>CAS04</name><description>240404 PORT CAS (Metro. Nord)
posicio de les: 06/08/2018 22:04:45</description><styleUrl>#w_grocP</styleUrl><Point><coordinates>2.09085702896118,41.5964591503143,0</coordinates></Point></Placemark>
<Placemark><name>CAS05</name><description>240405 PORT CAS (Metro. Nord)
posicio de les: 06/08/2018 22:03:23</description><styleUrl>#w_grocP</styleUrl><Point><coordinates>2.09110379219055,41.5963733196259,0</coordinates></Point></Placemark>
<Placemark><name>CAS06</name><description>240406 PORT CAS (Metro. Nord)
posicio de les: 06/08/2018 22:03:03</description><styleUrl>#w_verdP</styleUrl><Point><coordinates>2.090824842453,41.5961694717407,0</coordinates></Point></Placemark>
<Placemark><name>240430</name><description>240430 BRP CAS (Metro. Nord)
posicio de les: 06/08/2018 22:00:20</description><styleUrl>#w_grocC</styleUrl><Point><coordinates>2.09055662155151,41.5965449810028,0</coordinates></Point></Placemark>
<Placemark><name>240556</name><description>240556 PORT.COM CER (Metro. Nord)
posicio de les: 06/08/2018 22:05:02</description><styleUrl>#w_verdP</styleUrl><Point><coordinates>2.11138129234314,41.5029036998749,0</coordinates></Point></Placemark>
<Placemark><name>CER57</name><description>240557 PORT.COM CER (Metro. Nord)
posicio de les: 06/08/2018 22:04:04</description><styleUrl>#w_verdP</styleUrl><Point><coordinates>2.11111307144165,41.5024960041046,0</coordinates></Point></Placemark>
<Placemark><name>40640</name><description>240640 BUP GRA (Metro. Nord)
posicio de les: 06/08/2018 22:04:59</description><styleUrl>#w_grocC</styleUrl><Point><coordinates>2.27482438087463,41.5905797481537,0</coordinates></Point></Placemark>
<Placemark><name>GRA56</name><description>240656 PORT.COM GRA (Metro. Nord)
posicio de les: 06/08/2018 22:03:18</description><styleUrl>#w_verdP</styleUrl><Point><coordinates>2.27450251579285,41.5908372402191,0</coordinates></Point></Placemark>
<Placemark><name>MOL03</name><description>241003 PORT MOL (Metro. Nord)
posicio de les: 06/08/2018 22:01:58</description><styleUrl>#w_verdP</styleUrl><Point><coordinates>2.20093488693237,41.5380942821503,0</coordinates></Point></Placemark>
<Placemark><name>241048</name><description>241048 BUL MOL (Metro. Nord)
posicio de les: 06/08/2018 22:02:50</description><styleUrl>#w_verdC</styleUrl><Point><coordinates>2.20239400863647,41.5368926525116,0</coordinates></Point></Placemark>
<Placemark><name>PIN01</name><description>241201 PORT PIN (Metro. Nord)
posicio de les: 06/08/2018 22:02:26</description><styleUrl>#w_verdP</styleUrl><Point><coordinates>2.66981720924377,41.6269183158875,0</coordinates></Point></Placemark>
<Placemark><name>RUB56</name><description>241356 PORT.COM RUB (Metro. Nord)
posicio de les: 06/08/2018 22:03:17</description><styleUrl>#w_verdP</styleUrl><Point><coordinates>2.03557133674622,41.4741182327271,0</coordinates></Point></Placemark>
<Placemark><name>41390</name><description>241390 UPC RUB (Metro. Nord)
posicio de les: 06/08/2018 22:04:13</description><styleUrl>#w_verd</styleUrl><Point><coordinates>2.03529238700867,41.4732599258423,0</coordinates></Point></Placemark>
<Placemark><name>SAB56</name><description>241456 PORT.COM SAB (Metro. Nord)
posicio de les: 06/08/2018 22:01:36</description><styleUrl>#w_verdP</styleUrl><Point><coordinates>2.10404276847839,41.5425252914429,0</coordinates></Point></Placemark>
<Placemark><name>241858</name><description>241858 BSAL SCG (Metro. Nord)
posicio de les: 06/08/2018 22:03:47</description><styleUrl>#w_verdB</styleUrl><Point><coordinates>2.20932483673096,41.4632499217987,0</coordinates></Point></Placemark>
<Placemark><name>TER09</name><description>242009 PORT TER (Metro. Nord)
posicio de les: 06/08/2018 22:04:28</description><styleUrl>#w_grocP</styleUrl><Point><coordinates>2.0255720615387,41.5682423114777,0</coordinates></Point></Placemark>
<Placemark><name>TER57</name><description>242057 PORT.COM TER (Metro. Nord)
posicio de les: 06/08/2018 22:04:01</description><styleUrl>#w_verdP</styleUrl><Point><coordinates>2.02597975730896,41.5682530403137,0</coordinates></Point></Placemark>
<Placemark><name>TOD56</name><description>242156 PORT.COM TOD (Metro. Nord)
posicio de les: 06/08/2018 22:03:47</description><styleUrl>#w_grocP</styleUrl><Point><coordinates>2.71656274795532,41.6915702819824,0</coordinates></Point></Placemark>
<Placemark><name>D3REMN</name><description>248043  SERVEIS REGIÓ
posicio de les: 06/08/2018 22:04:12</description><styleUrl>#w_verd</styleUrl><Point><coordinates>2.11252927780151,41.5022599697113,0</coordinates></Point></Placemark>
<Placemark><name>250010</name><description>250010 P.CG REGIÓ
posicio de les: 06/08/2018 22:04:33</description><styleUrl>#w_verdP</styleUrl><Point><coordinates>1.74638628959656,41.2262284755707,0</coordinates></Point></Placemark>
<Placemark><name>GD0REMS</name><description>250011 P.Tec REGIÓ
posicio de les: 06/08/2018 22:05:08</description><styleUrl>#w_grocP</styleUrl><Point><coordinates>1.74606442451477,41.2260460853577,0</coordinates></Point></Placemark>
<Placemark><name>50092</name><description>250092  REGIÓ
posicio de les: 06/08/2018 22:01:38</description><styleUrl>#w_groc</styleUrl><Point><coordinates>1.74627900123596,41.2261855602264,0</coordinates></Point></Placemark>
<Placemark><name>50093</name><description>250093  REGIÓ
posicio de les: 06/08/2018 21:59:52</description><styleUrl>#w_groc</styleUrl><Point><coordinates>1.71309471130371,41.2203276157379,0</coordinates></Point></Placemark>
<Placemark><name>50098</name><description>250098  REGIÓ
posicio de les: 06/08/2018 22:02:15</description><styleUrl>#w_groc</styleUrl><Point><coordinates>1.74638628959656,41.2262177467346,0</coordinates></Point></Placemark>
<Placemark><name>BEG03</name><description>250103 PORT BEG (Metro. Sud)
posicio de les: 06/08/2018 22:03:03</description><styleUrl>#w_verdP</styleUrl><Point><coordinates>1.91864848136902,41.3333880901337,0</coordinates></Point></Placemark>
<Placemark><name>COR56</name><description>250456 PORT.COM COR (Metro. Sud)
posicio de les: 06/08/2018 22:03:51</description><styleUrl>#w_verdP</styleUrl><Point><coordinates>2.07050442695618,41.3606178760529,0</coordinates></Point></Placemark>
<Placemark><name>GAV02</name><description>250502 PORT GAV (Metro. Sud)
posicio de les: 06/08/2018 22:04:11</description><styleUrl>#w_verdP</styleUrl><Point><coordinates>1.99052095413208,41.2995707988739,0</coordinates></Point></Placemark>
<Placemark><name>GAV03</name><description>250503 PORT GAV (Metro. Sud)
posicio de les: 06/08/2018 22:00:11</description><styleUrl>#w_verdP</styleUrl><Point><coordinates>1.99032783508301,41.3002574443817,0</coordinates></Point></Placemark>
<Placemark><name>HOS02</name><description>250702 PORT HOS (Metro. Sud)
posicio de les: 06/08/2018 22:04:18</description><styleUrl>#w_grocP</styleUrl><Point><coordinates>2.10599541664124,41.3703811168671,0</coordinates></Point></Placemark>
<Placemark><name>IGU20E</name><description>250820 PORT IGU (Metro. Sud)
posicio de les: 06/08/2018 22:04:50</description><styleUrl>#w_grocP</styleUrl><Point><coordinates>1.61013007164001,41.5893995761871,0</coordinates></Point></Placemark>
<Placemark><name>50830</name><description>250830 BRP IGU (Metro. Sud)
posicio de les: 06/08/2018 22:05:05</description><styleUrl>#w_verdC</styleUrl><Point><coordinates>1.63058996200562,41.4334559440613,0</coordinates></Point></Placemark>
<Placemark><name>50860</name><description>250860 AEA/AES/ABA IGU (Metro. Sud)
posicio de les: 06/08/2018 22:05:07</description><styleUrl>#w_verdC</styleUrl><Point><coordinates>1.63975238800049,41.4206886291504,0</coordinates></Point></Placemark>
<Placemark><name>251040</name><description>251040 BUP MAR (Metro. Sud)
posicio de les: 06/08/2018 22:03:48</description><styleUrl>#w_grocC</styleUrl><Point><coordinates>1.90239429473877,41.5245008468628,0</coordinates></Point></Placemark>
<Placemark><name>MAR56</name><description>251056 PORT.COM MAR (Metro. Sud)
posicio de les: 06/08/2018 22:01:46</description><styleUrl>#w_verdP</styleUrl><Point><coordinates>1.90786600112915,41.4986765384674,0</coordinates></Point></Placemark>
<Placemark><name>MAR57</name><description>251057 PORT.COM MAR (Metro. Sud)
posicio de les: 06/08/2018 22:04:57</description><styleUrl>#w_grocP</styleUrl><Point><coordinates>1.90275907516479,41.5245759487152,0</coordinates></Point></Placemark>
<Placemark><name>PLL03</name><description>251203 PORT PLL (Metro. Sud)
posicio de les: 06/08/2018 22:04:40</description><styleUrl>#w_verdP</styleUrl><Point><coordinates>2.08154439926147,41.3170802593231,0</coordinates></Point></Placemark>
<Placemark><name>PLL57</name><description>251257 PORT.COM PLL (Metro. Sud)
posicio de les: 06/08/2018 22:04:46</description><styleUrl>#w_verdP</styleUrl><Point><coordinates>2.08174824714661,41.3171446323395,0</coordinates></Point></Placemark>
<Placemark><name>SBOI56</name><description>251356 PORT.COM SBOI (Metro. Sud)
posicio de les: 06/08/2018 22:04:14</description><styleUrl>#w_verdP</styleUrl><Point><coordinates>2.03415513038635,41.3223052024841,0</coordinates></Point></Placemark>
<Placemark><name>SFE07</name><description>251507 PORT SFE (Metro. Sud)
posicio de les: 06/08/2018 22:04:30</description><styleUrl>#w_verdP</styleUrl><Point><coordinates>2.04303860664368,41.3886094093323,0</coordinates></Point></Placemark>
<Placemark><name>SFE56</name><description>251556 PORT.COM SFE (Metro. Sud)
posicio de les: 06/08/2018 22:02:39</description><styleUrl>#w_verdP</styleUrl><Point><coordinates>2.04313516616821,41.3885343074799,0</coordinates></Point></Placemark>
<Placemark><name>SFE57</name><description>251557 PORT.COM SFE (Metro. Sud)
posicio de les: 06/08/2018 22:05:01</description><styleUrl>#w_verdP</styleUrl><Point><coordinates>2.04327464103699,41.3878262042999,0</coordinates></Point></Placemark>
<Placemark><name>VIF06</name><description>251806 PORT VIF (Metro. Sud)
posicio de les: 06/08/2018 22:04:13</description><styleUrl>#w_grocP</styleUrl><Point><coordinates>1.74586057662964,41.2259066104889,0</coordinates></Point></Placemark>
<Placemark><name>51850</name><description>251850 FSV/FRQ/FER/FRM/FRA/FSA VIF (Metro. Sud)
posicio de les: 06/08/2018 22:02:20</description><styleUrl>#w_grocC</styleUrl><Point><coordinates>1.74635410308838,41.2261748313904,0</coordinates></Point></Placemark>
<Placemark><name>VIF56</name><description>251856 PORT.COM VIF (Metro. Sud)
posicio de les: 06/08/2018 22:03:42</description><styleUrl>#w_verdP</styleUrl><Point><coordinates>1.74595713615417,41.2258636951447,0</coordinates></Point></Placemark>
<Placemark><name>51860</name><description>251860 AEA/AES/ABA VIF (Metro. Sud)
posicio de les: 06/08/2018 22:03:23</description><styleUrl>#w_grocC</styleUrl><Point><coordinates>1.745924949646,41.2258958816528,0</coordinates></Point></Placemark>
<Placemark><name>VIL03</name><description>251903 PORT VIL (Metro. Sud)
posicio de les: 06/08/2018 22:03:35</description><styleUrl>#w_grocP</styleUrl><Point><coordinates>1.74580693244934,41.2258958816528,0</coordinates></Point></Placemark>
<Placemark><name>VIL06</name><description>251906 PORT VIL (Metro. Sud)
posicio de les: 06/08/2018 22:03:38</description><styleUrl>#w_verdP</styleUrl><Point><coordinates>1.74618244171143,41.2257242202759,0</coordinates></Point></Placemark>
<Placemark><name>51930</name><description>251930 BRP VIL (Metro. Sud)
posicio de les: 06/08/2018 22:01:39</description><styleUrl>#w_grocC</styleUrl><Point><coordinates>1.74604296684265,41.2258958816528,0</coordinates></Point></Placemark>
<Placemark><name>51948</name><description>251948 BUL VIL (Metro. Sud)
posicio de les: 06/08/2018 22:01:24</description><styleUrl>#w_grocC</styleUrl><Point><coordinates>1.74572110176086,41.2258529663086,0</coordinates></Point></Placemark>
<Placemark><name>VIL56</name><description>251956 PORT.COM VIL (Metro. Sud)
posicio de les: 06/08/2018 22:02:28</description><styleUrl>#w_grocP</styleUrl><Point><coordinates>1.71454310417175,41.2195980548859,0</coordinates></Point></Placemark>
<Placemark><name>RET11</name><description>260011 P.Tec REGIÓ
posicio de les: 06/08/2018 22:05:04</description><styleUrl>#w_verdP</styleUrl><Point><coordinates>1.18526816368103,41.1345398426056,0</coordinates></Point></Placemark>
<Placemark><name>RET12</name><description>260012 P.Tec REGIÓ
posicio de les: 06/08/2018 22:05:00</description><styleUrl>#w_grocP</styleUrl><Point><coordinates>1.18498921394348,41.1345291137695,0</coordinates></Point></Placemark>
<Placemark><name>GE0RET</name><description>260013 P.Tec REGIÓ
posicio de les: 06/08/2018 22:03:24</description><styleUrl>#w_verdP</styleUrl><Point><coordinates>1.25340700149536,41.1153995990753,0</coordinates></Point></Placemark>
<Placemark><name>GE600</name><description>260017 P.Tec REGIÓ
posicio de les: 06/08/2018 22:04:56</description><styleUrl>#w_verdP</styleUrl><Point><coordinates>1.18595480918884,41.1350226402283,0</coordinates></Point></Placemark>
<Placemark><name>CAMB05</name><description>260205 PORT CAMB (Tarragona)
posicio de les: 06/08/2018 22:04:29</description><styleUrl>#w_verdP</styleUrl><Point><coordinates>1.04052543640137,41.0777521133423,0</coordinates></Point></Placemark>
<Placemark><name>60231</name><description>260231 BRP CAMB (Tarragona)
posicio de les: 06/08/2018 22:04:38</description><styleUrl>#w_verdC</styleUrl><Point><coordinates>1.04139447212219,41.0769152641296,0</coordinates></Point></Placemark>
<Placemark><name>FALS07</name><description>260407 PORT FALS (Tarragona)
posicio de les: 06/08/2018 22:04:11</description><styleUrl>#w_verdP</styleUrl><Point><coordinates>0.823427438735962,41.1475431919098,0</coordinates></Point></Placemark>
<Placemark><name>FALS08</name><description>260408 PORT FALS (Tarragona)
posicio de les: 06/08/2018 22:00:48</description><styleUrl>#w_verdP</styleUrl><Point><coordinates>0.823695659637451,41.1478543281555,0</coordinates></Point></Placemark>
<Placemark><name>HOSP02</name><description>260502 PORT HOSP (Tarragona)
posicio de les: 06/08/2018 22:03:22</description><styleUrl>#w_verdP</styleUrl><Point><coordinates>0.962140560150146,41.0288608074188,0</coordinates></Point></Placemark>
<Placemark><name>HOSP03</name><description>260503 PORT HOSP (Tarragona)
posicio de les: 06/08/2018 22:05:07</description><styleUrl>#w_grocP</styleUrl><Point><coordinates>0.962494611740112,41.0286784172058,0</coordinates></Point></Placemark>
<Placemark><name>HOSP04</name><description>260504 PORT HOSP (Tarragona)
posicio de les: 06/08/2018 22:04:08</description><styleUrl>#w_verdP</styleUrl><Point><coordinates>0.92010498046875,40.9934556484222,0</coordinates></Point></Placemark>
<Placemark><name>260508</name><description>260508 PORT HOSP (Tarragona)
posicio de les: 06/08/2018 22:05:06</description><styleUrl>#w_verdP</styleUrl><Point><coordinates>0.919965505599976,40.9934556484222,0</coordinates></Point></Placemark>
<Placemark><name>60531</name><description>260531 BRP HOSP (Tarragona)
posicio de les: 06/08/2018 22:04:00</description><styleUrl>#w_grocC</styleUrl><Point><coordinates>0.962580442428589,41.0286569595337,0</coordinates></Point></Placemark>
<Placemark><name>HOSP56</name><description>260556 PORT.COM HOSP (Tarragona)
posicio de les: 06/08/2018 22:03:35</description><styleUrl>#w_verdP</styleUrl><Point><coordinates>0.962183475494385,41.0289037227631,0</coordinates></Point></Placemark>
<Placemark><name>REUS01</name><description>260801 PORT REUS (Tarragona)
posicio de les: 06/08/2018 22:04:57</description><styleUrl>#w_verdP</styleUrl><Point><coordinates>1.11832022666931,41.1507296562195,0</coordinates></Point></Placemark>
<Placemark><name>REUS02</name><description>260802 PORT REUS (Tarragona)
posicio de les: 06/08/2018 22:04:51</description><styleUrl>#w_verdP</styleUrl><Point><coordinates>1.11820220947266,41.1512017250061,0</coordinates></Point></Placemark>
<Placemark><name>SCDQ04</name><description>261004 PORT SCDQ (Tarragona)
posicio de les: 06/08/2018 22:02:25</description><styleUrl>#w_verdP</styleUrl><Point><coordinates>1.37836575508118,41.5385985374451,0</coordinates></Point></Placemark>
<Placemark><name>61290</name><description>261290 UPC TARR (Tarragona)
posicio de les: 06/08/2018 22:02:26</description><styleUrl>#w_verd</styleUrl><Point><coordinates>1.2213921546936,41.1138439178467,0</coordinates></Point></Placemark>
<Placemark><name>VEND10</name><description>261410 PORT VEND (Tarragona)
posicio de les: 06/08/2018 22:04:10</description><styleUrl>#w_verdP</styleUrl><Point><coordinates>1.69147610664368,41.3392889499664,0</coordinates></Point></Placemark>
<Placemark><name>61434</name><description>261434 BFP VEND (Tarragona)
posicio de les: 06/08/2018 22:05:13</description><styleUrl>#w_verdC</styleUrl><Point><coordinates>1.69167995452881,41.3426685333252,0</coordinates></Point></Placemark>
<Placemark><name>I500</name><description>267500 P.GUAITA GUAITA
posicio de les: 06/08/2018 22:03:41</description><styleUrl>#w_verdP</styleUrl><Point><coordinates>1.42188191413879,41.4067304134369,0</coordinates></Point></Placemark>
<Placemark><name>D64RET</name><description>268044  SERVEIS REGIÓ
posicio de les: 06/08/2018 22:03:31</description><styleUrl>#w_verd</styleUrl><Point><coordinates>1.18542909622192,41.1347115039825,0</coordinates></Point></Placemark>
<Placemark><name>E00RETE</name><description>270014 P.Tec REGIÓ
posicio de les: 06/08/2018 22:04:43</description><styleUrl>#w_verdP</styleUrl><Point><coordinates>0.51336407661438,40.8193910121918,0</coordinates></Point></Placemark>
<Placemark><name>AMET05</name><description>272005 PORT AMET (Terres de l'Ebre)
posicio de les: 06/08/2018 22:03:53</description><styleUrl>#w_grocP</styleUrl><Point><coordinates>0.797785520553589,40.8902764320374,0</coordinates></Point></Placemark>
<Placemark><name>AMPO56</name><description>272156 PORT.COM AMPO (Terres de l'Ebre)
posicio de les: 06/08/2018 22:04:52</description><styleUrl>#w_verdP</styleUrl><Point><coordinates>0.578702688217163,40.6899797916412,0</coordinates></Point></Placemark>
<Placemark><name>ASCO05</name><description>272205 PORT ASCO (Terres de l'Ebre)
posicio de les: 06/08/2018 22:04:44</description><styleUrl>#w_grocP</styleUrl><Point><coordinates>0.568917989730835,41.1876690387726,0</coordinates></Point></Placemark>
<Placemark><name>ASCO56</name><description>272256 PORT.COM ASCO (Terres de l'Ebre)
posicio de les: 06/08/2018 22:03:16</description><styleUrl>#w_verdP</styleUrl><Point><coordinates>0.568757057189941,41.1877870559692,0</coordinates></Point></Placemark>
<Placemark><name>GAND56</name><description>272656 PORT.COM GAND (Terres de l'Ebre)
posicio de les: 06/08/2018 22:02:46</description><styleUrl>#w_verdP</styleUrl><Point><coordinates>0.439388751983643,41.0586547851563,0</coordinates></Point></Placemark>
<Placemark><name>ULLD08</name><description>273108 PORT ULLD (Terres de l'Ebre)
posicio de les: 06/08/2018 22:05:08</description><styleUrl>#w_verdP</styleUrl><Point><coordinates>0.358407497406006,40.6087410449982,0</coordinates></Point></Placemark>
<Placemark><name>I512</name><description>277512 P.GUAITA GUAITA
posicio de les: 06/08/2018 22:01:56</description><styleUrl>#w_verdP</styleUrl><Point><coordinates>0.312745571136475,41.0939526557922,0</coordinates></Point></Placemark>
<Placemark><name>E_93</name><description>278031  SERVEIS REGIÓ
posicio de les: 06/08/2018 22:04:57</description><styleUrl>#w_verd</styleUrl><Point><coordinates>0.512967109680176,40.8191013336182,0</coordinates></Point></Placemark>
</Folder>
<Folder>
<name>Descarregues</name>
</Folder>
<Style id="w_verdP_n"><IconStyle><color>ff00ff00</color><scale>1.0</scale><Icon><href>http://maps.google.com/mapfiles/kml/shapes/man.png</href></Icon><hotSpot x="0.5" y="0" xunits="fraction" yunits="fraction"/></IconStyle><LabelStyle><scale>0.7</scale></LabelStyle></Style>
<Style id="w_verdP_s"><IconStyle><color>ff00ff00</color><scale>1.4</scale><Icon><href>http://maps.google.com/mapfiles/kml/shapes/man.png</href></Icon><hotSpot x="0.5" y="0" xunits="fraction" yunits="fraction"/></IconStyle><LabelStyle><scale>0.7</scale></LabelStyle></Style>
<StyleMap id="w_verdP"><Pair><key>normal</key><styleUrl>#w_verdP_n</styleUrl></Pair><Pair><key>highlight</key><styleUrl>#w_verdP_s</styleUrl></Pair></StyleMap>
<Style id="w_verd_n"><IconStyle><color>ff00ff00</color><scale>0.7</scale><Icon><href>http://maps.google.com/mapfiles/kml/shapes/cabs.png</href></Icon><hotSpot x="0.5" y="0" xunits="fraction" yunits="fraction"/></IconStyle><LabelStyle><scale>0.7</scale></LabelStyle></Style>
<Style id="w_verd_s"><IconStyle><color>ff00ff00</color><scale>1.0</scale><Icon><href>http://maps.google.com/mapfiles/kml/shapes/cabs.png</href></Icon><hotSpot x="0.5" y="0" xunits="fraction" yunits="fraction"/></IconStyle><LabelStyle><scale>0.7</scale></LabelStyle></Style>
<StyleMap id="w_verd"><Pair><key>normal</key><styleUrl>#w_verd_n</styleUrl></Pair><Pair><key>highlight</key><styleUrl>#w_verd_s</styleUrl></Pair></StyleMap>
<Style id="w_verdC_n"><IconStyle><color>ff00ff00</color><scale>1.0</scale><Icon><href>http://maps.google.com/mapfiles/kml/shapes/truck.png</href></Icon><hotSpot x="0.5" y="0" xunits="fraction" yunits="fraction"/></IconStyle><LabelStyle><scale>0.7</scale></LabelStyle></Style>
<Style id="w_verdC_s"><IconStyle><color>ff00ff00</color><scale>1.4</scale><Icon><href>http://maps.google.com/mapfiles/kml/shapes/truck.png</href></Icon><hotSpot x="0.5" y="0" xunits="fraction" yunits="fraction"/></IconStyle><LabelStyle><scale>0.7</scale></LabelStyle></Style>
<StyleMap id="w_verdC"><Pair><key>normal</key><styleUrl>#w_verdC_n</styleUrl></Pair><Pair><key>highlight</key><styleUrl>#w_verdC_s</styleUrl></Pair></StyleMap>
<Style id="w_verdH_n"><IconStyle><color>ff0000ff</color><scale>1.2</scale><Icon><href>http://maps.google.com/mapfiles/kml/shapes/heliport.png</href></Icon><hotSpot x="0.5" y="0" xunits="fraction" yunits="fraction"/></IconStyle><LabelStyle><scale>0.7</scale></LabelStyle></Style>
<Style id="w_verdH_s"><IconStyle><color>ff0000ff</color><scale>1.4</scale><Icon><href>http://maps.google.com/mapfiles/kml/shapes/heliport.png</href></Icon><hotSpot x="0.5" y="0" xunits="fraction" yunits="fraction"/></IconStyle><LabelStyle><scale>0.7</scale></LabelStyle></Style>
<StyleMap id="w_verdH"><Pair><key>normal</key><styleUrl>#w_verdH_n</styleUrl></Pair><Pair><key>highlight</key><styleUrl>#w_verdH_s</styleUrl></Pair></StyleMap>
<Style id="w_verdA_n"><IconStyle><color>ff0000ff</color><scale>1.2</scale><Icon><href>http://maps.google.com/mapfiles/kml/shapes/airports.png</href></Icon><hotSpot x="0.5" y="0" xunits="fraction" yunits="fraction"/></IconStyle><LabelStyle><scale>0.7</scale></LabelStyle></Style>
<Style id="w_verdA_s"><IconStyle><color>ff0000ff</color><scale>1.4</scale><Icon><href>http://maps.google.com/mapfiles/kml/shapes/airports.png</href></Icon><hotSpot x="0.5" y="0" xunits="fraction" yunits="fraction"/></IconStyle><LabelStyle><scale>0.7</scale></LabelStyle></Style>
<StyleMap id="w_verdA"><Pair><key>normal</key><styleUrl>#w_verdA_n</styleUrl></Pair><Pair><key>highlight</key><styleUrl>#w_verdA_s</styleUrl></Pair></StyleMap>
<Style id="w_verdB_n"><IconStyle><color>ff00ff00</color><scale>1.0</scale><Icon><href>http://maps.google.com/mapfiles/kml/shapes/sailing.png</href></Icon><hotSpot x="0.5" y="0" xunits="fraction" yunits="fraction"/></IconStyle><LabelStyle><scale>0.7</scale></LabelStyle></Style>
<Style id="w_verdB_s"><IconStyle><color>ff00ff00</color><scale>1.4</scale><Icon><href>http://maps.google.com/mapfiles/kml/shapes/sailing.png</href></Icon><hotSpot x="0.5" y="0" xunits="fraction" yunits="fraction"/></IconStyle><LabelStyle><scale>0.7</scale></LabelStyle></Style>
<StyleMap id="w_verdB"><Pair><key>normal</key><styleUrl>#w_verdBAR_n</styleUrl></Pair><Pair><key>highlight</key><styleUrl>#w_verdBAR_s</styleUrl></Pair></StyleMap>
<Style id="w_grocP_n"><IconStyle><color>ff00ffff</color><scale>1.0</scale><Icon><href>http://maps.google.com/mapfiles/kml/shapes/man.png</href></Icon><hotSpot x="0.5" y="0" xunits="fraction" yunits="fraction"/></IconStyle><LabelStyle><scale>0.7</scale></LabelStyle></Style>
<Style id="w_grocP_s"><IconStyle><color>ff00ffff</color><scale>1.4</scale><Icon><href>http://maps.google.com/mapfiles/kml/shapes/man.png</href></Icon><hotSpot x="0.5" y="0" xunits="fraction" yunits="fraction"/></IconStyle><LabelStyle><scale>0.7</scale></LabelStyle></Style>
<StyleMap id="w_grocP"><Pair><key>normal</key><styleUrl>#w_grocP_n</styleUrl></Pair><Pair><key>highlight</key><styleUrl>#w_grocP_s</styleUrl></Pair></StyleMap>
<Style id="w_groc_n"><IconStyle><color>ff00ffff</color><scale>0.7</scale><Icon><href>http://maps.google.com/mapfiles/kml/shapes/cabs.png</href></Icon><hotSpot x="0.5" y="0" xunits="fraction" yunits="fraction"/></IconStyle><LabelStyle><scale>0.7</scale></LabelStyle></Style>
<Style id="w_groc_s"><IconStyle><color>ff00ffff</color><scale>1.0</scale><Icon><href>http://maps.google.com/mapfiles/kml/shapes/cabs.png</href></Icon><hotSpot x="0.5" y="0" xunits="fraction" yunits="fraction"/></IconStyle><LabelStyle><scale>0.7</scale></LabelStyle></Style>
<StyleMap id="w_groc"><Pair><key>normal</key><styleUrl>#w_groc_n</styleUrl></Pair><Pair><key>highlight</key><styleUrl>#w_groc_s</styleUrl></Pair></StyleMap>
<Style id="w_grocC_n"><IconStyle><color>ff00ffff</color><scale>1.0</scale><Icon><href>http://maps.google.com/mapfiles/kml/shapes/truck.png</href></Icon><hotSpot x="0.5" y="0" xunits="fraction" yunits="fraction"/></IconStyle><LabelStyle><scale>0.7</scale></LabelStyle></Style>
<Style id="w_grocC_s"><IconStyle><color>ff00ffff</color><scale>1.4</scale><Icon><href>http://maps.google.com/mapfiles/kml/shapes/truck.png</href></Icon><hotSpot x="0.5" y="0" xunits="fraction" yunits="fraction"/></IconStyle><LabelStyle><scale>0.7</scale></LabelStyle></Style>
<StyleMap id="w_grocC"><Pair><key>normal</key><styleUrl>#w_grocC_n</styleUrl></Pair><Pair><key>highlight</key><styleUrl>#w_grocC_s</styleUrl></Pair></StyleMap>
<Style id="w_grocH_n"><IconStyle><color>ff0000ff</color><scale>1.2</scale><Icon><href>http://maps.google.com/mapfiles/kml/shapes/heliport.png</href></Icon><hotSpot x="0.5" y="0" xunits="fraction" yunits="fraction"/></IconStyle><LabelStyle><scale>0.7</scale></LabelStyle></Style>
<Style id="w_grocH_s"><IconStyle><color>ff0000ff</color><scale>1.4</scale><Icon><href>http://maps.google.com/mapfiles/kml/shapes/heliport.png</href></Icon><hotSpot x="0.5" y="0" xunits="fraction" yunits="fraction"/></IconStyle><LabelStyle><scale>0.7</scale></LabelStyle></Style>
<StyleMap id="w_grocH"><Pair><key>normal</key><styleUrl>#w_grocH_n</styleUrl></Pair><Pair><key>highlight</key><styleUrl>#w_grocH_s</styleUrl></Pair></StyleMap>
<Style id="w_grocA_n"><IconStyle><color>ff0000ff</color><scale>1.2</scale><Icon><href>http://maps.google.com/mapfiles/kml/shapes/airports.png</href></Icon><hotSpot x="0.5" y="0" xunits="fraction" yunits="fraction"/></IconStyle><LabelStyle><scale>0.7</scale></LabelStyle></Style>
<Style id="w_grocA_s"><IconStyle><color>ff0000ff</color><scale>1.4</scale><Icon><href>http://maps.google.com/mapfiles/kml/shapes/airports.png</href></Icon><hotSpot x="0.5" y="0" xunits="fraction" yunits="fraction"/></IconStyle><LabelStyle><scale>0.7</scale></LabelStyle></Style>
<StyleMap id="w_grocA"><Pair><key>normal</key><styleUrl>#w_grocA_n</styleUrl></Pair><Pair><key>highlight</key><styleUrl>#w_grocA_s</styleUrl></Pair></StyleMap>
<Style id="w_grocB_n"><IconStyle><color>ff00ffff</color><scale>1.0</scale><Icon><href>http://maps.google.com/mapfiles/kml/shapes/sailing.png</href></Icon><hotSpot x="0.5" y="0" xunits="fraction" yunits="fraction"/></IconStyle><LabelStyle><scale>0.7</scale></LabelStyle></Style>
<Style id="w_grocB_s"><IconStyle><color>ff00ffff</color><scale>1.4</scale><Icon><href>http://maps.google.com/mapfiles/kml/shapes/sailing.png</href></Icon><hotSpot x="0.5" y="0" xunits="fraction" yunits="fraction"/></IconStyle><LabelStyle><scale>0.7</scale></LabelStyle></Style>
<StyleMap id="w_grocB"><Pair><key>normal</key><styleUrl>#w_grocBAR_n</styleUrl></Pair><Pair><key>highlight</key><styleUrl>#w_grocBAR_s</styleUrl></Pair></StyleMap>
<Style id="w_vermellP_n"><IconStyle><color>ff0000ff</color><scale>1.0</scale><Icon><href>http://maps.google.com/mapfiles/kml/shapes/man.png</href></Icon><hotSpot x="0.5" y="0" xunits="fraction" yunits="fraction"/></IconStyle><LabelStyle><scale>0.7</scale></LabelStyle></Style>
<Style id="w_vermellP_s"><IconStyle><color>ff0000ff</color><scale>1.4</scale><Icon><href>http://maps.google.com/mapfiles/kml/shapes/man.png</href></Icon><hotSpot x="0.5" y="0" xunits="fraction" yunits="fraction"/></IconStyle><LabelStyle><scale>0.7</scale></LabelStyle></Style>
<StyleMap id="w_vermellP"><Pair><key>normal</key><styleUrl>#w_vermellP_n</styleUrl></Pair><Pair><key>highlight</key><styleUrl>#w_vermellP_s</styleUrl></Pair></StyleMap>
<Style id="w_vermell_n"><IconStyle><color>ff0000ff</color><scale>0.7</scale><Icon><href>http://maps.google.com/mapfiles/kml/shapes/cabs.png</href></Icon><hotSpot x="0.5" y="0" xunits="fraction" yunits="fraction"/></IconStyle><LabelStyle><scale>0.7</scale></LabelStyle></Style>
<Style id="w_vermell_s"><IconStyle><color>ff0000ff</color><scale>1.0</scale><Icon><href>http://maps.google.com/mapfiles/kml/shapes/cabs.png</href></Icon><hotSpot x="0.5" y="0" xunits="fraction" yunits="fraction"/></IconStyle><LabelStyle><scale>0.7</scale></LabelStyle></Style>
<StyleMap id="w_vermell"><Pair><key>normal</key><styleUrl>#w_vermell_n</styleUrl></Pair><Pair><key>highlight</key><styleUrl>#w_vermell_s</styleUrl></Pair></StyleMap>
<Style id="w_vermellC_n"><IconStyle><color>ff0000ff</color><scale>1.0</scale><Icon><href>http://maps.google.com/mapfiles/kml/shapes/truck.png</href></Icon><hotSpot x="0.5" y="0" xunits="fraction" yunits="fraction"/></IconStyle><LabelStyle><scale>0.7</scale></LabelStyle></Style>
<Style id="w_vermellC_s"><IconStyle><color>ff0000ff</color><scale>1.4</scale><Icon><href>http://maps.google.com/mapfiles/kml/shapes/truck.png</href></Icon><hotSpot x="0.5" y="0" xunits="fraction" yunits="fraction"/></IconStyle><LabelStyle><scale>0.7</scale></LabelStyle></Style>
<StyleMap id="w_vermellC"><Pair><key>normal</key><styleUrl>#w_vermellC_n</styleUrl></Pair><Pair><key>highlight</key><styleUrl>#w_vermellC_s</styleUrl></Pair></StyleMap>
<Style id="w_vermellH_n"><IconStyle><color>ff0000ff</color><scale>1.2</scale><Icon><href>http://maps.google.com/mapfiles/kml/shapes/heliport.png</href></Icon><hotSpot x="0.5" y="0" xunits="fraction" yunits="fraction"/></IconStyle><LabelStyle><scale>0.7</scale></LabelStyle></Style>
<Style id="w_vermellH_s"><IconStyle><color>ff0000ff</color><scale>1.4</scale><Icon><href>http://maps.google.com/mapfiles/kml/shapes/heliport.png</href></Icon><hotSpot x="0.5" y="0" xunits="fraction" yunits="fraction"/></IconStyle><LabelStyle><scale>0.7</scale></LabelStyle></Style>
<StyleMap id="w_vermellH"><Pair><key>normal</key><styleUrl>#w_vermellH_n</styleUrl></Pair><Pair><key>highlight</key><styleUrl>#w_vermellH_s</styleUrl></Pair></StyleMap>
<Style id="w_vermellA_n"><IconStyle><color>ff0000ff</color><scale>1.2</scale><Icon><href>http://maps.google.com/mapfiles/kml/shapes/airports.png</href></Icon><hotSpot x="0.5" y="0" xunits="fraction" yunits="fraction"/></IconStyle><LabelStyle><scale>0.7</scale></LabelStyle></Style>
<Style id="w_vermellA_s"><IconStyle><color>ff0000ff</color><scale>1.4</scale><Icon><href>http://maps.google.com/mapfiles/kml/shapes/airports.png</href></Icon><hotSpot x="0.5" y="0" xunits="fraction" yunits="fraction"/></IconStyle><LabelStyle><scale>0.7</scale></LabelStyle></Style>
<StyleMap id="w_vermellA"><Pair><key>normal</key><styleUrl>#w_vermellA_n</styleUrl></Pair><Pair><key>highlight</key><styleUrl>#w_vermellA_s</styleUrl></Pair></StyleMap>
<Style id="w_vermellB_n"><IconStyle><color>ff0000ff</color><scale>1.0</scale><Icon><href>http://maps.google.com/mapfiles/kml/shapes/sailing.png</href></Icon><hotSpot x="0.5" y="0" xunits="fraction" yunits="fraction"/></IconStyle><LabelStyle><scale>0.7</scale></LabelStyle></Style>
<Style id="w_vermellB_s"><IconStyle><color>ff0000ff</color><scale>1.4</scale><Icon><href>http://maps.google.com/mapfiles/kml/shapes/sailing.png</href></Icon><hotSpot x="0.5" y="0" xunits="fraction" yunits="fraction"/></IconStyle><LabelStyle><scale>0.7</scale></LabelStyle></Style>
<StyleMap id="w_vermellB"><Pair><key>normal</key><styleUrl>#w_vermellBAR_n</styleUrl></Pair><Pair><key>highlight</key><styleUrl>#w_vermellBAR_s</styleUrl></Pair></StyleMap>
<Style id="w_descarrega"><IconStyle><color>ff00ffff</color><scale>0.5</scale><Icon><href>http://maps.google.com/mapfiles/kml/shapes/road_shield3.png</href></Icon></IconStyle><LabelStyle><scale>0.7</scale></LabelStyle></Style><Style id="actuacio"><IconStyle><color>ff00ffff</color><scale>0.8</scale><Icon><href>http://maps.google.com/mapfiles/kml/shapes/caution.png</href></Icon></IconStyle><LabelStyle><scale>0.7</scale></LabelStyle></Style></Document></kml>