<?xml version="1.0" encoding="UTF-8"?>
<kml xmlns="http://www.opengis.net/kml/2.2" xmlns:gx="http://www.google.com/kml/ext/2.2" xmlns:kml="http://www.opengis.net/kml/2.2" xmlns:atom="http://www.w3.org/2005/Atom">
<Document>
<name>Terminals</name>
<Snippet maxLines="2">Created 08/08/2018 03:10:45</Snippet>
<Folder>
<name>Terminals</name>
<Placemark><name>03373</name><description>203373 GRAE
posicio de les: 08/08/2018 03:08:15</description><styleUrl>#w_groc</styleUrl><Point><coordinates>1.22811913490295,42.5589430332184,0</coordinates></Point></Placemark>
<Placemark><name>GGRAF03</name><description>204203 P.UT
posicio de les: 08/08/2018 03:09:18</description><styleUrl>#w_grocP</styleUrl><Point><coordinates>2.80738234519959,41.9604349136353,0</coordinates></Point></Placemark>
<Placemark><name>GGRAF04</name><description>204204 P.UT
posicio de les: 08/08/2018 03:08:58</description><styleUrl>#w_verdP</styleUrl><Point><coordinates>2.80648112297058,41.9604349136353,0</coordinates></Point></Placemark>
<Placemark><name>GGRAF07</name><description>204207 P.UT
posicio de les: 08/08/2018 03:09:33</description><styleUrl>#w_verdP</styleUrl><Point><coordinates>2.80642747879028,41.9608211517334,0</coordinates></Point></Placemark>
<Placemark><name>LGRAF01</name><description>204301 P.UT
posicio de les: 08/08/2018 03:07:27</description><styleUrl>#w_grocP</styleUrl><Point><coordinates>1.14285707473755,42.0460188388824,0</coordinates></Point></Placemark>
<Placemark><name>LGRAF02</name><description>204302 P.UT
posicio de les: 08/08/2018 03:10:07</description><styleUrl>#w_verdP</styleUrl><Point><coordinates>1.14342570304871,42.0453536510468,0</coordinates></Point></Placemark>
<Placemark><name>LGRAF04</name><description>204304 P.UT
posicio de les: 08/08/2018 03:09:50</description><styleUrl>#w_grocP</styleUrl><Point><coordinates>1.14340424537659,42.0453214645386,0</coordinates></Point></Placemark>
<Placemark><name>LGRAF08</name><description>204308 P.UT
posicio de les: 08/08/2018 03:09:57</description><styleUrl>#w_grocP</styleUrl><Point><coordinates>1.14296436309814,42.0461046695709,0</coordinates></Point></Placemark>
<Placemark><name>04390</name><description>204390 
posicio de les: 08/08/2018 03:09:10</description><styleUrl>#w_groc</styleUrl><Point><coordinates>1.14383339881897,42.0451498031616,0</coordinates></Point></Placemark>
<Placemark><name>05178</name><description>205178 BRAVO
posicio de les: 08/08/2018 03:09:55</description><styleUrl>#w_verd</styleUrl><Point><coordinates>2.09497690200806,41.8185997009277,0</coordinates></Point></Placemark>
<Placemark><name>VIEL12</name><description>208012 P.PT VARAN
posicio de les: 08/08/2018 03:09:58</description><styleUrl>#w_grocP</styleUrl><Point><coordinates>0.801165103912354,42.6994907855988,0</coordinates></Point></Placemark>
<Placemark><name>VIEL17</name><description>208017 BASE CCA VARAN
posicio de les: 08/08/2018 03:09:12</description><styleUrl>#w_groc</styleUrl><Point><coordinates>0.796691179275513,42.7080523967743,0</coordinates></Point></Placemark>
<Placemark><name>GE0REC</name><description>210013 P.Tec REGIÓ
posicio de les: 08/08/2018 03:10:48</description><styleUrl>#w_verdP</styleUrl><Point><coordinates>1.84611082077026,41.7212462425232,0</coordinates></Point></Placemark>
<Placemark><name>10071</name><description>210071  REGIÓ
posicio de les: 08/08/2018 03:09:16</description><styleUrl>#w_groc</styleUrl><Point><coordinates>1.85202240943909,41.7410409450531,0</coordinates></Point></Placemark>
<Placemark><name>10072</name><description>210072  REGIÓ
posicio de les: 08/08/2018 03:09:46</description><styleUrl>#w_groc</styleUrl><Point><coordinates>1.851646900177,41.7413091659546,0</coordinates></Point></Placemark>
<Placemark><name>10082</name><description>210082  REGIÓ
posicio de les: 08/08/2018 03:10:13</description><styleUrl>#w_groc</styleUrl><Point><coordinates>1.51274442672729,41.9894242286682,0</coordinates></Point></Placemark>
<Placemark><name>CAR05</name><description>210505 PORT CAR (Centre)
posicio de les: 08/08/2018 03:10:07</description><styleUrl>#w_verdP</styleUrl><Point><coordinates>1.70550942420959,41.9012653827667,0</coordinates></Point></Placemark>
<Placemark><name>CAB56</name><description>210656 PORT.COM CAB (Centre)
posicio de les: 08/08/2018 03:09:55</description><styleUrl>#w_grocP</styleUrl><Point><coordinates>1.68518900871277,41.6657567024231,0</coordinates></Point></Placemark>
<Placemark><name>MAN03</name><description>211003 PORT MAN (Centre)
posicio de les: 08/08/2018 03:08:43</description><styleUrl>#w_verdP</styleUrl><Point><coordinates>1.85214042663574,41.7410945892334,0</coordinates></Point></Placemark>
<Placemark><name>MOI6</name><description>211106 PORT MOI (Centre)
posicio de les: 08/08/2018 03:09:52</description><styleUrl>#w_grocP</styleUrl><Point><coordinates>2.0862865447998,41.8117010593414,0</coordinates></Point></Placemark>
<Placemark><name>PRA07</name><description>211407 PORT PRA (Centre)
posicio de les: 08/08/2018 03:07:45</description><styleUrl>#w_grocP</styleUrl><Point><coordinates>2.0360004901886,42.0079958438873,0</coordinates></Point></Placemark>
<Placemark><name>TOR02</name><description>212002 PORT TOR (Centre)
posicio de les: 08/08/2018 03:10:18</description><styleUrl>#w_grocP</styleUrl><Point><coordinates>2.26729273796082,42.048465013504,0</coordinates></Point></Placemark>
<Placemark><name>217224</name><description>217224 P.GUAITA GUAITA
posicio de les: 08/08/2018 03:09:09</description><styleUrl>#w_verdP</styleUrl><Point><coordinates>2.03631162643433,42.0080065727234,0</coordinates></Point></Placemark>
<Placemark><name>E0REG</name><description>220012 P.Tec REGIÓ
posicio de les: 08/08/2018 03:08:11</description><styleUrl>#w_verdP</styleUrl><Point><coordinates>3.16084384918213,42.2765064239502,0</coordinates></Point></Placemark>
<Placemark><name>AMER57</name><description>220157 PORT.COM AMER (Girona)
posicio de les: 08/08/2018 03:09:41</description><styleUrl>#w_verdP</styleUrl><Point><coordinates>2.59614229202271,42.0114290714264,0</coordinates></Point></Placemark>
<Placemark><name>CASS56</name><description>220856 PORT.COM CASS (Girona)
posicio de les: 08/08/2018 03:10:07</description><styleUrl>#w_verdP</styleUrl><Point><coordinates>2.88425445556641,41.8794965744019,0</coordinates></Point></Placemark>
<Placemark><name>20880</name><description>220880 UPCL/USL CASS (Girona)
posicio de les: 08/08/2018 03:10:22</description><styleUrl>#w_groc</styleUrl><Point><coordinates>2.88364291191101,41.8796789646149,0</coordinates></Point></Placemark>
<Placemark><name>20930</name><description>220930 BRP ESCA (Girona)
posicio de les: 08/08/2018 03:07:59</description><styleUrl>#w_grocC</styleUrl><Point><coordinates>3.1271767616272,42.1153271198273,0</coordinates></Point></Placemark>
<Placemark><name>GIRO56</name><description>221156 PORT.COM GIRO (Girona)
posicio de les: 08/08/2018 03:10:08</description><styleUrl>#w_verdP</styleUrl><Point><coordinates>2.80597686767578,41.9601988792419,0</coordinates></Point></Placemark>
<Placemark><name>21190</name><description>221190 UPC GIRO (Girona)
posicio de les: 08/08/2018 03:09:30</description><styleUrl>#w_groc</styleUrl><Point><coordinates>2.80652403831482,41.9604027271271,0</coordinates></Point></Placemark>
<Placemark><name>JONQ56</name><description>221356 PORT.COM JONQ (Girona)
posicio de les: 08/08/2018 03:09:08</description><styleUrl>#w_verdP</styleUrl><Point><coordinates>2.87642240524292,42.4120330810547,0</coordinates></Point></Placemark>
<Placemark><name>LLAN57</name><description>221457 PORT.COM LLAN (Girona)
posicio de les: 08/08/2018 03:08:44</description><styleUrl>#w_verdP</styleUrl><Point><coordinates>3.15340876579285,42.3592686653137,0</coordinates></Point></Placemark>
<Placemark><name>LLOR56</name><description>221556 PORT.COM LLOR (Girona)
posicio de les: 08/08/2018 03:08:03</description><styleUrl>#w_verdP</styleUrl><Point><coordinates>2.83354997634888,41.7205381393433,0</coordinates></Point></Placemark>
<Placemark><name>21630</name><description>221630 BRP MACA (Girona)
posicio de les: 08/08/2018 03:10:47</description><styleUrl>#w_grocC</styleUrl><Point><coordinates>2.7531373500824,41.7795360088348,0</coordinates></Point></Placemark>
<Placemark><name>21655</name><description>221655 FSV/FRQ/FER/FRM/FRA/FSA MACA (Girona)
posicio de les: 08/08/2018 03:10:29</description><styleUrl>#w_grocC</styleUrl><Point><coordinates>2.75306224822998,41.7794930934906,0</coordinates></Point></Placemark>
<Placemark><name>MAÇA57</name><description>221657 PORT.COM MACA (Girona)
posicio de les: 08/08/2018 03:07:25</description><styleUrl>#w_grocP</styleUrl><Point><coordinates>2.7530300617218,41.7795038223267,0</coordinates></Point></Placemark>
<Placemark><name>OLOT56</name><description>221756 PORT.COM OLOT (Girona)
posicio de les: 08/08/2018 03:10:26</description><styleUrl>#w_verdP</styleUrl><Point><coordinates>2.47454166412354,42.1900641918182,0</coordinates></Point></Placemark>
<Placemark><name>OLOT57</name><description>221757 PORT.COM OLOT (Girona)
posicio de les: 08/08/2018 03:08:20</description><styleUrl>#w_verdP</styleUrl><Point><coordinates>2.4758505821228,42.1899247169495,0</coordinates></Point></Placemark>
<Placemark><name>PALA56</name><description>221856 PORT.COM PALA (Girona)
posicio de les: 08/08/2018 03:10:26</description><styleUrl>#w_grocP</styleUrl><Point><coordinates>3.15627336502075,41.9257915019989,0</coordinates></Point></Placemark>
<Placemark><name>21890</name><description>221890 UPC PALA (Girona)
posicio de les: 08/08/2018 03:08:41</description><styleUrl>#w_groc</styleUrl><Point><coordinates>3.15656304359436,41.9257378578186,0</coordinates></Point></Placemark>
<Placemark><name>RIPO56</name><description>222156 PORT.COM RIPO (Girona)
posicio de les: 08/08/2018 03:10:11</description><styleUrl>#w_verdP</styleUrl><Point><coordinates>2.16831922531128,42.2149765491486,0</coordinates></Point></Placemark>
<Placemark><name>ROSE06</name><description>222206 PORT ROSE (Girona)
posicio de les: 08/08/2018 03:09:11</description><styleUrl>#w_grocP</styleUrl><Point><coordinates>3.160640001297,42.2765064239502,0</coordinates></Point></Placemark>
<Placemark><name>VALL57</name><description>222857 PORT.COM VALL (Girona)
posicio de les: 08/08/2018 03:09:33</description><styleUrl>#w_verdP</styleUrl><Point><coordinates>3.03171157836914,41.808750629425,0</coordinates></Point></Placemark>
<Placemark><name>I308</name><description>227308 P.GUAITA GUAITA
posicio de les: 08/08/2018 03:08:58</description><styleUrl>#w_verdP</styleUrl><Point><coordinates>3.1561553478241,41.9257915019989,0</coordinates></Point></Placemark>
<Placemark><name>D3REG</name><description>228043  SERVEIS REGIÓ
posicio de les: 08/08/2018 03:10:13</description><styleUrl>#w_verd</styleUrl><Point><coordinates>2.80688881874084,41.9604241847992,0</coordinates></Point></Placemark>
<Placemark><name>D0REL</name><description>230010 P.CG REGIÓ
posicio de les: 08/08/2018 03:09:46</description><styleUrl>#w_verdP</styleUrl><Point><coordinates>0.604923963546753,41.6237962245941,0</coordinates></Point></Placemark>
<Placemark><name>RELL12</name><description>230012 P.Tec REGIÓ
posicio de les: 08/08/2018 03:07:58</description><styleUrl>#w_verdP</styleUrl><Point><coordinates>1.22835516929626,42.5593185424805,0</coordinates></Point></Placemark>
<Placemark><name>30092</name><description>230092  REGIÓ
posicio de les: 08/08/2018 03:07:29</description><styleUrl>#w_groc</styleUrl><Point><coordinates>1.22806549072266,42.558878660202,0</coordinates></Point></Placemark>
<Placemark><name>30096</name><description>230096  REGIÓ
posicio de les: 08/08/2018 03:06:25</description><styleUrl>#w_verd</styleUrl><Point><coordinates>1.14388704299927,42.0451498031616,0</coordinates></Point></Placemark>
<Placemark><name>AGRA01</name><description>230201 PORT AGRA (Lleida)
posicio de les: 08/08/2018 03:05:05</description><styleUrl>#w_verdP</styleUrl><Point><coordinates>1.04988098144531,41.7978930473328,0</coordinates></Point></Placemark>
<Placemark><name>ALMA07</name><description>230307 PORT ALMA (Lleida)
posicio de les: 08/08/2018 03:09:20</description><styleUrl>#w_verdP</styleUrl><Point><coordinates>0.442854166030884,41.7293787002563,0</coordinates></Point></Placemark>
<Placemark><name>30630</name><description>230630 BRP BALA (Lleida)
posicio de les: 08/08/2018 03:07:10</description><styleUrl>#w_grocC</styleUrl><Point><coordinates>1.14391922950745,42.045031785965,0</coordinates></Point></Placemark>
<Placemark><name>BALA56</name><description>230656 PORT.COM BALA (Lleida)
posicio de les: 08/08/2018 03:10:09</description><styleUrl>#w_grocP</styleUrl><Point><coordinates>1.14323258399963,42.0454931259155,0</coordinates></Point></Placemark>
<Placemark><name>BORG05</name><description>230705 PORT BORG (Lleida)
posicio de les: 08/08/2018 03:09:40</description><styleUrl>#w_verdP</styleUrl><Point><coordinates>0.844895839691162,41.5073668956757,0</coordinates></Point></Placemark>
<Placemark><name>32234</name><description>232234 BFP OLIA (Lleida)
posicio de les: 08/08/2018 03:06:06</description><styleUrl>#w_grocC</styleUrl><Point><coordinates>1.14379048347473,42.0452034473419,0</coordinates></Point></Placemark>
<Placemark><name>POBL01</name><description>232401 PORT POBL (Lleida)
posicio de les: 08/08/2018 03:08:34</description><styleUrl>#w_verdP</styleUrl><Point><coordinates>0.964533090591431,42.2388696670532,0</coordinates></Point></Placemark>
<Placemark><name>PONS01</name><description>232601 PORT PONS (Lleida)
posicio de les: 08/08/2018 03:10:36</description><styleUrl>#w_verdP</styleUrl><Point><coordinates>1.1955463886261,41.9048595428467,0</coordinates></Point></Placemark>
<Placemark><name>PONS06</name><description>232606 PORT PONS (Lleida)
posicio de les: 08/08/2018 03:04:51</description><styleUrl>#w_verdP</styleUrl><Point><coordinates>1.14368319511414,42.0453214645386,0</coordinates></Point></Placemark>
<Placemark><name>32634</name><description>232634 BFP PONS (Lleida)
posicio de les: 08/08/2018 03:06:50</description><styleUrl>#w_grocC</styleUrl><Point><coordinates>1.14392995834351,42.0452034473419,0</coordinates></Point></Placemark>
<Placemark><name>SORT04</name><description>233004 PORT SORT (Lleida)
posicio de les: 08/08/2018 03:10:23</description><styleUrl>#w_verdP</styleUrl><Point><coordinates>1.22820496559143,42.5590074062347,0</coordinates></Point></Placemark>
<Placemark><name>TAR02</name><description>233102 PORT TAR (Lleida)
posicio de les: 08/08/2018 03:09:09</description><styleUrl>#w_verdP</styleUrl><Point><coordinates>1.14954113960266,41.6510152816772,0</coordinates></Point></Placemark>
<Placemark><name>GE0REMN</name><description>240013 P.Tec REGIÓ
posicio de les: 08/08/2018 03:10:43</description><styleUrl>#w_verdP</styleUrl><Point><coordinates>2.50702857971191,41.6955506801605,0</coordinates></Point></Placemark>
<Placemark><name>40290</name><description>240290 UPC BAD (Metro. Nord)
posicio de les: 08/08/2018 03:07:03</description><styleUrl>#w_groc</styleUrl><Point><coordinates>2.0254647731781,41.5681350231171,0</coordinates></Point></Placemark>
<Placemark><name>CER06</name><description>240506 PORT CER (Metro. Nord)
posicio de les: 08/08/2018 03:08:47</description><styleUrl>#w_verdP</styleUrl><Point><coordinates>2.11114525794983,41.5025067329407,0</coordinates></Point></Placemark>
<Placemark><name>40660</name><description>240660 AEA/AES/ABA GRA (Metro. Nord)
posicio de les: 08/08/2018 03:08:38</description><styleUrl>#w_grocC</styleUrl><Point><coordinates>2.27362275123596,41.5876185894012,0</coordinates></Point></Placemark>
<Placemark><name>MOL03</name><description>241003 PORT MOL (Metro. Nord)
posicio de les: 08/08/2018 03:09:37</description><styleUrl>#w_verdP</styleUrl><Point><coordinates>2.20142841339111,41.5374290943146,0</coordinates></Point></Placemark>
<Placemark><name>41260</name><description>241260 AEA/AES/ABA PIN (Metro. Nord)
posicio de les: 08/08/2018 03:07:41</description><styleUrl>#w_verdC</styleUrl><Point><coordinates>2.27354764938354,41.5932726860046,0</coordinates></Point></Placemark>
<Placemark><name>RUB01</name><description>241301 PORT RUB (Metro. Nord)
posicio de les: 08/08/2018 03:07:38</description><styleUrl>#w_grocP</styleUrl><Point><coordinates>2.03507781028748,41.4730668067932,0</coordinates></Point></Placemark>
<Placemark><name>SAB01</name><description>241401 PORT SAB (Metro. Nord)
posicio de les: 08/08/2018 03:09:31</description><styleUrl>#w_verdP</styleUrl><Point><coordinates>2.1053946018219,41.5417635440826,0</coordinates></Point></Placemark>
<Placemark><name>SAB14</name><description>241414 PORT SAB (Metro. Nord)
posicio de les: 08/08/2018 03:10:40</description><styleUrl>#w_verdP</styleUrl><Point><coordinates>2.10399985313416,41.5422999858856,0</coordinates></Point></Placemark>
<Placemark><name>41640</name><description>241640 BUP SCE (Metro. Nord)
posicio de les: 08/08/2018 03:10:17</description><styleUrl>#w_grocC</styleUrl><Point><coordinates>2.50711441040039,41.6951429843903,0</coordinates></Point></Placemark>
<Placemark><name>241858</name><description>241858 BSAL SCG (Metro. Nord)
posicio de les: 08/08/2018 03:10:05</description><styleUrl>#w_verdB</styleUrl><Point><coordinates>2.20904588699341,41.4633572101593,0</coordinates></Point></Placemark>
<Placemark><name>TER09</name><description>242009 PORT TER (Metro. Nord)
posicio de les: 08/08/2018 03:09:51</description><styleUrl>#w_grocP</styleUrl><Point><coordinates>2.02581882476807,41.5681993961334,0</coordinates></Point></Placemark>
<Placemark><name>TOD56</name><description>242156 PORT.COM TOD (Metro. Nord)
posicio de les: 08/08/2018 03:10:18</description><styleUrl>#w_verdP</styleUrl><Point><coordinates>2.71682024002075,41.6912806034088,0</coordinates></Point></Placemark>
<Placemark><name>50071</name><description>250071  REGIÓ
posicio de les: 08/08/2018 03:08:47</description><styleUrl>#w_groc</styleUrl><Point><coordinates>2.03409075737,41.3227021694183,0</coordinates></Point></Placemark>
<Placemark><name>50093</name><description>250093  REGIÓ
posicio de les: 08/08/2018 03:07:42</description><styleUrl>#w_groc</styleUrl><Point><coordinates>2.03428387641907,41.3229596614838,0</coordinates></Point></Placemark>
<Placemark><name>COR03</name><description>250403 PORT COR (Metro. Sud)
posicio de les: 08/08/2018 03:07:29</description><styleUrl>#w_grocP</styleUrl><Point><coordinates>2.07070827484131,41.3606607913971,0</coordinates></Point></Placemark>
<Placemark><name>GAV11</name><description>250511 PORT GAV (Metro. Sud)
posicio de les: 08/08/2018 03:08:53</description><styleUrl>#w_grocP</styleUrl><Point><coordinates>1.99007034301758,41.3001072406769,0</coordinates></Point></Placemark>
<Placemark><name>GAV57</name><description>250557 PORT.COM GAV (Metro. Sud)
posicio de les: 08/08/2018 03:08:33</description><styleUrl>#w_verdP</styleUrl><Point><coordinates>1.99055314064026,41.3001179695129,0</coordinates></Point></Placemark>
<Placemark><name>HOS06</name><description>250706 PORT HOS (Metro. Sud)
posicio de les: 08/08/2018 03:05:56</description><styleUrl>#w_verdP</styleUrl><Point><coordinates>2.10575938224792,41.3708961009979,0</coordinates></Point></Placemark>
<Placemark><name>50848</name><description>250848 BUL IGU (Metro. Sud)
posicio de les: 08/08/2018 03:07:08</description><styleUrl>#w_grocC</styleUrl><Point><coordinates>1.61300539970398,41.5873181819916,0</coordinates></Point></Placemark>
<Placemark><name>51030</name><description>251030 BRP MAR (Metro. Sud)
posicio de les: 08/08/2018 03:08:30</description><styleUrl>#w_grocC</styleUrl><Point><coordinates>1.90795183181763,41.4990091323853,0</coordinates></Point></Placemark>
<Placemark><name>MAR56</name><description>251056 PORT.COM MAR (Metro. Sud)
posicio de les: 08/08/2018 03:09:15</description><styleUrl>#w_verdP</styleUrl><Point><coordinates>1.90778017044067,41.4989233016968,0</coordinates></Point></Placemark>
<Placemark><name>MAR57</name><description>251057 PORT.COM MAR (Metro. Sud)
posicio de les: 08/08/2018 03:10:31</description><styleUrl>#w_verdP</styleUrl><Point><coordinates>1.90768361091614,41.4989447593689,0</coordinates></Point></Placemark>
<Placemark><name>SBOI02</name><description>251302 PORT SBOI (Metro. Sud)
posicio de les: 08/08/2018 03:10:01</description><styleUrl>#w_grocP</styleUrl><Point><coordinates>2.03419804573059,41.3227236270905,0</coordinates></Point></Placemark>
<Placemark><name>SBOI04</name><description>251304 PORT SBOI (Metro. Sud)
posicio de les: 08/08/2018 03:09:35</description><styleUrl>#w_verdP</styleUrl><Point><coordinates>2.03423023223877,41.3229167461395,0</coordinates></Point></Placemark>
<Placemark><name>SBOI07</name><description>251307 PORT SBOI (Metro. Sud)
posicio de les: 08/08/2018 03:08:53</description><styleUrl>#w_grocP</styleUrl><Point><coordinates>2.03436970710754,41.3228952884674,0</coordinates></Point></Placemark>
<Placemark><name>SBOI56</name><description>251356 PORT.COM SBOI (Metro. Sud)
posicio de les: 08/08/2018 03:05:51</description><styleUrl>#w_verdP</styleUrl><Point><coordinates>2.03475594520569,41.3229596614838,0</coordinates></Point></Placemark>
<Placemark><name>SFE56</name><description>251556 PORT.COM SFE (Metro. Sud)
posicio de les: 08/08/2018 03:10:00</description><styleUrl>#w_verdP</styleUrl><Point><coordinates>2.04288840293884,41.3887059688568,0</coordinates></Point></Placemark>
<Placemark><name>SVIC04</name><description>251604 PORT SCC (Metro. Sud)
posicio de les: 08/08/2018 03:08:38</description><styleUrl>#w_verdP</styleUrl><Point><coordinates>2.00629234313965,41.3848435878754,0</coordinates></Point></Placemark>
<Placemark><name>SIT03</name><description>251703 PORT SIT (Metro. Sud)
posicio de les: 08/08/2018 03:09:19</description><styleUrl>#w_grocP</styleUrl><Point><coordinates>1.80927872657776,41.2412917613983,0</coordinates></Point></Placemark>
<Placemark><name>51780</name><description>251780 UPCL/USL SIT (Metro. Sud)
posicio de les: 08/08/2018 03:06:33</description><styleUrl>#w_groc</styleUrl><Point><coordinates>1.71345949172974,41.2200593948364,0</coordinates></Point></Placemark>
<Placemark><name>D1REMS</name><description>258041  SERVEIS REGIÓ
posicio de les: 08/08/2018 03:10:46</description><styleUrl>#w_verd</styleUrl><Point><coordinates>2.03189134597778,41.3211143016815,0</coordinates></Point></Placemark>
<Placemark><name>60850</name><description>260850 FSV/FRQ/FER/FRM/FRA/FSA REUS (Tarragona)
posicio de les: 08/08/2018 03:09:33</description><styleUrl>#w_grocC</styleUrl><Point><coordinates>1.06313109397888,41.1366748809814,0</coordinates></Point></Placemark>
<Placemark><name>TARR03</name><description>261203 PORT TARR (Tarragona)
posicio de les: 08/08/2018 03:06:17</description><styleUrl>#w_verdP</styleUrl><Point><coordinates>1.2214994430542,41.1139619350433,0</coordinates></Point></Placemark>
<Placemark><name>E00RETE</name><description>270014 P.Tec REGIÓ
posicio de les: 08/08/2018 03:08:59</description><styleUrl>#w_verdP</styleUrl><Point><coordinates>0.51336407661438,40.819251537323,0</coordinates></Point></Placemark>
<Placemark><name>AMPO57</name><description>272157 PORT.COM AMPO (Terres de l'Ebre)
posicio de les: 08/08/2018 03:10:39</description><styleUrl>#w_grocP</styleUrl><Point><coordinates>0.579571723937988,40.6894969940186,0</coordinates></Point></Placemark>
<Placemark><name>ASCO05</name><description>272205 PORT ASCO (Terres de l'Ebre)
posicio de les: 08/08/2018 03:09:50</description><styleUrl>#w_verdP</styleUrl><Point><coordinates>0.568885803222656,41.1878085136414,0</coordinates></Point></Placemark>
<Placemark><name>ULLD08</name><description>273108 PORT ULLD (Terres de l'Ebre)
posicio de les: 08/08/2018 03:05:26</description><styleUrl>#w_grocP</styleUrl><Point><coordinates>0.358396768569946,40.6093633174896,0</coordinates></Point></Placemark>
<Placemark><name>CMTE56</name><description>274556 PORT.COM Parc X
posicio de les: 08/08/2018 03:10:29</description><styleUrl>#w_verdP</styleUrl><Point><coordinates>0.57928204536438,40.6896793842316,0</coordinates></Point></Placemark>
<Placemark><name>92078</name><description>292078 UE SST
posicio de les: 08/08/2018 03:08:26</description><styleUrl>#w_groc</styleUrl><Point><coordinates>1.92700624465942,41.4822506904602,0</coordinates></Point></Placemark>
<Placemark><name>93080</name><description>293080 UPCL/USL ESC
posicio de les: 08/08/2018 03:09:19</description><styleUrl>#w_groc</styleUrl><Point><coordinates>2.11271166801453,41.5015947818756,0</coordinates></Point></Placemark>
</Folder>
<Folder>
<name>Descarregues</name>
</Folder>
<Style id="w_verdP_n"><IconStyle><color>ff00ff00</color><scale>1.0</scale><Icon><href>http://maps.google.com/mapfiles/kml/shapes/man.png</href></Icon><hotSpot x="0.5" y="0" xunits="fraction" yunits="fraction"/></IconStyle><LabelStyle><scale>0.7</scale></LabelStyle></Style>
<Style id="w_verdP_s"><IconStyle><color>ff00ff00</color><scale>1.4</scale><Icon><href>http://maps.google.com/mapfiles/kml/shapes/man.png</href></Icon><hotSpot x="0.5" y="0" xunits="fraction" yunits="fraction"/></IconStyle><LabelStyle><scale>0.7</scale></LabelStyle></Style>
<StyleMap id="w_verdP"><Pair><key>normal</key><styleUrl>#w_verdP_n</styleUrl></Pair><Pair><key>highlight</key><styleUrl>#w_verdP_s</styleUrl></Pair></StyleMap>
<Style id="w_verd_n"><IconStyle><color>ff00ff00</color><scale>0.7</scale><Icon><href>http://maps.google.com/mapfiles/kml/shapes/cabs.png</href></Icon><hotSpot x="0.5" y="0" xunits="fraction" yunits="fraction"/></IconStyle><LabelStyle><scale>0.7</scale></LabelStyle></Style>
<Style id="w_verd_s"><IconStyle><color>ff00ff00</color><scale>1.0</scale><Icon><href>http://maps.google.com/mapfiles/kml/shapes/cabs.png</href></Icon><hotSpot x="0.5" y="0" xunits="fraction" yunits="fraction"/></IconStyle><LabelStyle><scale>0.7</scale></LabelStyle></Style>
<StyleMap id="w_verd"><Pair><key>normal</key><styleUrl>#w_verd_n</styleUrl></Pair><Pair><key>highlight</key><styleUrl>#w_verd_s</styleUrl></Pair></StyleMap>
<Style id="w_verdC_n"><IconStyle><color>ff00ff00</color><scale>1.0</scale><Icon><href>http://maps.google.com/mapfiles/kml/shapes/truck.png</href></Icon><hotSpot x="0.5" y="0" xunits="fraction" yunits="fraction"/></IconStyle><LabelStyle><scale>0.7</scale></LabelStyle></Style>
<Style id="w_verdC_s"><IconStyle><color>ff00ff00</color><scale>1.4</scale><Icon><href>http://maps.google.com/mapfiles/kml/shapes/truck.png</href></Icon><hotSpot x="0.5" y="0" xunits="fraction" yunits="fraction"/></IconStyle><LabelStyle><scale>0.7</scale></LabelStyle></Style>
<StyleMap id="w_verdC"><Pair><key>normal</key><styleUrl>#w_verdC_n</styleUrl></Pair><Pair><key>highlight</key><styleUrl>#w_verdC_s</styleUrl></Pair></StyleMap>
<Style id="w_verdH_n"><IconStyle><color>ff0000ff</color><scale>1.2</scale><Icon><href>http://maps.google.com/mapfiles/kml/shapes/heliport.png</href></Icon><hotSpot x="0.5" y="0" xunits="fraction" yunits="fraction"/></IconStyle><LabelStyle><scale>0.7</scale></LabelStyle></Style>
<Style id="w_verdH_s"><IconStyle><color>ff0000ff</color><scale>1.4</scale><Icon><href>http://maps.google.com/mapfiles/kml/shapes/heliport.png</href></Icon><hotSpot x="0.5" y="0" xunits="fraction" yunits="fraction"/></IconStyle><LabelStyle><scale>0.7</scale></LabelStyle></Style>
<StyleMap id="w_verdH"><Pair><key>normal</key><styleUrl>#w_verdH_n</styleUrl></Pair><Pair><key>highlight</key><styleUrl>#w_verdH_s</styleUrl></Pair></StyleMap>
<Style id="w_verdA_n"><IconStyle><color>ff0000ff</color><scale>1.2</scale><Icon><href>http://maps.google.com/mapfiles/kml/shapes/airports.png</href></Icon><hotSpot x="0.5" y="0" xunits="fraction" yunits="fraction"/></IconStyle><LabelStyle><scale>0.7</scale></LabelStyle></Style>
<Style id="w_verdA_s"><IconStyle><color>ff0000ff</color><scale>1.4</scale><Icon><href>http://maps.google.com/mapfiles/kml/shapes/airports.png</href></Icon><hotSpot x="0.5" y="0" xunits="fraction" yunits="fraction"/></IconStyle><LabelStyle><scale>0.7</scale></LabelStyle></Style>
<StyleMap id="w_verdA"><Pair><key>normal</key><styleUrl>#w_verdA_n</styleUrl></Pair><Pair><key>highlight</key><styleUrl>#w_verdA_s</styleUrl></Pair></StyleMap>
<Style id="w_verdB_n"><IconStyle><color>ff00ff00</color><scale>1.0</scale><Icon><href>http://maps.google.com/mapfiles/kml/shapes/sailing.png</href></Icon><hotSpot x="0.5" y="0" xunits="fraction" yunits="fraction"/></IconStyle><LabelStyle><scale>0.7</scale></LabelStyle></Style>
<Style id="w_verdB_s"><IconStyle><color>ff00ff00</color><scale>1.4</scale><Icon><href>http://maps.google.com/mapfiles/kml/shapes/sailing.png</href></Icon><hotSpot x="0.5" y="0" xunits="fraction" yunits="fraction"/></IconStyle><LabelStyle><scale>0.7</scale></LabelStyle></Style>
<StyleMap id="w_verdB"><Pair><key>normal</key><styleUrl>#w_verdBAR_n</styleUrl></Pair><Pair><key>highlight</key><styleUrl>#w_verdBAR_s</styleUrl></Pair></StyleMap>
<Style id="w_grocP_n"><IconStyle><color>ff00ffff</color><scale>1.0</scale><Icon><href>http://maps.google.com/mapfiles/kml/shapes/man.png</href></Icon><hotSpot x="0.5" y="0" xunits="fraction" yunits="fraction"/></IconStyle><LabelStyle><scale>0.7</scale></LabelStyle></Style>
<Style id="w_grocP_s"><IconStyle><color>ff00ffff</color><scale>1.4</scale><Icon><href>http://maps.google.com/mapfiles/kml/shapes/man.png</href></Icon><hotSpot x="0.5" y="0" xunits="fraction" yunits="fraction"/></IconStyle><LabelStyle><scale>0.7</scale></LabelStyle></Style>
<StyleMap id="w_grocP"><Pair><key>normal</key><styleUrl>#w_grocP_n</styleUrl></Pair><Pair><key>highlight</key><styleUrl>#w_grocP_s</styleUrl></Pair></StyleMap>
<Style id="w_groc_n"><IconStyle><color>ff00ffff</color><scale>0.7</scale><Icon><href>http://maps.google.com/mapfiles/kml/shapes/cabs.png</href></Icon><hotSpot x="0.5" y="0" xunits="fraction" yunits="fraction"/></IconStyle><LabelStyle><scale>0.7</scale></LabelStyle></Style>
<Style id="w_groc_s"><IconStyle><color>ff00ffff</color><scale>1.0</scale><Icon><href>http://maps.google.com/mapfiles/kml/shapes/cabs.png</href></Icon><hotSpot x="0.5" y="0" xunits="fraction" yunits="fraction"/></IconStyle><LabelStyle><scale>0.7</scale></LabelStyle></Style>
<StyleMap id="w_groc"><Pair><key>normal</key><styleUrl>#w_groc_n</styleUrl></Pair><Pair><key>highlight</key><styleUrl>#w_groc_s</styleUrl></Pair></StyleMap>
<Style id="w_grocC_n"><IconStyle><color>ff00ffff</color><scale>1.0</scale><Icon><href>http://maps.google.com/mapfiles/kml/shapes/truck.png</href></Icon><hotSpot x="0.5" y="0" xunits="fraction" yunits="fraction"/></IconStyle><LabelStyle><scale>0.7</scale></LabelStyle></Style>
<Style id="w_grocC_s"><IconStyle><color>ff00ffff</color><scale>1.4</scale><Icon><href>http://maps.google.com/mapfiles/kml/shapes/truck.png</href></Icon><hotSpot x="0.5" y="0" xunits="fraction" yunits="fraction"/></IconStyle><LabelStyle><scale>0.7</scale></LabelStyle></Style>
<StyleMap id="w_grocC"><Pair><key>normal</key><styleUrl>#w_grocC_n</styleUrl></Pair><Pair><key>highlight</key><styleUrl>#w_grocC_s</styleUrl></Pair></StyleMap>
<Style id="w_grocH_n"><IconStyle><color>ff0000ff</color><scale>1.2</scale><Icon><href>http://maps.google.com/mapfiles/kml/shapes/heliport.png</href></Icon><hotSpot x="0.5" y="0" xunits="fraction" yunits="fraction"/></IconStyle><LabelStyle><scale>0.7</scale></LabelStyle></Style>
<Style id="w_grocH_s"><IconStyle><color>ff0000ff</color><scale>1.4</scale><Icon><href>http://maps.google.com/mapfiles/kml/shapes/heliport.png</href></Icon><hotSpot x="0.5" y="0" xunits="fraction" yunits="fraction"/></IconStyle><LabelStyle><scale>0.7</scale></LabelStyle></Style>
<StyleMap id="w_grocH"><Pair><key>normal</key><styleUrl>#w_grocH_n</styleUrl></Pair><Pair><key>highlight</key><styleUrl>#w_grocH_s</styleUrl></Pair></StyleMap>
<Style id="w_grocA_n"><IconStyle><color>ff0000ff</color><scale>1.2</scale><Icon><href>http://maps.google.com/mapfiles/kml/shapes/airports.png</href></Icon><hotSpot x="0.5" y="0" xunits="fraction" yunits="fraction"/></IconStyle><LabelStyle><scale>0.7</scale></LabelStyle></Style>
<Style id="w_grocA_s"><IconStyle><color>ff0000ff</color><scale>1.4</scale><Icon><href>http://maps.google.com/mapfiles/kml/shapes/airports.png</href></Icon><hotSpot x="0.5" y="0" xunits="fraction" yunits="fraction"/></IconStyle><LabelStyle><scale>0.7</scale></LabelStyle></Style>
<StyleMap id="w_grocA"><Pair><key>normal</key><styleUrl>#w_grocA_n</styleUrl></Pair><Pair><key>highlight</key><styleUrl>#w_grocA_s</styleUrl></Pair></StyleMap>
<Style id="w_grocB_n"><IconStyle><color>ff00ffff</color><scale>1.0</scale><Icon><href>http://maps.google.com/mapfiles/kml/shapes/sailing.png</href></Icon><hotSpot x="0.5" y="0" xunits="fraction" yunits="fraction"/></IconStyle><LabelStyle><scale>0.7</scale></LabelStyle></Style>
<Style id="w_grocB_s"><IconStyle><color>ff00ffff</color><scale>1.4</scale><Icon><href>http://maps.google.com/mapfiles/kml/shapes/sailing.png</href></Icon><hotSpot x="0.5" y="0" xunits="fraction" yunits="fraction"/></IconStyle><LabelStyle><scale>0.7</scale></LabelStyle></Style>
<StyleMap id="w_grocB"><Pair><key>normal</key><styleUrl>#w_grocBAR_n</styleUrl></Pair><Pair><key>highlight</key><styleUrl>#w_grocBAR_s</styleUrl></Pair></StyleMap>
<Style id="w_vermellP_n"><IconStyle><color>ff0000ff</color><scale>1.0</scale><Icon><href>http://maps.google.com/mapfiles/kml/shapes/man.png</href></Icon><hotSpot x="0.5" y="0" xunits="fraction" yunits="fraction"/></IconStyle><LabelStyle><scale>0.7</scale></LabelStyle></Style>
<Style id="w_vermellP_s"><IconStyle><color>ff0000ff</color><scale>1.4</scale><Icon><href>http://maps.google.com/mapfiles/kml/shapes/man.png</href></Icon><hotSpot x="0.5" y="0" xunits="fraction" yunits="fraction"/></IconStyle><LabelStyle><scale>0.7</scale></LabelStyle></Style>
<StyleMap id="w_vermellP"><Pair><key>normal</key><styleUrl>#w_vermellP_n</styleUrl></Pair><Pair><key>highlight</key><styleUrl>#w_vermellP_s</styleUrl></Pair></StyleMap>
<Style id="w_vermell_n"><IconStyle><color>ff0000ff</color><scale>0.7</scale><Icon><href>http://maps.google.com/mapfiles/kml/shapes/cabs.png</href></Icon><hotSpot x="0.5" y="0" xunits="fraction" yunits="fraction"/></IconStyle><LabelStyle><scale>0.7</scale></LabelStyle></Style>
<Style id="w_vermell_s"><IconStyle><color>ff0000ff</color><scale>1.0</scale><Icon><href>http://maps.google.com/mapfiles/kml/shapes/cabs.png</href></Icon><hotSpot x="0.5" y="0" xunits="fraction" yunits="fraction"/></IconStyle><LabelStyle><scale>0.7</scale></LabelStyle></Style>
<StyleMap id="w_vermell"><Pair><key>normal</key><styleUrl>#w_vermell_n</styleUrl></Pair><Pair><key>highlight</key><styleUrl>#w_vermell_s</styleUrl></Pair></StyleMap>
<Style id="w_vermellC_n"><IconStyle><color>ff0000ff</color><scale>1.0</scale><Icon><href>http://maps.google.com/mapfiles/kml/shapes/truck.png</href></Icon><hotSpot x="0.5" y="0" xunits="fraction" yunits="fraction"/></IconStyle><LabelStyle><scale>0.7</scale></LabelStyle></Style>
<Style id="w_vermellC_s"><IconStyle><color>ff0000ff</color><scale>1.4</scale><Icon><href>http://maps.google.com/mapfiles/kml/shapes/truck.png</href></Icon><hotSpot x="0.5" y="0" xunits="fraction" yunits="fraction"/></IconStyle><LabelStyle><scale>0.7</scale></LabelStyle></Style>
<StyleMap id="w_vermellC"><Pair><key>normal</key><styleUrl>#w_vermellC_n</styleUrl></Pair><Pair><key>highlight</key><styleUrl>#w_vermellC_s</styleUrl></Pair></StyleMap>
<Style id="w_vermellH_n"><IconStyle><color>ff0000ff</color><scale>1.2</scale><Icon><href>http://maps.google.com/mapfiles/kml/shapes/heliport.png</href></Icon><hotSpot x="0.5" y="0" xunits="fraction" yunits="fraction"/></IconStyle><LabelStyle><scale>0.7</scale></LabelStyle></Style>
<Style id="w_vermellH_s"><IconStyle><color>ff0000ff</color><scale>1.4</scale><Icon><href>http://maps.google.com/mapfiles/kml/shapes/heliport.png</href></Icon><hotSpot x="0.5" y="0" xunits="fraction" yunits="fraction"/></IconStyle><LabelStyle><scale>0.7</scale></LabelStyle></Style>
<StyleMap id="w_vermellH"><Pair><key>normal</key><styleUrl>#w_vermellH_n</styleUrl></Pair><Pair><key>highlight</key><styleUrl>#w_vermellH_s</styleUrl></Pair></StyleMap>
<Style id="w_vermellA_n"><IconStyle><color>ff0000ff</color><scale>1.2</scale><Icon><href>http://maps.google.com/mapfiles/kml/shapes/airports.png</href></Icon><hotSpot x="0.5" y="0" xunits="fraction" yunits="fraction"/></IconStyle><LabelStyle><scale>0.7</scale></LabelStyle></Style>
<Style id="w_vermellA_s"><IconStyle><color>ff0000ff</color><scale>1.4</scale><Icon><href>http://maps.google.com/mapfiles/kml/shapes/airports.png</href></Icon><hotSpot x="0.5" y="0" xunits="fraction" yunits="fraction"/></IconStyle><LabelStyle><scale>0.7</scale></LabelStyle></Style>
<StyleMap id="w_vermellA"><Pair><key>normal</key><styleUrl>#w_vermellA_n</styleUrl></Pair><Pair><key>highlight</key><styleUrl>#w_vermellA_s</styleUrl></Pair></StyleMap>
<Style id="w_vermellB_n"><IconStyle><color>ff0000ff</color><scale>1.0</scale><Icon><href>http://maps.google.com/mapfiles/kml/shapes/sailing.png</href></Icon><hotSpot x="0.5" y="0" xunits="fraction" yunits="fraction"/></IconStyle><LabelStyle><scale>0.7</scale></LabelStyle></Style>
<Style id="w_vermellB_s"><IconStyle><color>ff0000ff</color><scale>1.4</scale><Icon><href>http://maps.google.com/mapfiles/kml/shapes/sailing.png</href></Icon><hotSpot x="0.5" y="0" xunits="fraction" yunits="fraction"/></IconStyle><LabelStyle><scale>0.7</scale></LabelStyle></Style>
<StyleMap id="w_vermellB"><Pair><key>normal</key><styleUrl>#w_vermellBAR_n</styleUrl></Pair><Pair><key>highlight</key><styleUrl>#w_vermellBAR_s</styleUrl></Pair></StyleMap>
<Style id="w_descarrega"><IconStyle><color>ff00ffff</color><scale>0.5</scale><Icon><href>http://maps.google.com/mapfiles/kml/shapes/road_shield3.png</href></Icon></IconStyle><LabelStyle><scale>0.7</scale></LabelStyle></Style><Style id="actuacio"><IconStyle><color>ff00ffff</color><scale>0.8</scale><Icon><href>http://maps.google.com/mapfiles/kml/shapes/caution.png</href></Icon></IconStyle><LabelStyle><scale>0.7</scale></LabelStyle></Style></Document></kml>