<?xml version="1.0" encoding="UTF-8"?>
<kml xmlns="http://www.opengis.net/kml/2.2" xmlns:gx="http://www.google.com/kml/ext/2.2" xmlns:kml="http://www.opengis.net/kml/2.2" xmlns:atom="http://www.w3.org/2005/Atom">
<Document>
<name>Terminals</name>
<Snippet maxLines="2">Created 04/08/2018 23:46:49</Snippet>
<Folder>
<name>Terminals</name>
<Placemark><name>A0102</name><description>200102 PORT Dept.
posicio de les: 04/08/2018 23:43:06</description><styleUrl>#w_verdP</styleUrl><Point><coordinates>0.796369314193726,42.707462310791,0</coordinates></Point></Placemark>
<Placemark><name>03373</name><description>203373 GRAE
posicio de les: 04/08/2018 23:46:28</description><styleUrl>#w_verd</styleUrl><Point><coordinates>1.41554117202759,42.5652515888214,0</coordinates></Point></Placemark>
<Placemark><name>GGRAF12</name><description>204212 P.REC
posicio de les: 04/08/2018 23:46:48</description><styleUrl>#w_verdP</styleUrl><Point><coordinates>2.97525644302368,42.029732465744,0</coordinates></Point></Placemark>
<Placemark><name>OP05087</name><description>205287 OP.AAV
posicio de les: 04/08/2018 23:46:02</description><styleUrl>#w_verdP</styleUrl><Point><coordinates>1.15816712379456,41.1478972434998,0</coordinates></Point></Placemark>
<Placemark><name>VIEL12</name><description>208012 P.PT VARAN
posicio de les: 04/08/2018 23:45:55</description><styleUrl>#w_verdP</styleUrl><Point><coordinates>0.795789957046509,42.7064001560211,0</coordinates></Point></Placemark>
<Placemark><name>VIEL17</name><description>208017 BASE CCA VARAN
posicio de les: 04/08/2018 23:46:01</description><styleUrl>#w_verd</styleUrl><Point><coordinates>0.796637535095215,42.7079772949219,0</coordinates></Point></Placemark>
<Placemark><name>E0REC</name><description>210012 P.Tec REGIÓ
posicio de les: 04/08/2018 23:44:59</description><styleUrl>#w_grocP</styleUrl><Point><coordinates>1.85127139091492,41.7414164543152,0</coordinates></Point></Placemark>
<Placemark><name>BER57</name><description>210357 PORT.COM BER (Centre)
posicio de les: 04/08/2018 23:46:21</description><styleUrl>#w_verdP</styleUrl><Point><coordinates>1.85753703117371,42.1038579940796,0</coordinates></Point></Placemark>
<Placemark><name>CAF56</name><description>210456 PORT.COM CAF (Centre)
posicio de les: 04/08/2018 23:44:50</description><styleUrl>#w_verdP</styleUrl><Point><coordinates>1.5274965763092,41.7308163642883,0</coordinates></Point></Placemark>
<Placemark><name>PRA07</name><description>211407 PORT PRA (Centre)
posicio de les: 04/08/2018 23:46:07</description><styleUrl>#w_verdP</styleUrl><Point><coordinates>2.03595757484436,42.0076954364777,0</coordinates></Point></Placemark>
<Placemark><name>PUIG01</name><description>211501 PORT PUIG (Centre)
posicio de les: 04/08/2018 23:44:52</description><styleUrl>#w_verdP</styleUrl><Point><coordinates>1.92152380943298,42.4205732345581,0</coordinates></Point></Placemark>
<Placemark><name>VIC03</name><description>212103 PORT VIC (Centre)
posicio de les: 04/08/2018 23:45:42</description><styleUrl>#w_grocP</styleUrl><Point><coordinates>2.2565746307373,41.9233453273773,0</coordinates></Point></Placemark>
<Placemark><name>12130</name><description>212130 BRP VIC (Centre)
posicio de les: 04/08/2018 23:46:39</description><styleUrl>#w_grocC</styleUrl><Point><coordinates>2.25645661354065,41.9232702255249,0</coordinates></Point></Placemark>
<Placemark><name>12160</name><description>212160 AEA/AES/ABA VIC (Centre)
posicio de les: 04/08/2018 23:44:31</description><styleUrl>#w_grocC</styleUrl><Point><coordinates>2.25978255271912,41.9247078895569,0</coordinates></Point></Placemark>
<Placemark><name>20092</name><description>220092  REGIÓ
posicio de les: 04/08/2018 23:46:48</description><styleUrl>#w_verd</styleUrl><Point><coordinates>3.13096404075623,42.2701120376587,0</coordinates></Point></Placemark>
<Placemark><name>20134</name><description>220134 BFP AMER (Girona)
posicio de les: 04/08/2018 23:45:06</description><styleUrl>#w_grocC</styleUrl><Point><coordinates>3.15375208854675,42.3578631877899,0</coordinates></Point></Placemark>
<Placemark><name>BANY07</name><description>220307 PORT BANY (Girona)
posicio de les: 04/08/2018 23:43:17</description><styleUrl>#w_verdP</styleUrl><Point><coordinates>2.78653621673584,42.1171617507935,0</coordinates></Point></Placemark>
<Placemark><name>20330</name><description>220330 BRP BANY (Girona)
posicio de les: 04/08/2018 23:46:18</description><styleUrl>#w_grocC</styleUrl><Point><coordinates>2.78493762016296,42.1176767349243,0</coordinates></Point></Placemark>
<Placemark><name>PERA02</name><description>220402 PORT PERA (Girona)
posicio de les: 04/08/2018 23:46:31</description><styleUrl>#w_verdP</styleUrl><Point><coordinates>2.94261932373047,42.2627198696136,0</coordinates></Point></Placemark>
<Placemark><name>20430</name><description>220430 BRP PERA (Girona)
posicio de les: 04/08/2018 23:46:53</description><styleUrl>#w_verdC</styleUrl><Point><coordinates>2.94415354728699,42.2572481632233,0</coordinates></Point></Placemark>
<Placemark><name>20434</name><description>220434 BFP PERA (Girona)
posicio de les: 04/08/2018 23:46:47</description><styleUrl>#w_verdC</styleUrl><Point><coordinates>2.94390678405762,42.2589218616486,0</coordinates></Point></Placemark>
<Placemark><name>CASS56</name><description>220856 PORT.COM CASS (Girona)
posicio de les: 04/08/2018 23:46:47</description><styleUrl>#w_verdP</styleUrl><Point><coordinates>2.88421154022217,41.8798506259918,0</coordinates></Point></Placemark>
<Placemark><name>FIGU 01</name><description>221001 PORT FIGU (Girona)
posicio de les: 04/08/2018 23:45:34</description><styleUrl>#w_verdP</styleUrl><Point><coordinates>2.87257075309753,42.4066472053528,0</coordinates></Point></Placemark>
<Placemark><name>21034</name><description>221034 BFP FIGU (Girona)
posicio de les: 04/08/2018 23:46:46</description><styleUrl>#w_verdC</styleUrl><Point><coordinates>2.87969470024109,42.0545375347137,0</coordinates></Point></Placemark>
<Placemark><name>FIGU56</name><description>221056 PORT.COM FIGU (Girona)
posicio de les: 04/08/2018 23:46:49</description><styleUrl>#w_verdP</styleUrl><Point><coordinates>2.97061085700989,42.2722578048706,0</coordinates></Point></Placemark>
<Placemark><name>GIRO56</name><description>221156 PORT.COM GIRO (Girona)
posicio de les: 04/08/2018 23:46:23</description><styleUrl>#w_grocP</styleUrl><Point><coordinates>2.80619144439697,41.9606709480286,0</coordinates></Point></Placemark>
<Placemark><name>HOST05</name><description>221205 PORT HOST (Girona)
posicio de les: 04/08/2018 23:45:23</description><styleUrl>#w_verdP</styleUrl><Point><coordinates>2.62426257133484,41.7482507228851,0</coordinates></Point></Placemark>
<Placemark><name>21230</name><description>221230 BRP HOST (Girona)
posicio de les: 04/08/2018 23:42:50</description><styleUrl>#w_grocC</styleUrl><Point><coordinates>2.62450933456421,41.7482078075409,0</coordinates></Point></Placemark>
<Placemark><name>HOST57</name><description>221257 PORT.COM HOST (Girona)
posicio de les: 04/08/2018 23:46:48</description><styleUrl>#w_verdP</styleUrl><Point><coordinates>2.62452006340027,41.7483150959015,0</coordinates></Point></Placemark>
<Placemark><name>JONQ03</name><description>221303 PORT JONQ (Girona)
posicio de les: 04/08/2018 23:46:20</description><styleUrl>#w_verdP</styleUrl><Point><coordinates>2.87639021873474,42.4120008945465,0</coordinates></Point></Placemark>
<Placemark><name>JONQ56</name><description>221356 PORT.COM JONQ (Girona)
posicio de les: 04/08/2018 23:43:10</description><styleUrl>#w_verdP</styleUrl><Point><coordinates>2.87652969360352,42.411721944809,0</coordinates></Point></Placemark>
<Placemark><name>21434</name><description>221434 BFP LLAN (Girona)
posicio de les: 04/08/2018 23:46:54</description><styleUrl>#w_verdC</styleUrl><Point><coordinates>2.94210433959961,42.3006463050842,0</coordinates></Point></Placemark>
<Placemark><name>LLAN57</name><description>221457 PORT.COM LLAN (Girona)
posicio de les: 04/08/2018 23:42:23</description><styleUrl>#w_verdP</styleUrl><Point><coordinates>3.15310835838318,42.3576700687408,0</coordinates></Point></Placemark>
<Placemark><name>LLOR05</name><description>221505 PORT LLOR (Girona)
posicio de les: 04/08/2018 23:45:54</description><styleUrl>#w_verdP</styleUrl><Point><coordinates>2.83621072769165,41.6994988918304,0</coordinates></Point></Placemark>
<Placemark><name>21630</name><description>221630 BRP MACA (Girona)
posicio de les: 04/08/2018 23:43:45</description><styleUrl>#w_grocC</styleUrl><Point><coordinates>2.75298714637756,41.7794179916382,0</coordinates></Point></Placemark>
<Placemark><name>OLOT56</name><description>221756 PORT.COM OLOT (Girona)
posicio de les: 04/08/2018 23:44:20</description><styleUrl>#w_verdP</styleUrl><Point><coordinates>2.47503519058228,42.1900856494904,0</coordinates></Point></Placemark>
<Placemark><name>PALA56</name><description>221856 PORT.COM PALA (Girona)
posicio de les: 04/08/2018 23:43:42</description><styleUrl>#w_grocP</styleUrl><Point><coordinates>3.15630555152893,41.9262421131134,0</coordinates></Point></Placemark>
<Placemark><name>PALA57</name><description>221857 PORT.COM PALA (Girona)
posicio de les: 04/08/2018 23:44:24</description><styleUrl>#w_grocP</styleUrl><Point><coordinates>3.15590858459473,41.9257915019989,0</coordinates></Point></Placemark>
<Placemark><name>RIPO03</name><description>222103 PORT RIPO (Girona)
posicio de les: 04/08/2018 23:43:20</description><styleUrl>#w_grocP</styleUrl><Point><coordinates>2.16816902160645,42.2153091430664,0</coordinates></Point></Placemark>
<Placemark><name>22130</name><description>222130 BRP RIPO (Girona)
posicio de les: 04/08/2018 23:42:32</description><styleUrl>#w_grocC</styleUrl><Point><coordinates>2.16756820678711,42.2147297859192,0</coordinates></Point></Placemark>
<Placemark><name>ROSE56</name><description>222256 PORT.COM ROSE (Girona)
posicio de les: 04/08/2018 23:46:04</description><styleUrl>#w_verdP</styleUrl><Point><coordinates>3.16041469573975,42.2765707969666,0</coordinates></Point></Placemark>
<Placemark><name>22290</name><description>222290 UPC ROSE (Girona)
posicio de les: 04/08/2018 23:46:47</description><styleUrl>#w_verd</styleUrl><Point><coordinates>2.94992566108704,42.2177338600159,0</coordinates></Point></Placemark>
<Placemark><name>TORR56</name><description>222656 PORT.COM TORR (Girona)
posicio de les: 04/08/2018 23:46:00</description><styleUrl>#w_grocP</styleUrl><Point><coordinates>3.16782832145691,42.047563791275,0</coordinates></Point></Placemark>
<Placemark><name>VALL57</name><description>222857 PORT.COM VALL (Girona)
posicio de les: 04/08/2018 23:45:15</description><styleUrl>#w_verdP</styleUrl><Point><coordinates>3.0317223072052,41.8086862564087,0</coordinates></Point></Placemark>
<Placemark><name>I308</name><description>227308 P.GUAITA GUAITA
posicio de les: 04/08/2018 23:45:39</description><styleUrl>#w_verdP</styleUrl><Point><coordinates>3.15535068511963,41.9257915019989,0</coordinates></Point></Placemark>
<Placemark><name>D9REG</name><description>228049  SERVEIS REGIÓ
posicio de les: 04/08/2018 23:45:16</description><styleUrl>#w_groc</styleUrl><Point><coordinates>2.80615925788879,41.9603383541107,0</coordinates></Point></Placemark>
<Placemark><name>D0REL</name><description>230010 P.CG REGIÓ
posicio de les: 04/08/2018 23:46:26</description><styleUrl>#w_verdP</styleUrl><Point><coordinates>0.607616901397705,41.6219830513,0</coordinates></Point></Placemark>
<Placemark><name>30091</name><description>230091  REGIÓ
posicio de les: 04/08/2018 23:46:12</description><styleUrl>#w_groc</styleUrl><Point><coordinates>0.605438947677612,41.6241180896759,0</coordinates></Point></Placemark>
<Placemark><name>30092</name><description>230092  REGIÓ
posicio de les: 04/08/2018 23:44:34</description><styleUrl>#w_verd</styleUrl><Point><coordinates>0.605342388153076,41.6233777999878,0</coordinates></Point></Placemark>
<Placemark><name>ALMA01</name><description>230301 PORT ALMA (Lleida)
posicio de les: 04/08/2018 23:44:58</description><styleUrl>#w_grocP</styleUrl><Point><coordinates>0.433863401412964,41.7319536209106,0</coordinates></Point></Placemark>
<Placemark><name>ALMA02</name><description>230302 PORT ALMA (Lleida)
posicio de les: 04/08/2018 23:46:28</description><styleUrl>#w_grocP</styleUrl><Point><coordinates>0.433745384216309,41.7319643497467,0</coordinates></Point></Placemark>
<Placemark><name>BORG05</name><description>230705 PORT BORG (Lleida)
posicio de les: 04/08/2018 23:46:14</description><styleUrl>#w_grocP</styleUrl><Point><coordinates>0.844831466674805,41.5073776245117,0</coordinates></Point></Placemark>
<Placemark><name>BORG06</name><description>230706 PORT BORG (Lleida)
posicio de les: 04/08/2018 23:46:03</description><styleUrl>#w_grocP</styleUrl><Point><coordinates>0.844852924346924,41.5070450305939,0</coordinates></Point></Placemark>
<Placemark><name>BORG56</name><description>230756 PORT.COM BORG (Lleida)
posicio de les: 04/08/2018 23:44:19</description><styleUrl>#w_verdP</styleUrl><Point><coordinates>0.84470272064209,41.5071523189545,0</coordinates></Point></Placemark>
<Placemark><name>GUIS05</name><description>231405 PORT GUIS (Lleida)
posicio de les: 04/08/2018 23:45:39</description><styleUrl>#w_verdP</styleUrl><Point><coordinates>1.28296494483948,41.7821431159973,0</coordinates></Point></Placemark>
<Placemark><name>31430</name><description>231430 BRP GUIS (Lleida)
posicio de les: 04/08/2018 23:42:11</description><styleUrl>#w_grocC</styleUrl><Point><coordinates>1.2829327583313,41.7820680141449,0</coordinates></Point></Placemark>
<Placemark><name>MOLL07</name><description>232007 PORT MOLL (Lleida)
posicio de les: 04/08/2018 23:46:01</description><styleUrl>#w_grocP</styleUrl><Point><coordinates>0.898325443267822,41.6369068622589,0</coordinates></Point></Placemark>
<Placemark><name>MOLL56</name><description>232056 PORT.COM MOLL (Lleida)
posicio de les: 04/08/2018 23:42:41</description><styleUrl>#w_verdP</styleUrl><Point><coordinates>0.898271799087524,41.6365957260132,0</coordinates></Point></Placemark>
<Placemark><name>32090</name><description>232090 UPC MOLL (Lleida)
posicio de les: 04/08/2018 23:43:18</description><styleUrl>#w_groc</styleUrl><Point><coordinates>0.898100137710571,41.6366064548492,0</coordinates></Point></Placemark>
<Placemark><name>32230</name><description>232230 BRP OLIA (Lleida)
posicio de les: 04/08/2018 23:46:22</description><styleUrl>#w_grocC</styleUrl><Point><coordinates>1.3128662109375,42.0642793178558,0</coordinates></Point></Placemark>
<Placemark><name>32234</name><description>232234 BFP OLIA (Lleida)
posicio de les: 04/08/2018 23:44:17</description><styleUrl>#w_grocC</styleUrl><Point><coordinates>1.31184697151184,42.0663821697235,0</coordinates></Point></Placemark>
<Placemark><name>POBL01</name><description>232401 PORT POBL (Lleida)
posicio de les: 04/08/2018 23:46:12</description><styleUrl>#w_grocP</styleUrl><Point><coordinates>0.952602624893188,42.2471523284912,0</coordinates></Point></Placemark>
<Placemark><name>PONT56</name><description>232556 PORT.COM PONT (Lleida)
posicio de les: 04/08/2018 23:46:22</description><styleUrl>#w_grocP</styleUrl><Point><coordinates>0.739656686782837,42.4105632305145,0</coordinates></Point></Placemark>
<Placemark><name>PONS01</name><description>232601 PORT PONS (Lleida)
posicio de les: 04/08/2018 23:46:45</description><styleUrl>#w_verdP</styleUrl><Point><coordinates>1.17465734481812,41.8755805492401,0</coordinates></Point></Placemark>
<Placemark><name>32630</name><description>232630 BRP PONS (Lleida)
posicio de les: 04/08/2018 23:43:23</description><styleUrl>#w_grocC</styleUrl><Point><coordinates>1.17547273635864,41.8751299381256,0</coordinates></Point></Placemark>
<Placemark><name>PONS56</name><description>232656 PORT.COM PONS (Lleida)
posicio de les: 04/08/2018 23:46:22</description><styleUrl>#w_grocP</styleUrl><Point><coordinates>1.17496848106384,41.8756020069122,0</coordinates></Point></Placemark>
<Placemark><name>SEU09</name><description>232909 PORT SEU (Lleida)
posicio de les: 04/08/2018 23:44:31</description><styleUrl>#w_verdP</styleUrl><Point><coordinates>1.47165298461914,42.3603415489197,0</coordinates></Point></Placemark>
<Placemark><name>40081</name><description>240081  REGIÓ
posicio de les: 04/08/2018 23:46:53</description><styleUrl>#w_groc</styleUrl><Point><coordinates>2.11263656616211,41.5023994445801,0</coordinates></Point></Placemark>
<Placemark><name>40091</name><description>240091  REGIÓ
posicio de les: 04/08/2018 23:42:28</description><styleUrl>#w_groc</styleUrl><Point><coordinates>2.11289405822754,41.5040624141693,0</coordinates></Point></Placemark>
<Placemark><name>40240</name><description>240240 BUP BAD (Metro. Nord)
posicio de les: 04/08/2018 23:46:40</description><styleUrl>#w_grocC</styleUrl><Point><coordinates>2.220139503479,41.4383590221405,0</coordinates></Point></Placemark>
<Placemark><name>40290</name><description>240290 UPC BAD (Metro. Nord)
posicio de les: 04/08/2018 23:42:43</description><styleUrl>#w_groc</styleUrl><Point><coordinates>2.03375816345215,41.4738607406616,0</coordinates></Point></Placemark>
<Placemark><name>CER03</name><description>240503 PORT CER (Metro. Nord)
posicio de les: 04/08/2018 23:45:04</description><styleUrl>#w_verdP</styleUrl><Point><coordinates>2.11142420768738,41.5024316310883,0</coordinates></Point></Placemark>
<Placemark><name>GRA05</name><description>240605 PORT GRA (Metro. Nord)
posicio de les: 04/08/2018 23:46:52</description><styleUrl>#w_verdP</styleUrl><Point><coordinates>2.27474927902222,41.5907835960388,0</coordinates></Point></Placemark>
<Placemark><name>MOL03</name><description>241003 PORT MOL (Metro. Nord)
posicio de les: 04/08/2018 23:46:13</description><styleUrl>#w_verdP</styleUrl><Point><coordinates>2.21439957618713,41.5372896194458,0</coordinates></Point></Placemark>
<Placemark><name>41034</name><description>241034 BFP MOL (Metro. Nord)
posicio de les: 04/08/2018 23:45:48</description><styleUrl>#w_verdC</styleUrl><Point><coordinates>2.20241546630859,41.5370321273804,0</coordinates></Point></Placemark>
<Placemark><name>241040</name><description>241040 BUP MOL (Metro. Nord)
posicio de les: 04/08/2018 23:42:45</description><styleUrl>#w_grocC</styleUrl><Point><coordinates>2.20198631286621,41.5373432636261,0</coordinates></Point></Placemark>
<Placemark><name>241048</name><description>241048 BUL MOL (Metro. Nord)
posicio de les: 04/08/2018 23:46:25</description><styleUrl>#w_grocC</styleUrl><Point><coordinates>2.20206141471863,41.5368497371674,0</coordinates></Point></Placemark>
<Placemark><name>MFI01</name><description>241101 PORT MFI (Metro. Nord)
posicio de les: 04/08/2018 23:46:08</description><styleUrl>#w_grocP</styleUrl><Point><coordinates>2.27176666259766,41.7163217067719,0</coordinates></Point></Placemark>
<Placemark><name>SAB01</name><description>241401 PORT SAB (Metro. Nord)
posicio de les: 04/08/2018 23:46:17</description><styleUrl>#w_verdP</styleUrl><Point><coordinates>2.10396766662598,41.5422463417053,0</coordinates></Point></Placemark>
<Placemark><name>SAB06</name><description>241406 PORT SAB (Metro. Nord)
posicio de les: 04/08/2018 23:45:26</description><styleUrl>#w_verdP</styleUrl><Point><coordinates>2.10396766662598,41.5419352054596,0</coordinates></Point></Placemark>
<Placemark><name>SAB56</name><description>241456 PORT.COM SAB (Metro. Nord)
posicio de les: 04/08/2018 23:45:31</description><styleUrl>#w_verdP</styleUrl><Point><coordinates>2.10413932800293,41.5423214435577,0</coordinates></Point></Placemark>
<Placemark><name>SCE08</name><description>241608 PORT SCE (Metro. Nord)
posicio de les: 04/08/2018 23:46:21</description><styleUrl>#w_verdP</styleUrl><Point><coordinates>2.50691056251526,41.6953253746033,0</coordinates></Point></Placemark>
<Placemark><name>SCG07</name><description>241807 PORT SCG (Metro. Nord)
posicio de les: 04/08/2018 23:45:38</description><styleUrl>#w_grocP</styleUrl><Point><coordinates>2.2092068195343,41.4634323120117,0</coordinates></Point></Placemark>
<Placemark><name>41848</name><description>241848 BUL SCG (Metro. Nord)
posicio de les: 04/08/2018 23:46:48</description><styleUrl>#w_verdC</styleUrl><Point><coordinates>2.21733927726746,41.4445281028748,0</coordinates></Point></Placemark>
<Placemark><name>TER11</name><description>242011 PORT TER (Metro. Nord)
posicio de les: 04/08/2018 23:46:20</description><styleUrl>#w_verdP</styleUrl><Point><coordinates>2.02632308006287,41.5680706501007,0</coordinates></Point></Placemark>
<Placemark><name>TER56</name><description>242056 PORT.COM TER (Metro. Nord)
posicio de les: 04/08/2018 23:46:21</description><styleUrl>#w_grocP</styleUrl><Point><coordinates>2.02621579170227,41.5683281421661,0</coordinates></Point></Placemark>
<Placemark><name>50093</name><description>250093  REGIÓ
posicio de les: 04/08/2018 23:46:44</description><styleUrl>#w_verd</styleUrl><Point><coordinates>2.10003018379211,41.38028383255,0</coordinates></Point></Placemark>
<Placemark><name>50490</name><description>250490 UPC COR (Metro. Sud)
posicio de les: 04/08/2018 23:42:40</description><styleUrl>#w_groc</styleUrl><Point><coordinates>2.07025766372681,41.3625812530518,0</coordinates></Point></Placemark>
<Placemark><name>GAV02</name><description>250502 PORT GAV (Metro. Sud)
posicio de les: 04/08/2018 23:41:51</description><styleUrl>#w_verdP</styleUrl><Point><coordinates>1.99011325836182,41.2999892234802,0</coordinates></Point></Placemark>
<Placemark><name>GAV56</name><description>250556 PORT.COM GAV (Metro. Sud)
posicio de les: 04/08/2018 23:46:07</description><styleUrl>#w_verdP</styleUrl><Point><coordinates>1.99074625968933,41.2996995449066,0</coordinates></Point></Placemark>
<Placemark><name>HOS06</name><description>250706 PORT HOS (Metro. Sud)
posicio de les: 04/08/2018 23:45:19</description><styleUrl>#w_verdP</styleUrl><Point><coordinates>2.10581302642822,41.3700377941132,0</coordinates></Point></Placemark>
<Placemark><name>HOS56</name><description>250756 PORT.COM HOS (Metro. Sud)
posicio de les: 04/08/2018 23:43:31</description><styleUrl>#w_verdP</styleUrl><Point><coordinates>2.10592031478882,41.3696730136871,0</coordinates></Point></Placemark>
<Placemark><name>50790</name><description>250790 UPC HOS (Metro. Sud)
posicio de les: 04/08/2018 23:44:42</description><styleUrl>#w_groc</styleUrl><Point><coordinates>2.10578083992004,41.3699305057526,0</coordinates></Point></Placemark>
<Placemark><name>MAR57</name><description>251057 PORT.COM MAR (Metro. Sud)
posicio de les: 04/08/2018 23:44:12</description><styleUrl>#w_verdP</styleUrl><Point><coordinates>1.90760850906372,41.4987301826477,0</coordinates></Point></Placemark>
<Placemark><name>PLL06</name><description>251206 PORT PLL (Metro. Sud)
posicio de les: 04/08/2018 23:43:59</description><styleUrl>#w_verdP</styleUrl><Point><coordinates>2.08128690719604,41.3173592090607,0</coordinates></Point></Placemark>
<Placemark><name>SBOI57</name><description>251357 PORT.COM SBOI (Metro. Sud)
posicio de les: 04/08/2018 23:43:51</description><styleUrl>#w_verdP</styleUrl><Point><coordinates>2.03449845314026,41.3232707977295,0</coordinates></Point></Placemark>
<Placemark><name>SFE02</name><description>251502 PORT SFE (Metro. Sud)
posicio de les: 04/08/2018 23:46:46</description><styleUrl>#w_verdP</styleUrl><Point><coordinates>2.04293131828308,41.3885772228241,0</coordinates></Point></Placemark>
<Placemark><name>SFE03</name><description>251503 PORT SFE (Metro. Sud)
posicio de les: 04/08/2018 23:45:48</description><styleUrl>#w_verdP</styleUrl><Point><coordinates>2.04265236854553,41.3885772228241,0</coordinates></Point></Placemark>
<Placemark><name>SFE57</name><description>251557 PORT.COM SFE (Metro. Sud)
posicio de les: 04/08/2018 23:45:47</description><styleUrl>#w_verdP</styleUrl><Point><coordinates>2.04282402992249,41.3886523246765,0</coordinates></Point></Placemark>
<Placemark><name>51948</name><description>251948 BUL VIL (Metro. Sud)
posicio de les: 04/08/2018 23:42:36</description><styleUrl>#w_grocC</styleUrl><Point><coordinates>1.71721458435059,41.2186110019684,0</coordinates></Point></Placemark>
<Placemark><name>RET12</name><description>260012 P.Tec REGIÓ
posicio de les: 04/08/2018 23:46:24</description><styleUrl>#w_verdP</styleUrl><Point><coordinates>1.22359156608582,41.1396896839142,0</coordinates></Point></Placemark>
<Placemark><name>GE0RET</name><description>260013 P.Tec REGIÓ
posicio de les: 04/08/2018 23:45:38</description><styleUrl>#w_verdP</styleUrl><Point><coordinates>1.18479609489441,41.1345827579498,0</coordinates></Point></Placemark>
<Placemark><name>GE600</name><description>260017 P.Tec REGIÓ
posicio de les: 04/08/2018 23:45:37</description><styleUrl>#w_verdP</styleUrl><Point><coordinates>1.18539690971375,41.1346042156219,0</coordinates></Point></Placemark>
<Placemark><name>60092</name><description>260092  REGIÓ
posicio de les: 04/08/2018 23:46:47</description><styleUrl>#w_verd</styleUrl><Point><coordinates>1.22437477111816,41.1387026309967,0</coordinates></Point></Placemark>
<Placemark><name>FALS06</name><description>260406 PORT FALS (Tarragona)
posicio de les: 04/08/2018 23:46:12</description><styleUrl>#w_verdP</styleUrl><Point><coordinates>0.823320150375366,41.1476397514343,0</coordinates></Point></Placemark>
<Placemark><name>260508</name><description>260508 PORT HOSP (Tarragona)
posicio de les: 04/08/2018 23:46:48</description><styleUrl>#w_verdP</styleUrl><Point><coordinates>0.919268131256104,40.9935414791107,0</coordinates></Point></Placemark>
<Placemark><name>REUS03</name><description>260803 PORT REUS (Tarragona)
posicio de les: 04/08/2018 23:44:03</description><styleUrl>#w_verdP</styleUrl><Point><coordinates>1.11814856529236,41.1511158943176,0</coordinates></Point></Placemark>
<Placemark><name>REUS06</name><description>260806 PORT REUS (Tarragona)
posicio de les: 04/08/2018 23:46:03</description><styleUrl>#w_verdP</styleUrl><Point><coordinates>1.11872792243958,41.1507189273834,0</coordinates></Point></Placemark>
<Placemark><name>REUS12</name><description>260812 PORT REUS (Tarragona)
posicio de les: 04/08/2018 23:44:58</description><styleUrl>#w_verdP</styleUrl><Point><coordinates>1.12033724784851,41.149206161499,0</coordinates></Point></Placemark>
<Placemark><name>REUS56</name><description>260856 PORT.COM REUS (Tarragona)
posicio de les: 04/08/2018 23:44:04</description><styleUrl>#w_verdP</styleUrl><Point><coordinates>1.11818075180054,41.1514055728912,0</coordinates></Point></Placemark>
<Placemark><name>E00RETE</name><description>270014 P.Tec REGIÓ
posicio de les: 04/08/2018 23:46:47</description><styleUrl>#w_grocP</styleUrl><Point><coordinates>0.513192415237427,40.8193588256836,0</coordinates></Point></Placemark>
<Placemark><name>AMET06</name><description>272006 PORT AMET (Terres de l'Ebre)
posicio de les: 04/08/2018 23:45:38</description><styleUrl>#w_verdP</styleUrl><Point><coordinates>0.797646045684814,40.8902871608734,0</coordinates></Point></Placemark>
<Placemark><name>ASCO56</name><description>272256 PORT.COM ASCO (Terres de l'Ebre)
posicio de les: 04/08/2018 23:45:09</description><styleUrl>#w_verdP</styleUrl><Point><coordinates>0.568885803222656,41.1877119541168,0</coordinates></Point></Placemark>
<Placemark><name>GAND56</name><description>272656 PORT.COM GAND (Terres de l'Ebre)
posicio de les: 04/08/2018 23:45:15</description><styleUrl>#w_verdP</styleUrl><Point><coordinates>0.439141988754272,41.0585367679596,0</coordinates></Point></Placemark>
<Placemark><name>MORA57</name><description>272857 PORT.COM MORA (Terres de l'Ebre)
posicio de les: 04/08/2018 23:45:11</description><styleUrl>#w_grocP</styleUrl><Point><coordinates>0.62995433807373,41.0861098766327,0</coordinates></Point></Placemark>
<Placemark><name>ULLD08</name><description>273108 PORT ULLD (Terres de l'Ebre)
posicio de les: 04/08/2018 23:46:19</description><styleUrl>#w_grocP</styleUrl><Point><coordinates>0.35831093788147,40.6087410449982,0</coordinates></Point></Placemark>
</Folder>
<Folder>
<name>Descarregues</name>
</Folder>
<Style id="w_verdP_n"><IconStyle><color>ff00ff00</color><scale>1.0</scale><Icon><href>http://maps.google.com/mapfiles/kml/shapes/man.png</href></Icon><hotSpot x="0.5" y="0" xunits="fraction" yunits="fraction"/></IconStyle><LabelStyle><scale>0.7</scale></LabelStyle></Style>
<Style id="w_verdP_s"><IconStyle><color>ff00ff00</color><scale>1.4</scale><Icon><href>http://maps.google.com/mapfiles/kml/shapes/man.png</href></Icon><hotSpot x="0.5" y="0" xunits="fraction" yunits="fraction"/></IconStyle><LabelStyle><scale>0.7</scale></LabelStyle></Style>
<StyleMap id="w_verdP"><Pair><key>normal</key><styleUrl>#w_verdP_n</styleUrl></Pair><Pair><key>highlight</key><styleUrl>#w_verdP_s</styleUrl></Pair></StyleMap>
<Style id="w_verd_n"><IconStyle><color>ff00ff00</color><scale>0.7</scale><Icon><href>http://maps.google.com/mapfiles/kml/shapes/cabs.png</href></Icon><hotSpot x="0.5" y="0" xunits="fraction" yunits="fraction"/></IconStyle><LabelStyle><scale>0.7</scale></LabelStyle></Style>
<Style id="w_verd_s"><IconStyle><color>ff00ff00</color><scale>1.0</scale><Icon><href>http://maps.google.com/mapfiles/kml/shapes/cabs.png</href></Icon><hotSpot x="0.5" y="0" xunits="fraction" yunits="fraction"/></IconStyle><LabelStyle><scale>0.7</scale></LabelStyle></Style>
<StyleMap id="w_verd"><Pair><key>normal</key><styleUrl>#w_verd_n</styleUrl></Pair><Pair><key>highlight</key><styleUrl>#w_verd_s</styleUrl></Pair></StyleMap>
<Style id="w_verdC_n"><IconStyle><color>ff00ff00</color><scale>1.0</scale><Icon><href>http://maps.google.com/mapfiles/kml/shapes/truck.png</href></Icon><hotSpot x="0.5" y="0" xunits="fraction" yunits="fraction"/></IconStyle><LabelStyle><scale>0.7</scale></LabelStyle></Style>
<Style id="w_verdC_s"><IconStyle><color>ff00ff00</color><scale>1.4</scale><Icon><href>http://maps.google.com/mapfiles/kml/shapes/truck.png</href></Icon><hotSpot x="0.5" y="0" xunits="fraction" yunits="fraction"/></IconStyle><LabelStyle><scale>0.7</scale></LabelStyle></Style>
<StyleMap id="w_verdC"><Pair><key>normal</key><styleUrl>#w_verdC_n</styleUrl></Pair><Pair><key>highlight</key><styleUrl>#w_verdC_s</styleUrl></Pair></StyleMap>
<Style id="w_verdH_n"><IconStyle><color>ff0000ff</color><scale>1.2</scale><Icon><href>http://maps.google.com/mapfiles/kml/shapes/heliport.png</href></Icon><hotSpot x="0.5" y="0" xunits="fraction" yunits="fraction"/></IconStyle><LabelStyle><scale>0.7</scale></LabelStyle></Style>
<Style id="w_verdH_s"><IconStyle><color>ff0000ff</color><scale>1.4</scale><Icon><href>http://maps.google.com/mapfiles/kml/shapes/heliport.png</href></Icon><hotSpot x="0.5" y="0" xunits="fraction" yunits="fraction"/></IconStyle><LabelStyle><scale>0.7</scale></LabelStyle></Style>
<StyleMap id="w_verdH"><Pair><key>normal</key><styleUrl>#w_verdH_n</styleUrl></Pair><Pair><key>highlight</key><styleUrl>#w_verdH_s</styleUrl></Pair></StyleMap>
<Style id="w_verdA_n"><IconStyle><color>ff0000ff</color><scale>1.2</scale><Icon><href>http://maps.google.com/mapfiles/kml/shapes/airports.png</href></Icon><hotSpot x="0.5" y="0" xunits="fraction" yunits="fraction"/></IconStyle><LabelStyle><scale>0.7</scale></LabelStyle></Style>
<Style id="w_verdA_s"><IconStyle><color>ff0000ff</color><scale>1.4</scale><Icon><href>http://maps.google.com/mapfiles/kml/shapes/airports.png</href></Icon><hotSpot x="0.5" y="0" xunits="fraction" yunits="fraction"/></IconStyle><LabelStyle><scale>0.7</scale></LabelStyle></Style>
<StyleMap id="w_verdA"><Pair><key>normal</key><styleUrl>#w_verdA_n</styleUrl></Pair><Pair><key>highlight</key><styleUrl>#w_verdA_s</styleUrl></Pair></StyleMap>
<Style id="w_verdB_n"><IconStyle><color>ff00ff00</color><scale>1.0</scale><Icon><href>http://maps.google.com/mapfiles/kml/shapes/sailing.png</href></Icon><hotSpot x="0.5" y="0" xunits="fraction" yunits="fraction"/></IconStyle><LabelStyle><scale>0.7</scale></LabelStyle></Style>
<Style id="w_verdB_s"><IconStyle><color>ff00ff00</color><scale>1.4</scale><Icon><href>http://maps.google.com/mapfiles/kml/shapes/sailing.png</href></Icon><hotSpot x="0.5" y="0" xunits="fraction" yunits="fraction"/></IconStyle><LabelStyle><scale>0.7</scale></LabelStyle></Style>
<StyleMap id="w_verdB"><Pair><key>normal</key><styleUrl>#w_verdBAR_n</styleUrl></Pair><Pair><key>highlight</key><styleUrl>#w_verdBAR_s</styleUrl></Pair></StyleMap>
<Style id="w_grocP_n"><IconStyle><color>ff00ffff</color><scale>1.0</scale><Icon><href>http://maps.google.com/mapfiles/kml/shapes/man.png</href></Icon><hotSpot x="0.5" y="0" xunits="fraction" yunits="fraction"/></IconStyle><LabelStyle><scale>0.7</scale></LabelStyle></Style>
<Style id="w_grocP_s"><IconStyle><color>ff00ffff</color><scale>1.4</scale><Icon><href>http://maps.google.com/mapfiles/kml/shapes/man.png</href></Icon><hotSpot x="0.5" y="0" xunits="fraction" yunits="fraction"/></IconStyle><LabelStyle><scale>0.7</scale></LabelStyle></Style>
<StyleMap id="w_grocP"><Pair><key>normal</key><styleUrl>#w_grocP_n</styleUrl></Pair><Pair><key>highlight</key><styleUrl>#w_grocP_s</styleUrl></Pair></StyleMap>
<Style id="w_groc_n"><IconStyle><color>ff00ffff</color><scale>0.7</scale><Icon><href>http://maps.google.com/mapfiles/kml/shapes/cabs.png</href></Icon><hotSpot x="0.5" y="0" xunits="fraction" yunits="fraction"/></IconStyle><LabelStyle><scale>0.7</scale></LabelStyle></Style>
<Style id="w_groc_s"><IconStyle><color>ff00ffff</color><scale>1.0</scale><Icon><href>http://maps.google.com/mapfiles/kml/shapes/cabs.png</href></Icon><hotSpot x="0.5" y="0" xunits="fraction" yunits="fraction"/></IconStyle><LabelStyle><scale>0.7</scale></LabelStyle></Style>
<StyleMap id="w_groc"><Pair><key>normal</key><styleUrl>#w_groc_n</styleUrl></Pair><Pair><key>highlight</key><styleUrl>#w_groc_s</styleUrl></Pair></StyleMap>
<Style id="w_grocC_n"><IconStyle><color>ff00ffff</color><scale>1.0</scale><Icon><href>http://maps.google.com/mapfiles/kml/shapes/truck.png</href></Icon><hotSpot x="0.5" y="0" xunits="fraction" yunits="fraction"/></IconStyle><LabelStyle><scale>0.7</scale></LabelStyle></Style>
<Style id="w_grocC_s"><IconStyle><color>ff00ffff</color><scale>1.4</scale><Icon><href>http://maps.google.com/mapfiles/kml/shapes/truck.png</href></Icon><hotSpot x="0.5" y="0" xunits="fraction" yunits="fraction"/></IconStyle><LabelStyle><scale>0.7</scale></LabelStyle></Style>
<StyleMap id="w_grocC"><Pair><key>normal</key><styleUrl>#w_grocC_n</styleUrl></Pair><Pair><key>highlight</key><styleUrl>#w_grocC_s</styleUrl></Pair></StyleMap>
<Style id="w_grocH_n"><IconStyle><color>ff0000ff</color><scale>1.2</scale><Icon><href>http://maps.google.com/mapfiles/kml/shapes/heliport.png</href></Icon><hotSpot x="0.5" y="0" xunits="fraction" yunits="fraction"/></IconStyle><LabelStyle><scale>0.7</scale></LabelStyle></Style>
<Style id="w_grocH_s"><IconStyle><color>ff0000ff</color><scale>1.4</scale><Icon><href>http://maps.google.com/mapfiles/kml/shapes/heliport.png</href></Icon><hotSpot x="0.5" y="0" xunits="fraction" yunits="fraction"/></IconStyle><LabelStyle><scale>0.7</scale></LabelStyle></Style>
<StyleMap id="w_grocH"><Pair><key>normal</key><styleUrl>#w_grocH_n</styleUrl></Pair><Pair><key>highlight</key><styleUrl>#w_grocH_s</styleUrl></Pair></StyleMap>
<Style id="w_grocA_n"><IconStyle><color>ff0000ff</color><scale>1.2</scale><Icon><href>http://maps.google.com/mapfiles/kml/shapes/airports.png</href></Icon><hotSpot x="0.5" y="0" xunits="fraction" yunits="fraction"/></IconStyle><LabelStyle><scale>0.7</scale></LabelStyle></Style>
<Style id="w_grocA_s"><IconStyle><color>ff0000ff</color><scale>1.4</scale><Icon><href>http://maps.google.com/mapfiles/kml/shapes/airports.png</href></Icon><hotSpot x="0.5" y="0" xunits="fraction" yunits="fraction"/></IconStyle><LabelStyle><scale>0.7</scale></LabelStyle></Style>
<StyleMap id="w_grocA"><Pair><key>normal</key><styleUrl>#w_grocA_n</styleUrl></Pair><Pair><key>highlight</key><styleUrl>#w_grocA_s</styleUrl></Pair></StyleMap>
<Style id="w_grocB_n"><IconStyle><color>ff00ffff</color><scale>1.0</scale><Icon><href>http://maps.google.com/mapfiles/kml/shapes/sailing.png</href></Icon><hotSpot x="0.5" y="0" xunits="fraction" yunits="fraction"/></IconStyle><LabelStyle><scale>0.7</scale></LabelStyle></Style>
<Style id="w_grocB_s"><IconStyle><color>ff00ffff</color><scale>1.4</scale><Icon><href>http://maps.google.com/mapfiles/kml/shapes/sailing.png</href></Icon><hotSpot x="0.5" y="0" xunits="fraction" yunits="fraction"/></IconStyle><LabelStyle><scale>0.7</scale></LabelStyle></Style>
<StyleMap id="w_grocB"><Pair><key>normal</key><styleUrl>#w_grocBAR_n</styleUrl></Pair><Pair><key>highlight</key><styleUrl>#w_grocBAR_s</styleUrl></Pair></StyleMap>
<Style id="w_vermellP_n"><IconStyle><color>ff0000ff</color><scale>1.0</scale><Icon><href>http://maps.google.com/mapfiles/kml/shapes/man.png</href></Icon><hotSpot x="0.5" y="0" xunits="fraction" yunits="fraction"/></IconStyle><LabelStyle><scale>0.7</scale></LabelStyle></Style>
<Style id="w_vermellP_s"><IconStyle><color>ff0000ff</color><scale>1.4</scale><Icon><href>http://maps.google.com/mapfiles/kml/shapes/man.png</href></Icon><hotSpot x="0.5" y="0" xunits="fraction" yunits="fraction"/></IconStyle><LabelStyle><scale>0.7</scale></LabelStyle></Style>
<StyleMap id="w_vermellP"><Pair><key>normal</key><styleUrl>#w_vermellP_n</styleUrl></Pair><Pair><key>highlight</key><styleUrl>#w_vermellP_s</styleUrl></Pair></StyleMap>
<Style id="w_vermell_n"><IconStyle><color>ff0000ff</color><scale>0.7</scale><Icon><href>http://maps.google.com/mapfiles/kml/shapes/cabs.png</href></Icon><hotSpot x="0.5" y="0" xunits="fraction" yunits="fraction"/></IconStyle><LabelStyle><scale>0.7</scale></LabelStyle></Style>
<Style id="w_vermell_s"><IconStyle><color>ff0000ff</color><scale>1.0</scale><Icon><href>http://maps.google.com/mapfiles/kml/shapes/cabs.png</href></Icon><hotSpot x="0.5" y="0" xunits="fraction" yunits="fraction"/></IconStyle><LabelStyle><scale>0.7</scale></LabelStyle></Style>
<StyleMap id="w_vermell"><Pair><key>normal</key><styleUrl>#w_vermell_n</styleUrl></Pair><Pair><key>highlight</key><styleUrl>#w_vermell_s</styleUrl></Pair></StyleMap>
<Style id="w_vermellC_n"><IconStyle><color>ff0000ff</color><scale>1.0</scale><Icon><href>http://maps.google.com/mapfiles/kml/shapes/truck.png</href></Icon><hotSpot x="0.5" y="0" xunits="fraction" yunits="fraction"/></IconStyle><LabelStyle><scale>0.7</scale></LabelStyle></Style>
<Style id="w_vermellC_s"><IconStyle><color>ff0000ff</color><scale>1.4</scale><Icon><href>http://maps.google.com/mapfiles/kml/shapes/truck.png</href></Icon><hotSpot x="0.5" y="0" xunits="fraction" yunits="fraction"/></IconStyle><LabelStyle><scale>0.7</scale></LabelStyle></Style>
<StyleMap id="w_vermellC"><Pair><key>normal</key><styleUrl>#w_vermellC_n</styleUrl></Pair><Pair><key>highlight</key><styleUrl>#w_vermellC_s</styleUrl></Pair></StyleMap>
<Style id="w_vermellH_n"><IconStyle><color>ff0000ff</color><scale>1.2</scale><Icon><href>http://maps.google.com/mapfiles/kml/shapes/heliport.png</href></Icon><hotSpot x="0.5" y="0" xunits="fraction" yunits="fraction"/></IconStyle><LabelStyle><scale>0.7</scale></LabelStyle></Style>
<Style id="w_vermellH_s"><IconStyle><color>ff0000ff</color><scale>1.4</scale><Icon><href>http://maps.google.com/mapfiles/kml/shapes/heliport.png</href></Icon><hotSpot x="0.5" y="0" xunits="fraction" yunits="fraction"/></IconStyle><LabelStyle><scale>0.7</scale></LabelStyle></Style>
<StyleMap id="w_vermellH"><Pair><key>normal</key><styleUrl>#w_vermellH_n</styleUrl></Pair><Pair><key>highlight</key><styleUrl>#w_vermellH_s</styleUrl></Pair></StyleMap>
<Style id="w_vermellA_n"><IconStyle><color>ff0000ff</color><scale>1.2</scale><Icon><href>http://maps.google.com/mapfiles/kml/shapes/airports.png</href></Icon><hotSpot x="0.5" y="0" xunits="fraction" yunits="fraction"/></IconStyle><LabelStyle><scale>0.7</scale></LabelStyle></Style>
<Style id="w_vermellA_s"><IconStyle><color>ff0000ff</color><scale>1.4</scale><Icon><href>http://maps.google.com/mapfiles/kml/shapes/airports.png</href></Icon><hotSpot x="0.5" y="0" xunits="fraction" yunits="fraction"/></IconStyle><LabelStyle><scale>0.7</scale></LabelStyle></Style>
<StyleMap id="w_vermellA"><Pair><key>normal</key><styleUrl>#w_vermellA_n</styleUrl></Pair><Pair><key>highlight</key><styleUrl>#w_vermellA_s</styleUrl></Pair></StyleMap>
<Style id="w_vermellB_n"><IconStyle><color>ff0000ff</color><scale>1.0</scale><Icon><href>http://maps.google.com/mapfiles/kml/shapes/sailing.png</href></Icon><hotSpot x="0.5" y="0" xunits="fraction" yunits="fraction"/></IconStyle><LabelStyle><scale>0.7</scale></LabelStyle></Style>
<Style id="w_vermellB_s"><IconStyle><color>ff0000ff</color><scale>1.4</scale><Icon><href>http://maps.google.com/mapfiles/kml/shapes/sailing.png</href></Icon><hotSpot x="0.5" y="0" xunits="fraction" yunits="fraction"/></IconStyle><LabelStyle><scale>0.7</scale></LabelStyle></Style>
<StyleMap id="w_vermellB"><Pair><key>normal</key><styleUrl>#w_vermellBAR_n</styleUrl></Pair><Pair><key>highlight</key><styleUrl>#w_vermellBAR_s</styleUrl></Pair></StyleMap>
<Style id="w_descarrega"><IconStyle><color>ff00ffff</color><scale>0.5</scale><Icon><href>http://maps.google.com/mapfiles/kml/shapes/road_shield3.png</href></Icon></IconStyle><LabelStyle><scale>0.7</scale></LabelStyle></Style><Style id="actuacio"><IconStyle><color>ff00ffff</color><scale>0.8</scale><Icon><href>http://maps.google.com/mapfiles/kml/shapes/caution.png</href></Icon></IconStyle><LabelStyle><scale>0.7</scale></LabelStyle></Style></Document></kml>