<?xml version="1.0" encoding="UTF-8"?>
<kml xmlns="http://www.opengis.net/kml/2.2" xmlns:gx="http://www.google.com/kml/ext/2.2" xmlns:kml="http://www.opengis.net/kml/2.2" xmlns:atom="http://www.w3.org/2005/Atom">
<Document>
<name>Terminals</name>
<Snippet maxLines="2">Created 04/08/2018 22:28:44</Snippet>
<Folder>
<name>Terminals</name>
<Placemark><name>GGRAF12</name><description>204212 P.REC
posicio de les: 04/08/2018 22:26:56</description><styleUrl>#w_verdP</styleUrl><Point><coordinates>2.97468781471252,42.0298075675964,0</coordinates></Point></Placemark>
<Placemark><name>OP05087</name><description>205287 OP.AAV
posicio de les: 04/08/2018 22:27:52</description><styleUrl>#w_grocP</styleUrl><Point><coordinates>1.15816712379456,41.147940158844,0</coordinates></Point></Placemark>
<Placemark><name>VIEL12</name><description>208012 P.PT VARAN
posicio de les: 04/08/2018 22:28:44</description><styleUrl>#w_grocP</styleUrl><Point><coordinates>0.796819925308228,42.7082133293152,0</coordinates></Point></Placemark>
<Placemark><name>VIEL17</name><description>208017 BASE CCA VARAN
posicio de les: 04/08/2018 22:27:55</description><styleUrl>#w_groc</styleUrl><Point><coordinates>0.796723365783691,42.7077519893646,0</coordinates></Point></Placemark>
<Placemark><name>BOSS01</name><description>208101 P.COMODIN VARAN
posicio de les: 04/08/2018 22:27:32</description><styleUrl>#w_verdP</styleUrl><Point><coordinates>0.69263219833374,42.7859115600586,0</coordinates></Point></Placemark>
<Placemark><name>E0REC</name><description>210012 P.Tec REGIÓ
posicio de les: 04/08/2018 22:28:39</description><styleUrl>#w_verdP</styleUrl><Point><coordinates>1.85083150863647,41.7422211170197,0</coordinates></Point></Placemark>
<Placemark><name>BER57</name><description>210357 PORT.COM BER (Centre)
posicio de les: 04/08/2018 22:27:54</description><styleUrl>#w_verdP</styleUrl><Point><coordinates>1.85789108276367,42.1036326885223,0</coordinates></Point></Placemark>
<Placemark><name>CAF56</name><description>210456 PORT.COM CAF (Centre)
posicio de les: 04/08/2018 22:25:00</description><styleUrl>#w_verdP</styleUrl><Point><coordinates>1.52806520462036,41.7305052280426,0</coordinates></Point></Placemark>
<Placemark><name>CAR07</name><description>210507 PORT CAR (Centre)
posicio de les: 04/08/2018 22:28:22</description><styleUrl>#w_grocP</styleUrl><Point><coordinates>1.86884522438049,41.6252338886261,0</coordinates></Point></Placemark>
<Placemark><name>CAB56</name><description>210656 PORT.COM CAB (Centre)
posicio de les: 04/08/2018 22:28:42</description><styleUrl>#w_grocP</styleUrl><Point><coordinates>1.68527483940125,41.6656601428986,0</coordinates></Point></Placemark>
<Placemark><name>GUA56</name><description>210856 PORT.COM GUA (Centre)
posicio de les: 04/08/2018 22:28:43</description><styleUrl>#w_verdP</styleUrl><Point><coordinates>1.86992883682251,42.2196757793427,0</coordinates></Point></Placemark>
<Placemark><name>11040</name><description>211040 BUP MAN (Centre)
posicio de les: 04/08/2018 22:25:58</description><styleUrl>#w_grocC</styleUrl><Point><coordinates>1.86864137649536,41.6253089904785,0</coordinates></Point></Placemark>
<Placemark><name>MOI20</name><description>211120 PORT MOI (Centre)
posicio de les: 04/08/2018 22:28:47</description><styleUrl>#w_grocP</styleUrl><Point><coordinates>2.08681225776672,41.8118190765381,0</coordinates></Point></Placemark>
<Placemark><name>PRA07</name><description>211407 PORT PRA (Centre)
posicio de les: 04/08/2018 22:28:18</description><styleUrl>#w_verdP</styleUrl><Point><coordinates>2.03624725341797,42.0080387592316,0</coordinates></Point></Placemark>
<Placemark><name>PUIG01</name><description>211501 PORT PUIG (Centre)
posicio de les: 04/08/2018 22:24:52</description><styleUrl>#w_verdP</styleUrl><Point><coordinates>1.92152380943298,42.4205732345581,0</coordinates></Point></Placemark>
<Placemark><name>AMER57</name><description>220157 PORT.COM AMER (Girona)
posicio de les: 04/08/2018 22:28:11</description><styleUrl>#w_verdP</styleUrl><Point><coordinates>2.59620666503906,42.0111501216888,0</coordinates></Point></Placemark>
<Placemark><name>20330</name><description>220330 BRP BANY (Girona)
posicio de les: 04/08/2018 22:28:44</description><styleUrl>#w_verdC</styleUrl><Point><coordinates>2.74530529975891,42.1585643291473,0</coordinates></Point></Placemark>
<Placemark><name>20434</name><description>220434 BFP PERA (Girona)
posicio de les: 04/08/2018 22:27:18</description><styleUrl>#w_grocC</styleUrl><Point><coordinates>2.87150859832764,42.405971288681,0</coordinates></Point></Placemark>
<Placemark><name>CASS56</name><description>220856 PORT.COM CASS (Girona)
posicio de les: 04/08/2018 22:25:55</description><styleUrl>#w_verdP</styleUrl><Point><coordinates>2.88425445556641,41.879163980484,0</coordinates></Point></Placemark>
<Placemark><name>FIGU 01</name><description>221001 PORT FIGU (Girona)
posicio de les: 04/08/2018 22:25:53</description><styleUrl>#w_verdP</styleUrl><Point><coordinates>2.87253856658936,42.4061965942383,0</coordinates></Point></Placemark>
<Placemark><name>21030</name><description>221030 BRP FIGU (Girona)
posicio de les: 04/08/2018 22:28:43</description><styleUrl>#w_verdC</styleUrl><Point><coordinates>2.99153208732605,42.2784698009491,0</coordinates></Point></Placemark>
<Placemark><name>21034</name><description>221034 BFP FIGU (Girona)
posicio de les: 04/08/2018 22:26:40</description><styleUrl>#w_grocC</styleUrl><Point><coordinates>2.87159442901611,42.4062931537628,0</coordinates></Point></Placemark>
<Placemark><name>21050</name><description>221050 FSV/FRQ/FER/FRM/FRA/FSA FIGU (Girona)
posicio de les: 04/08/2018 22:28:38</description><styleUrl>#w_verdC</styleUrl><Point><coordinates>2.94311285018921,42.2538578510284,0</coordinates></Point></Placemark>
<Placemark><name>FIGU56</name><description>221056 PORT.COM FIGU (Girona)
posicio de les: 04/08/2018 22:28:34</description><styleUrl>#w_verdP</styleUrl><Point><coordinates>2.99330234527588,42.2791886329651,0</coordinates></Point></Placemark>
<Placemark><name>GIRO08</name><description>221108 PORT GIRO (Girona)
posicio de les: 04/08/2018 22:27:09</description><styleUrl>#w_grocP</styleUrl><Point><coordinates>2.80635237693787,41.9600057601929,0</coordinates></Point></Placemark>
<Placemark><name>GIRO56</name><description>221156 PORT.COM GIRO (Girona)
posicio de les: 04/08/2018 22:27:28</description><styleUrl>#w_verdP</styleUrl><Point><coordinates>2.8065025806427,41.9600594043732,0</coordinates></Point></Placemark>
<Placemark><name>HOST02</name><description>221202 PORT HOST (Girona)
posicio de les: 04/08/2018 22:27:00</description><styleUrl>#w_grocP</styleUrl><Point><coordinates>2.62455224990845,41.7482399940491,0</coordinates></Point></Placemark>
<Placemark><name>HOST03</name><description>221203 PORT HOST (Girona)
posicio de les: 04/08/2018 22:28:29</description><styleUrl>#w_grocP</styleUrl><Point><coordinates>2.62457370758057,41.7482078075409,0</coordinates></Point></Placemark>
<Placemark><name>HOST05</name><description>221205 PORT HOST (Girona)
posicio de les: 04/08/2018 22:22:50</description><styleUrl>#w_grocP</styleUrl><Point><coordinates>2.62460589408875,41.7483150959015,0</coordinates></Point></Placemark>
<Placemark><name>21230</name><description>221230 BRP HOST (Girona)
posicio de les: 04/08/2018 22:27:50</description><styleUrl>#w_grocC</styleUrl><Point><coordinates>2.62446641921997,41.7481756210327,0</coordinates></Point></Placemark>
<Placemark><name>HOST57</name><description>221257 PORT.COM HOST (Girona)
posicio de les: 04/08/2018 22:28:04</description><styleUrl>#w_verdP</styleUrl><Point><coordinates>2.62463808059692,41.7480790615082,0</coordinates></Point></Placemark>
<Placemark><name>JONQ03</name><description>221303 PORT JONQ (Girona)
posicio de les: 04/08/2018 22:28:20</description><styleUrl>#w_verdP</styleUrl><Point><coordinates>2.87647604942322,42.412097454071,0</coordinates></Point></Placemark>
<Placemark><name>21330</name><description>221330 BRP JONQ (Girona)
posicio de les: 04/08/2018 22:24:05</description><styleUrl>#w_grocC</styleUrl><Point><coordinates>2.8753924369812,42.4048233032227,0</coordinates></Point></Placemark>
<Placemark><name>JONQ56</name><description>221356 PORT.COM JONQ (Girona)
posicio de les: 04/08/2018 22:27:14</description><styleUrl>#w_verdP</styleUrl><Point><coordinates>2.87397623062134,42.4060034751892,0</coordinates></Point></Placemark>
<Placemark><name>21434</name><description>221434 BFP LLAN (Girona)
posicio de les: 04/08/2018 22:26:21</description><styleUrl>#w_grocC</styleUrl><Point><coordinates>2.8715193271637,42.4060142040253,0</coordinates></Point></Placemark>
<Placemark><name>LLAN57</name><description>221457 PORT.COM LLAN (Girona)
posicio de les: 04/08/2018 22:28:46</description><styleUrl>#w_verdP</styleUrl><Point><coordinates>3.15260410308838,42.3576271533966,0</coordinates></Point></Placemark>
<Placemark><name>VILJ59</name><description>221459 BSAL LLAN (Girona)
posicio de les: 04/08/2018 22:24:48</description><styleUrl>#w_verdB</styleUrl><Point><coordinates>2.87176609039307,42.4062502384186,0</coordinates></Point></Placemark>
<Placemark><name>LLOR05</name><description>221505 PORT LLOR (Girona)
posicio de les: 04/08/2018 22:27:46</description><styleUrl>#w_verdP</styleUrl><Point><coordinates>2.83635020256042,41.699423789978,0</coordinates></Point></Placemark>
<Placemark><name>21530</name><description>221530 BRP LLOR (Girona)
posicio de les: 04/08/2018 22:28:30</description><styleUrl>#w_verdC</styleUrl><Point><coordinates>2.82601833343506,41.6980075836182,0</coordinates></Point></Placemark>
<Placemark><name>221557</name><description>221557 PORT.COM LLOR (Girona)
posicio de les: 04/08/2018 22:28:07</description><styleUrl>#w_verdP</styleUrl><Point><coordinates>2.82186627388,41.6963660717011,0</coordinates></Point></Placemark>
<Placemark><name>221560</name><description>221560 AEA/AES/ABA LLOR (Girona)
posicio de les: 04/08/2018 22:28:48</description><styleUrl>#w_verdC</styleUrl><Point><coordinates>2.82671570777893,41.6979968547821,0</coordinates></Point></Placemark>
<Placemark><name>21630</name><description>221630 BRP MACA (Girona)
posicio de les: 04/08/2018 22:28:45</description><styleUrl>#w_grocC</styleUrl><Point><coordinates>2.75314807891846,41.7794501781464,0</coordinates></Point></Placemark>
<Placemark><name>MAÇA57</name><description>221657 PORT.COM MACA (Girona)
posicio de les: 04/08/2018 22:23:46</description><styleUrl>#w_grocP</styleUrl><Point><coordinates>2.75300860404968,41.7792785167694,0</coordinates></Point></Placemark>
<Placemark><name>ORRI02</name><description>221710 PORT OLOT (Girona)
posicio de les: 04/08/2018 22:22:59</description><styleUrl>#w_verdP</styleUrl><Point><coordinates>2.87379384040833,42.4060678482056,0</coordinates></Point></Placemark>
<Placemark><name>ORRI03</name><description>221711 PORT OLOT (Girona)
posicio de les: 04/08/2018 22:27:14</description><styleUrl>#w_verdP</styleUrl><Point><coordinates>2.87368655204773,42.4055099487305,0</coordinates></Point></Placemark>
<Placemark><name>OLOT56</name><description>221756 PORT.COM OLOT (Girona)
posicio de les: 04/08/2018 22:27:11</description><styleUrl>#w_verdP</styleUrl><Point><coordinates>2.47509956359863,42.1897745132446,0</coordinates></Point></Placemark>
<Placemark><name>ORRI59</name><description>221759 BSAL OLOT (Girona)
posicio de les: 04/08/2018 22:23:19</description><styleUrl>#w_verdB</styleUrl><Point><coordinates>2.87411570549011,42.4061965942383,0</coordinates></Point></Placemark>
<Placemark><name>PALA56</name><description>221856 PORT.COM PALA (Girona)
posicio de les: 04/08/2018 22:26:53</description><styleUrl>#w_grocP</styleUrl><Point><coordinates>3.15645575523376,41.9256842136383,0</coordinates></Point></Placemark>
<Placemark><name>PALA57</name><description>221857 PORT.COM PALA (Girona)
posicio de les: 04/08/2018 22:28:23</description><styleUrl>#w_verdP</styleUrl><Point><coordinates>3.15608024597168,41.9258236885071,0</coordinates></Point></Placemark>
<Placemark><name>RIPO03</name><description>222103 PORT RIPO (Girona)
posicio de les: 04/08/2018 22:27:46</description><styleUrl>#w_verdP</styleUrl><Point><coordinates>2.16827630996704,42.2148156166077,0</coordinates></Point></Placemark>
<Placemark><name>22130</name><description>222130 BRP RIPO (Girona)
posicio de les: 04/08/2018 22:27:32</description><styleUrl>#w_verdC</styleUrl><Point><coordinates>2.16771841049194,42.2150409221649,0</coordinates></Point></Placemark>
<Placemark><name>RIPO56</name><description>222156 PORT.COM RIPO (Girona)
posicio de les: 04/08/2018 22:28:21</description><styleUrl>#w_verdP</styleUrl><Point><coordinates>2.16779351234436,42.215062379837,0</coordinates></Point></Placemark>
<Placemark><name>ROSE56</name><description>222256 PORT.COM ROSE (Girona)
posicio de les: 04/08/2018 22:28:16</description><styleUrl>#w_verdP</styleUrl><Point><coordinates>3.16090822219849,42.2763133049011,0</coordinates></Point></Placemark>
<Placemark><name>TORR56</name><description>222656 PORT.COM TORR (Girona)
posicio de les: 04/08/2018 22:24:10</description><styleUrl>#w_verdP</styleUrl><Point><coordinates>3.16697001457214,42.0477247238159,0</coordinates></Point></Placemark>
<Placemark><name>VALL07</name><description>222807 PORT VALL (Girona)
posicio de les: 04/08/2018 22:27:02</description><styleUrl>#w_grocP</styleUrl><Point><coordinates>3.03175449371338,41.8086862564087,0</coordinates></Point></Placemark>
<Placemark><name>VALL57</name><description>222857 PORT.COM VALL (Girona)
posicio de les: 04/08/2018 22:25:16</description><styleUrl>#w_verdP</styleUrl><Point><coordinates>3.03149700164795,41.8087291717529,0</coordinates></Point></Placemark>
<Placemark><name>I308</name><description>227308 P.GUAITA GUAITA
posicio de les: 04/08/2018 22:26:32</description><styleUrl>#w_verdP</styleUrl><Point><coordinates>3.1555438041687,41.9261455535889,0</coordinates></Point></Placemark>
<Placemark><name>D9REG</name><description>228049  SERVEIS REGIÓ
posicio de les: 04/08/2018 22:27:29</description><styleUrl>#w_groc</styleUrl><Point><coordinates>2.80641674995422,41.960209608078,0</coordinates></Point></Placemark>
<Placemark><name>D0REL</name><description>230010 P.CG REGIÓ
posicio de les: 04/08/2018 22:24:44</description><styleUrl>#w_grocP</styleUrl><Point><coordinates>0.604966878890991,41.6234743595123,0</coordinates></Point></Placemark>
<Placemark><name>FTREMP1</name><description>230073  REGIÓ
posicio de les: 04/08/2018 22:25:23</description><styleUrl>#w_verd</styleUrl><Point><coordinates>0.604280233383179,41.6230452060699,0</coordinates></Point></Placemark>
<Placemark><name>30091</name><description>230091  REGIÓ
posicio de les: 04/08/2018 22:26:11</description><styleUrl>#w_groc</styleUrl><Point><coordinates>0.605438947677612,41.6241180896759,0</coordinates></Point></Placemark>
<Placemark><name>30092</name><description>230092  REGIÓ
posicio de les: 04/08/2018 22:24:34</description><styleUrl>#w_verd</styleUrl><Point><coordinates>0.605342388153076,41.6233777999878,0</coordinates></Point></Placemark>
<Placemark><name>ALMA01</name><description>230301 PORT ALMA (Lleida)
posicio de les: 04/08/2018 22:27:51</description><styleUrl>#w_verdP</styleUrl><Point><coordinates>0.490522384643555,41.6982543468475,0</coordinates></Point></Placemark>
<Placemark><name>ALMA02</name><description>230302 PORT ALMA (Lleida)
posicio de les: 04/08/2018 22:28:25</description><styleUrl>#w_verdP</styleUrl><Point><coordinates>0.433605909347534,41.7317605018616,0</coordinates></Point></Placemark>
<Placemark><name>30330</name><description>230330 BRP ALMA (Lleida)
posicio de les: 04/08/2018 22:24:16</description><styleUrl>#w_grocC</styleUrl><Point><coordinates>0.490297079086304,41.6982114315033,0</coordinates></Point></Placemark>
<Placemark><name>230356</name><description>230356 PORT.COM ALMA (Lleida)
posicio de les: 04/08/2018 22:28:17</description><styleUrl>#w_grocP</styleUrl><Point><coordinates>0.490479469299316,41.6982650756836,0</coordinates></Point></Placemark>
<Placemark><name>ALME01</name><description>230401 PORT ALME (Lleida)
posicio de les: 04/08/2018 22:27:08</description><styleUrl>#w_verdP</styleUrl><Point><coordinates>0.569121837615967,41.79234623909,0</coordinates></Point></Placemark>
<Placemark><name>BORG05</name><description>230705 PORT BORG (Lleida)
posicio de les: 04/08/2018 22:24:59</description><styleUrl>#w_grocP</styleUrl><Point><coordinates>0.844166278839111,41.507431268692,0</coordinates></Point></Placemark>
<Placemark><name>BORG06</name><description>230706 PORT BORG (Lleida)
posicio de les: 04/08/2018 22:28:04</description><styleUrl>#w_grocP</styleUrl><Point><coordinates>0.844488143920898,41.5071845054626,0</coordinates></Point></Placemark>
<Placemark><name>GUIS05</name><description>231405 PORT GUIS (Lleida)
posicio de les: 04/08/2018 22:27:27</description><styleUrl>#w_grocP</styleUrl><Point><coordinates>1.2828254699707,41.7822182178497,0</coordinates></Point></Placemark>
<Placemark><name>31430</name><description>231430 BRP GUIS (Lleida)
posicio de les: 04/08/2018 22:27:11</description><styleUrl>#w_grocC</styleUrl><Point><coordinates>1.28306150436401,41.7821538448334,0</coordinates></Point></Placemark>
<Placemark><name>LLEI13</name><description>231913 PORT LLEI (Lleida)
posicio de les: 04/08/2018 22:26:20</description><styleUrl>#w_verdP</styleUrl><Point><coordinates>0.605471134185791,41.6242361068726,0</coordinates></Point></Placemark>
<Placemark><name>MOLL07</name><description>232007 PORT MOLL (Lleida)
posicio de les: 04/08/2018 22:28:32</description><styleUrl>#w_verdP</styleUrl><Point><coordinates>0.898325443267822,41.6369712352753,0</coordinates></Point></Placemark>
<Placemark><name>MOLL56</name><description>232056 PORT.COM MOLL (Lleida)
posicio de les: 04/08/2018 22:28:31</description><styleUrl>#w_verdP</styleUrl><Point><coordinates>0.898540019989014,41.6362631320953,0</coordinates></Point></Placemark>
<Placemark><name>32090</name><description>232090 UPC MOLL (Lleida)
posicio de les: 04/08/2018 22:28:18</description><styleUrl>#w_groc</styleUrl><Point><coordinates>0.898261070251465,41.6364991664886,0</coordinates></Point></Placemark>
<Placemark><name>OLIA01</name><description>232201 PORT OLIA (Lleida)
posicio de les: 04/08/2018 22:28:46</description><styleUrl>#w_grocP</styleUrl><Point><coordinates>1.30792021751404,42.0752441883087,0</coordinates></Point></Placemark>
<Placemark><name>32230</name><description>232230 BRP OLIA (Lleida)
posicio de les: 04/08/2018 22:27:38</description><styleUrl>#w_verdC</styleUrl><Point><coordinates>1.30809187889099,42.0748579502106,0</coordinates></Point></Placemark>
<Placemark><name>OLIA56</name><description>232256 PORT.COM OLIA (Lleida)
posicio de les: 04/08/2018 22:27:39</description><styleUrl>#w_grocP</styleUrl><Point><coordinates>1.31600975990295,42.0697402954102,0</coordinates></Point></Placemark>
<Placemark><name>POBL01</name><description>232401 PORT POBL (Lleida)
posicio de les: 04/08/2018 22:26:52</description><styleUrl>#w_grocP</styleUrl><Point><coordinates>0.964704751968384,42.2390305995941,0</coordinates></Point></Placemark>
<Placemark><name>PONT56</name><description>232556 PORT.COM PONT (Lleida)
posicio de les: 04/08/2018 22:28:33</description><styleUrl>#w_grocP</styleUrl><Point><coordinates>0.740139484405518,42.4107027053833,0</coordinates></Point></Placemark>
<Placemark><name>32630</name><description>232630 BRP PONS (Lleida)
posicio de les: 04/08/2018 22:28:23</description><styleUrl>#w_grocC</styleUrl><Point><coordinates>1.1754298210144,41.8751084804535,0</coordinates></Point></Placemark>
<Placemark><name>PONS56</name><description>232656 PORT.COM PONS (Lleida)
posicio de les: 04/08/2018 22:27:11</description><styleUrl>#w_grocP</styleUrl><Point><coordinates>1.17488265037537,41.8755698204041,0</coordinates></Point></Placemark>
<Placemark><name>SEU09</name><description>232909 PORT SEU (Lleida)
posicio de les: 04/08/2018 22:28:40</description><styleUrl>#w_verdP</styleUrl><Point><coordinates>1.471266746521,42.3601591587067,0</coordinates></Point></Placemark>
<Placemark><name>TREM10</name><description>233310 PORT TREM (Lleida)
posicio de les: 04/08/2018 22:26:22</description><styleUrl>#w_grocP</styleUrl><Point><coordinates>0.889216661453247,42.1646475791931,0</coordinates></Point></Placemark>
<Placemark><name>REMN11</name><description>240011 P.Tec REGIÓ
posicio de les: 04/08/2018 22:28:27</description><styleUrl>#w_verdP</styleUrl><Point><coordinates>2.11091995239258,41.5026783943176,0</coordinates></Point></Placemark>
<Placemark><name>D00REMN</name><description>240018 P.Tec REGIÓ
posicio de les: 04/08/2018 22:27:06</description><styleUrl>#w_verdP</styleUrl><Point><coordinates>2.11196064949036,41.5026998519897,0</coordinates></Point></Placemark>
<Placemark><name>40081</name><description>240081  REGIÓ
posicio de les: 04/08/2018 22:26:53</description><styleUrl>#w_groc</styleUrl><Point><coordinates>2.11263656616211,41.5023994445801,0</coordinates></Point></Placemark>
<Placemark><name>40091</name><description>240091  REGIÓ
posicio de les: 04/08/2018 22:27:27</description><styleUrl>#w_groc</styleUrl><Point><coordinates>2.11289405822754,41.5040624141693,0</coordinates></Point></Placemark>
<Placemark><name>40290</name><description>240290 UPC BAD (Metro. Nord)
posicio de les: 04/08/2018 22:26:04</description><styleUrl>#w_verd</styleUrl><Point><coordinates>2.03486323356628,41.4733564853668,0</coordinates></Point></Placemark>
<Placemark><name>CER03</name><description>240503 PORT CER (Metro. Nord)
posicio de les: 04/08/2018 22:26:27</description><styleUrl>#w_verdP</styleUrl><Point><coordinates>2.11129546165466,41.5027964115143,0</coordinates></Point></Placemark>
<Placemark><name>GRA05</name><description>240605 PORT GRA (Metro. Nord)
posicio de les: 04/08/2018 22:28:18</description><styleUrl>#w_verdP</styleUrl><Point><coordinates>2.27522134780884,41.5905261039734,0</coordinates></Point></Placemark>
<Placemark><name>GRA07</name><description>240607 PORT GRA (Metro. Nord)
posicio de les: 04/08/2018 22:24:55</description><styleUrl>#w_verdP</styleUrl><Point><coordinates>2.2745668888092,41.5908372402191,0</coordinates></Point></Placemark>
<Placemark><name>CMGRA15</name><description>240615 PORT GRA (Metro. Nord)
posicio de les: 04/08/2018 22:26:54</description><styleUrl>#w_verdP</styleUrl><Point><coordinates>2.27503895759583,41.5903115272522,0</coordinates></Point></Placemark>
<Placemark><name>40690</name><description>240690 UPC GRA (Metro. Nord)
posicio de les: 04/08/2018 22:25:21</description><styleUrl>#w_groc</styleUrl><Point><coordinates>2.27477073669434,41.5904295444489,0</coordinates></Point></Placemark>
<Placemark><name>MOL03</name><description>241003 PORT MOL (Metro. Nord)
posicio de les: 04/08/2018 22:26:27</description><styleUrl>#w_verdP</styleUrl><Point><coordinates>2.20165371894836,41.5371179580688,0</coordinates></Point></Placemark>
<Placemark><name>MOL04</name><description>241004 PORT MOL (Metro. Nord)
posicio de les: 04/08/2018 22:28:25</description><styleUrl>#w_verdP</styleUrl><Point><coordinates>2.20161080360413,41.5365278720856,0</coordinates></Point></Placemark>
<Placemark><name>41034</name><description>241034 BFP MOL (Metro. Nord)
posicio de les: 04/08/2018 22:25:48</description><styleUrl>#w_verdC</styleUrl><Point><coordinates>2.20241546630859,41.5370321273804,0</coordinates></Point></Placemark>
<Placemark><name>241040</name><description>241040 BUP MOL (Metro. Nord)
posicio de les: 04/08/2018 22:27:45</description><styleUrl>#w_grocC</styleUrl><Point><coordinates>2.20198631286621,41.5373432636261,0</coordinates></Point></Placemark>
<Placemark><name>241048</name><description>241048 BUL MOL (Metro. Nord)
posicio de les: 04/08/2018 22:26:25</description><styleUrl>#w_grocC</styleUrl><Point><coordinates>2.20206141471863,41.5368497371674,0</coordinates></Point></Placemark>
<Placemark><name>MFI01</name><description>241101 PORT MFI (Metro. Nord)
posicio de les: 04/08/2018 22:28:41</description><styleUrl>#w_verdP</styleUrl><Point><coordinates>2.27186322212219,41.7160534858704,0</coordinates></Point></Placemark>
<Placemark><name>SAB01</name><description>241401 PORT SAB (Metro. Nord)
posicio de les: 04/08/2018 22:28:36</description><styleUrl>#w_verdP</styleUrl><Point><coordinates>2.10903167724609,41.5373969078064,0</coordinates></Point></Placemark>
<Placemark><name>SAB06</name><description>241406 PORT SAB (Metro. Nord)
posicio de les: 04/08/2018 22:25:52</description><styleUrl>#w_verdP</styleUrl><Point><coordinates>2.10428953170776,41.5423214435577,0</coordinates></Point></Placemark>
<Placemark><name>41448</name><description>241448 BUL SAB (Metro. Nord)
posicio de les: 04/08/2018 22:28:49</description><styleUrl>#w_verdC</styleUrl><Point><coordinates>2.10784077644348,41.5384912490845,0</coordinates></Point></Placemark>
<Placemark><name>SAB56</name><description>241456 PORT.COM SAB (Metro. Nord)
posicio de les: 04/08/2018 22:27:16</description><styleUrl>#w_verdP</styleUrl><Point><coordinates>2.10439682006836,41.5424180030823,0</coordinates></Point></Placemark>
<Placemark><name>SCE07</name><description>241607 PORT SCE (Metro. Nord)
posicio de les: 04/08/2018 22:27:46</description><styleUrl>#w_verdP</styleUrl><Point><coordinates>2.50711441040039,41.6953361034393,0</coordinates></Point></Placemark>
<Placemark><name>SCE08</name><description>241608 PORT SCE (Metro. Nord)
posicio de les: 04/08/2018 22:27:51</description><styleUrl>#w_verdP</styleUrl><Point><coordinates>2.50725388526917,41.695100069046,0</coordinates></Point></Placemark>
<Placemark><name>SCG07</name><description>241807 PORT SCG (Metro. Nord)
posicio de les: 04/08/2018 22:28:25</description><styleUrl>#w_verdP</styleUrl><Point><coordinates>2.20942139625549,41.4631748199463,0</coordinates></Point></Placemark>
<Placemark><name>TER11</name><description>242011 PORT TER (Metro. Nord)
posicio de les: 04/08/2018 22:28:39</description><styleUrl>#w_verdP</styleUrl><Point><coordinates>2.02670931816101,41.5680921077728,0</coordinates></Point></Placemark>
<Placemark><name>TER56</name><description>242056 PORT.COM TER (Metro. Nord)
posicio de les: 04/08/2018 22:28:14</description><styleUrl>#w_verdP</styleUrl><Point><coordinates>2.02614068984985,41.5681779384613,0</coordinates></Point></Placemark>
<Placemark><name>50093</name><description>250093  REGIÓ
posicio de les: 04/08/2018 22:25:35</description><styleUrl>#w_verd</styleUrl><Point><coordinates>2.10003018379211,41.38028383255,0</coordinates></Point></Placemark>
<Placemark><name>50430</name><description>250430 BRP COR (Metro. Sud)
posicio de les: 04/08/2018 22:28:35</description><styleUrl>#w_verdC</styleUrl><Point><coordinates>2.0705258846283,41.3604998588562,0</coordinates></Point></Placemark>
<Placemark><name>COR56</name><description>250456 PORT.COM COR (Metro. Sud)
posicio de les: 04/08/2018 22:25:02</description><styleUrl>#w_verdP</styleUrl><Point><coordinates>2.07056879997253,41.3600277900696,0</coordinates></Point></Placemark>
<Placemark><name>50490</name><description>250490 UPC COR (Metro. Sud)
posicio de les: 04/08/2018 22:27:45</description><styleUrl>#w_groc</styleUrl><Point><coordinates>2.07025766372681,41.3625812530518,0</coordinates></Point></Placemark>
<Placemark><name>GAV02</name><description>250502 PORT GAV (Metro. Sud)
posicio de les: 04/08/2018 22:27:49</description><styleUrl>#w_verdP</styleUrl><Point><coordinates>1.9811224937439,41.2855052947998,0</coordinates></Point></Placemark>
<Placemark><name>50530</name><description>250530 BRP GAV (Metro. Sud)
posicio de les: 04/08/2018 22:28:41</description><styleUrl>#w_verdC</styleUrl><Point><coordinates>1.98338627815247,41.2848293781281,0</coordinates></Point></Placemark>
<Placemark><name>GAV56</name><description>250556 PORT.COM GAV (Metro. Sud)
posicio de les: 04/08/2018 22:27:12</description><styleUrl>#w_verdP</styleUrl><Point><coordinates>1.991046667099,41.3004291057587,0</coordinates></Point></Placemark>
<Placemark><name>HOS02</name><description>250702 PORT HOS (Metro. Sud)
posicio de les: 04/08/2018 22:27:01</description><styleUrl>#w_verdP</styleUrl><Point><coordinates>2.10271239280701,41.3695764541626,0</coordinates></Point></Placemark>
<Placemark><name>HOS06</name><description>250706 PORT HOS (Metro. Sud)
posicio de les: 04/08/2018 22:27:34</description><styleUrl>#w_verdP</styleUrl><Point><coordinates>2.105952501297,41.3700485229492,0</coordinates></Point></Placemark>
<Placemark><name>HOS14</name><description>250714 PORT HOS (Metro. Sud)
posicio de les: 04/08/2018 22:28:37</description><styleUrl>#w_verdP</styleUrl><Point><coordinates>2.10603833198547,41.3699841499329,0</coordinates></Point></Placemark>
<Placemark><name>250748</name><description>250748 BUL HOS (Metro. Sud)
posicio de les: 04/08/2018 22:28:30</description><styleUrl>#w_verdC</styleUrl><Point><coordinates>2.10673570632935,41.3699734210968,0</coordinates></Point></Placemark>
<Placemark><name>HOS56</name><description>250756 PORT.COM HOS (Metro. Sud)
posicio de les: 04/08/2018 22:25:43</description><styleUrl>#w_verdP</styleUrl><Point><coordinates>2.10581302642822,41.3695979118347,0</coordinates></Point></Placemark>
<Placemark><name>50790</name><description>250790 UPC HOS (Metro. Sud)
posicio de les: 04/08/2018 22:24:42</description><styleUrl>#w_verd</styleUrl><Point><coordinates>2.10574865341187,41.3697803020477,0</coordinates></Point></Placemark>
<Placemark><name>IGU07</name><description>250807 PORT IGU (Metro. Sud)
posicio de les: 04/08/2018 22:27:53</description><styleUrl>#w_verdP</styleUrl><Point><coordinates>1.61066651344299,41.588648557663,0</coordinates></Point></Placemark>
<Placemark><name>MAR57</name><description>251057 PORT.COM MAR (Metro. Sud)
posicio de les: 04/08/2018 22:27:52</description><styleUrl>#w_grocP</styleUrl><Point><coordinates>1.90797328948975,41.4986550807953,0</coordinates></Point></Placemark>
<Placemark><name>PLL06</name><description>251206 PORT PLL (Metro. Sud)
posicio de les: 04/08/2018 22:28:19</description><styleUrl>#w_verdP</styleUrl><Point><coordinates>2.08065390586853,41.317423582077,0</coordinates></Point></Placemark>
<Placemark><name>SBOI57</name><description>251357 PORT.COM SBOI (Metro. Sud)
posicio de les: 04/08/2018 22:24:18</description><styleUrl>#w_verdP</styleUrl><Point><coordinates>2.03418731689453,41.3226270675659,0</coordinates></Point></Placemark>
<Placemark><name>SFE02</name><description>251502 PORT SFE (Metro. Sud)
posicio de les: 04/08/2018 22:26:44</description><styleUrl>#w_verdP</styleUrl><Point><coordinates>2.04282402992249,41.3887596130371,0</coordinates></Point></Placemark>
<Placemark><name>SFE57</name><description>251557 PORT.COM SFE (Metro. Sud)
posicio de les: 04/08/2018 22:28:00</description><styleUrl>#w_verdP</styleUrl><Point><coordinates>2.04489469528198,41.3889312744141,0</coordinates></Point></Placemark>
<Placemark><name>VIF09</name><description>251809 PORT VIF (Metro. Sud)
posicio de les: 04/08/2018 22:27:35</description><styleUrl>#w_verdP</styleUrl><Point><coordinates>1.70393228530884,41.3550710678101,0</coordinates></Point></Placemark>
<Placemark><name>251840</name><description>251840 BUP VIF (Metro. Sud)
posicio de les: 04/08/2018 22:28:48</description><styleUrl>#w_verdC</styleUrl><Point><coordinates>1.73737406730652,41.3802623748779,0</coordinates></Point></Placemark>
<Placemark><name>51948</name><description>251948 BUL VIL (Metro. Sud)
posicio de les: 04/08/2018 22:26:50</description><styleUrl>#w_verdC</styleUrl><Point><coordinates>1.73169851303101,41.2241148948669,0</coordinates></Point></Placemark>
<Placemark><name>D2REMS</name><description>258042  SERVEIS REGIÓ
posicio de les: 04/08/2018 22:26:52</description><styleUrl>#w_verd</styleUrl><Point><coordinates>2.03434824943542,41.3223159313202,0</coordinates></Point></Placemark>
<Placemark><name>RET12</name><description>260012 P.Tec REGIÓ
posicio de les: 04/08/2018 22:25:15</description><styleUrl>#w_verdP</styleUrl><Point><coordinates>1.18539690971375,41.134260892868,0</coordinates></Point></Placemark>
<Placemark><name>GE0RET</name><description>260013 P.Tec REGIÓ
posicio de les: 04/08/2018 22:24:55</description><styleUrl>#w_verdP</styleUrl><Point><coordinates>1.18479609489441,41.1345827579498,0</coordinates></Point></Placemark>
<Placemark><name>GE600</name><description>260017 P.Tec REGIÓ
posicio de les: 04/08/2018 22:28:37</description><styleUrl>#w_verdP</styleUrl><Point><coordinates>1.18602991104126,41.1343145370483,0</coordinates></Point></Placemark>
<Placemark><name>CAMB06</name><description>260206 PORT CAMB (Tarragona)
posicio de les: 04/08/2018 22:28:08</description><styleUrl>#w_verdP</styleUrl><Point><coordinates>1.04061126708984,41.0766792297363,0</coordinates></Point></Placemark>
<Placemark><name>60240</name><description>260240 BUP CAMB (Tarragona)
posicio de les: 04/08/2018 22:27:33</description><styleUrl>#w_grocC</styleUrl><Point><coordinates>1.04133009910583,41.0767436027527,0</coordinates></Point></Placemark>
<Placemark><name>FALS06</name><description>260406 PORT FALS (Tarragona)
posicio de les: 04/08/2018 22:22:51</description><styleUrl>#w_verdP</styleUrl><Point><coordinates>0.8234703540802,41.147575378418,0</coordinates></Point></Placemark>
<Placemark><name>260508</name><description>260508 PORT HOSP (Tarragona)
posicio de les: 04/08/2018 22:26:52</description><styleUrl>#w_verdP</styleUrl><Point><coordinates>0.919826030731201,40.9935414791107,0</coordinates></Point></Placemark>
<Placemark><name>REUS03</name><description>260803 PORT REUS (Tarragona)
posicio de les: 04/08/2018 22:27:44</description><styleUrl>#w_verdP</styleUrl><Point><coordinates>1.11814856529236,41.1512553691864,0</coordinates></Point></Placemark>
<Placemark><name>60840</name><description>260840 BUP REUS (Tarragona)
posicio de les: 04/08/2018 22:28:44</description><styleUrl>#w_verdC</styleUrl><Point><coordinates>1.13749265670776,41.1458694934845,0</coordinates></Point></Placemark>
<Placemark><name>REUS56</name><description>260856 PORT.COM REUS (Tarragona)
posicio de les: 04/08/2018 22:27:29</description><styleUrl>#w_verdP</styleUrl><Point><coordinates>1.11827731132507,41.1512124538422,0</coordinates></Point></Placemark>
<Placemark><name>60890</name><description>260890 UPC REUS (Tarragona)
posicio de les: 04/08/2018 22:26:49</description><styleUrl>#w_verd</styleUrl><Point><coordinates>1.11833095550537,41.1512446403503,0</coordinates></Point></Placemark>
<Placemark><name>61230</name><description>261230 BRP TARR (Tarragona)
posicio de les: 04/08/2018 22:23:58</description><styleUrl>#w_grocC</styleUrl><Point><coordinates>1.13718152046204,41.1474680900574,0</coordinates></Point></Placemark>
<Placemark><name>VEND03</name><description>261403 PORT VEND (Tarragona)
posicio de les: 04/08/2018 22:28:14</description><styleUrl>#w_verdP</styleUrl><Point><coordinates>1.54135823249817,41.2218081951141,0</coordinates></Point></Placemark>
<Placemark><name>VEND10</name><description>261410 PORT VEND (Tarragona)
posicio de les: 04/08/2018 22:28:42</description><styleUrl>#w_verdP</styleUrl><Point><coordinates>1.54088616371155,41.2229347229004,0</coordinates></Point></Placemark>
<Placemark><name>61434</name><description>261434 BFP VEND (Tarragona)
posicio de les: 04/08/2018 22:27:50</description><styleUrl>#w_verdC</styleUrl><Point><coordinates>1.54143333435059,41.2229132652283,0</coordinates></Point></Placemark>
<Placemark><name>E00RETE</name><description>270014 P.Tec REGIÓ
posicio de les: 04/08/2018 22:28:09</description><styleUrl>#w_verdP</styleUrl><Point><coordinates>0.513460636138916,40.8196592330933,0</coordinates></Point></Placemark>
<Placemark><name>AMET06</name><description>272006 PORT AMET (Terres de l'Ebre)
posicio de les: 04/08/2018 22:28:46</description><styleUrl>#w_verdP</styleUrl><Point><coordinates>0.797603130340576,40.890394449234,0</coordinates></Point></Placemark>
<Placemark><name>AMPO56</name><description>272156 PORT.COM AMPO (Terres de l'Ebre)
posicio de les: 04/08/2018 22:23:10</description><styleUrl>#w_grocP</styleUrl><Point><coordinates>0.579410791397095,40.6900012493134,0</coordinates></Point></Placemark>
<Placemark><name>ASCO56</name><description>272256 PORT.COM ASCO (Terres de l'Ebre)
posicio de les: 04/08/2018 22:27:10</description><styleUrl>#w_verdP</styleUrl><Point><coordinates>0.568821430206299,41.1879587173462,0</coordinates></Point></Placemark>
<Placemark><name>72630</name><description>272630 BRP GAND (Terres de l'Ebre)
posicio de les: 04/08/2018 22:26:48</description><styleUrl>#w_verdC</styleUrl><Point><coordinates>0.440000295639038,41.058075428009,0</coordinates></Point></Placemark>
<Placemark><name>MORA57</name><description>272857 PORT.COM MORA (Terres de l'Ebre)
posicio de les: 04/08/2018 22:27:10</description><styleUrl>#w_verdP</styleUrl><Point><coordinates>0.630136728286743,41.0861527919769,0</coordinates></Point></Placemark>
<Placemark><name>TORT05</name><description>273005 PORT TORT (Terres de l'Ebre)
posicio de les: 04/08/2018 22:26:50</description><styleUrl>#w_grocP</styleUrl><Point><coordinates>0.513417720794678,40.8197021484375,0</coordinates></Point></Placemark>
<Placemark><name>ULLD08</name><description>273108 PORT ULLD (Terres de l'Ebre)
posicio de les: 04/08/2018 22:28:20</description><styleUrl>#w_grocP</styleUrl><Point><coordinates>0.358289480209351,40.6086337566376,0</coordinates></Point></Placemark>
</Folder>
<Folder>
<name>Descarregues</name>
</Folder>
<Style id="w_verdP_n"><IconStyle><color>ff00ff00</color><scale>1.0</scale><Icon><href>http://maps.google.com/mapfiles/kml/shapes/man.png</href></Icon><hotSpot x="0.5" y="0" xunits="fraction" yunits="fraction"/></IconStyle><LabelStyle><scale>0.7</scale></LabelStyle></Style>
<Style id="w_verdP_s"><IconStyle><color>ff00ff00</color><scale>1.4</scale><Icon><href>http://maps.google.com/mapfiles/kml/shapes/man.png</href></Icon><hotSpot x="0.5" y="0" xunits="fraction" yunits="fraction"/></IconStyle><LabelStyle><scale>0.7</scale></LabelStyle></Style>
<StyleMap id="w_verdP"><Pair><key>normal</key><styleUrl>#w_verdP_n</styleUrl></Pair><Pair><key>highlight</key><styleUrl>#w_verdP_s</styleUrl></Pair></StyleMap>
<Style id="w_verd_n"><IconStyle><color>ff00ff00</color><scale>0.7</scale><Icon><href>http://maps.google.com/mapfiles/kml/shapes/cabs.png</href></Icon><hotSpot x="0.5" y="0" xunits="fraction" yunits="fraction"/></IconStyle><LabelStyle><scale>0.7</scale></LabelStyle></Style>
<Style id="w_verd_s"><IconStyle><color>ff00ff00</color><scale>1.0</scale><Icon><href>http://maps.google.com/mapfiles/kml/shapes/cabs.png</href></Icon><hotSpot x="0.5" y="0" xunits="fraction" yunits="fraction"/></IconStyle><LabelStyle><scale>0.7</scale></LabelStyle></Style>
<StyleMap id="w_verd"><Pair><key>normal</key><styleUrl>#w_verd_n</styleUrl></Pair><Pair><key>highlight</key><styleUrl>#w_verd_s</styleUrl></Pair></StyleMap>
<Style id="w_verdC_n"><IconStyle><color>ff00ff00</color><scale>1.0</scale><Icon><href>http://maps.google.com/mapfiles/kml/shapes/truck.png</href></Icon><hotSpot x="0.5" y="0" xunits="fraction" yunits="fraction"/></IconStyle><LabelStyle><scale>0.7</scale></LabelStyle></Style>
<Style id="w_verdC_s"><IconStyle><color>ff00ff00</color><scale>1.4</scale><Icon><href>http://maps.google.com/mapfiles/kml/shapes/truck.png</href></Icon><hotSpot x="0.5" y="0" xunits="fraction" yunits="fraction"/></IconStyle><LabelStyle><scale>0.7</scale></LabelStyle></Style>
<StyleMap id="w_verdC"><Pair><key>normal</key><styleUrl>#w_verdC_n</styleUrl></Pair><Pair><key>highlight</key><styleUrl>#w_verdC_s</styleUrl></Pair></StyleMap>
<Style id="w_verdH_n"><IconStyle><color>ff0000ff</color><scale>1.2</scale><Icon><href>http://maps.google.com/mapfiles/kml/shapes/heliport.png</href></Icon><hotSpot x="0.5" y="0" xunits="fraction" yunits="fraction"/></IconStyle><LabelStyle><scale>0.7</scale></LabelStyle></Style>
<Style id="w_verdH_s"><IconStyle><color>ff0000ff</color><scale>1.4</scale><Icon><href>http://maps.google.com/mapfiles/kml/shapes/heliport.png</href></Icon><hotSpot x="0.5" y="0" xunits="fraction" yunits="fraction"/></IconStyle><LabelStyle><scale>0.7</scale></LabelStyle></Style>
<StyleMap id="w_verdH"><Pair><key>normal</key><styleUrl>#w_verdH_n</styleUrl></Pair><Pair><key>highlight</key><styleUrl>#w_verdH_s</styleUrl></Pair></StyleMap>
<Style id="w_verdA_n"><IconStyle><color>ff0000ff</color><scale>1.2</scale><Icon><href>http://maps.google.com/mapfiles/kml/shapes/airports.png</href></Icon><hotSpot x="0.5" y="0" xunits="fraction" yunits="fraction"/></IconStyle><LabelStyle><scale>0.7</scale></LabelStyle></Style>
<Style id="w_verdA_s"><IconStyle><color>ff0000ff</color><scale>1.4</scale><Icon><href>http://maps.google.com/mapfiles/kml/shapes/airports.png</href></Icon><hotSpot x="0.5" y="0" xunits="fraction" yunits="fraction"/></IconStyle><LabelStyle><scale>0.7</scale></LabelStyle></Style>
<StyleMap id="w_verdA"><Pair><key>normal</key><styleUrl>#w_verdA_n</styleUrl></Pair><Pair><key>highlight</key><styleUrl>#w_verdA_s</styleUrl></Pair></StyleMap>
<Style id="w_verdB_n"><IconStyle><color>ff00ff00</color><scale>1.0</scale><Icon><href>http://maps.google.com/mapfiles/kml/shapes/sailing.png</href></Icon><hotSpot x="0.5" y="0" xunits="fraction" yunits="fraction"/></IconStyle><LabelStyle><scale>0.7</scale></LabelStyle></Style>
<Style id="w_verdB_s"><IconStyle><color>ff00ff00</color><scale>1.4</scale><Icon><href>http://maps.google.com/mapfiles/kml/shapes/sailing.png</href></Icon><hotSpot x="0.5" y="0" xunits="fraction" yunits="fraction"/></IconStyle><LabelStyle><scale>0.7</scale></LabelStyle></Style>
<StyleMap id="w_verdB"><Pair><key>normal</key><styleUrl>#w_verdBAR_n</styleUrl></Pair><Pair><key>highlight</key><styleUrl>#w_verdBAR_s</styleUrl></Pair></StyleMap>
<Style id="w_grocP_n"><IconStyle><color>ff00ffff</color><scale>1.0</scale><Icon><href>http://maps.google.com/mapfiles/kml/shapes/man.png</href></Icon><hotSpot x="0.5" y="0" xunits="fraction" yunits="fraction"/></IconStyle><LabelStyle><scale>0.7</scale></LabelStyle></Style>
<Style id="w_grocP_s"><IconStyle><color>ff00ffff</color><scale>1.4</scale><Icon><href>http://maps.google.com/mapfiles/kml/shapes/man.png</href></Icon><hotSpot x="0.5" y="0" xunits="fraction" yunits="fraction"/></IconStyle><LabelStyle><scale>0.7</scale></LabelStyle></Style>
<StyleMap id="w_grocP"><Pair><key>normal</key><styleUrl>#w_grocP_n</styleUrl></Pair><Pair><key>highlight</key><styleUrl>#w_grocP_s</styleUrl></Pair></StyleMap>
<Style id="w_groc_n"><IconStyle><color>ff00ffff</color><scale>0.7</scale><Icon><href>http://maps.google.com/mapfiles/kml/shapes/cabs.png</href></Icon><hotSpot x="0.5" y="0" xunits="fraction" yunits="fraction"/></IconStyle><LabelStyle><scale>0.7</scale></LabelStyle></Style>
<Style id="w_groc_s"><IconStyle><color>ff00ffff</color><scale>1.0</scale><Icon><href>http://maps.google.com/mapfiles/kml/shapes/cabs.png</href></Icon><hotSpot x="0.5" y="0" xunits="fraction" yunits="fraction"/></IconStyle><LabelStyle><scale>0.7</scale></LabelStyle></Style>
<StyleMap id="w_groc"><Pair><key>normal</key><styleUrl>#w_groc_n</styleUrl></Pair><Pair><key>highlight</key><styleUrl>#w_groc_s</styleUrl></Pair></StyleMap>
<Style id="w_grocC_n"><IconStyle><color>ff00ffff</color><scale>1.0</scale><Icon><href>http://maps.google.com/mapfiles/kml/shapes/truck.png</href></Icon><hotSpot x="0.5" y="0" xunits="fraction" yunits="fraction"/></IconStyle><LabelStyle><scale>0.7</scale></LabelStyle></Style>
<Style id="w_grocC_s"><IconStyle><color>ff00ffff</color><scale>1.4</scale><Icon><href>http://maps.google.com/mapfiles/kml/shapes/truck.png</href></Icon><hotSpot x="0.5" y="0" xunits="fraction" yunits="fraction"/></IconStyle><LabelStyle><scale>0.7</scale></LabelStyle></Style>
<StyleMap id="w_grocC"><Pair><key>normal</key><styleUrl>#w_grocC_n</styleUrl></Pair><Pair><key>highlight</key><styleUrl>#w_grocC_s</styleUrl></Pair></StyleMap>
<Style id="w_grocH_n"><IconStyle><color>ff0000ff</color><scale>1.2</scale><Icon><href>http://maps.google.com/mapfiles/kml/shapes/heliport.png</href></Icon><hotSpot x="0.5" y="0" xunits="fraction" yunits="fraction"/></IconStyle><LabelStyle><scale>0.7</scale></LabelStyle></Style>
<Style id="w_grocH_s"><IconStyle><color>ff0000ff</color><scale>1.4</scale><Icon><href>http://maps.google.com/mapfiles/kml/shapes/heliport.png</href></Icon><hotSpot x="0.5" y="0" xunits="fraction" yunits="fraction"/></IconStyle><LabelStyle><scale>0.7</scale></LabelStyle></Style>
<StyleMap id="w_grocH"><Pair><key>normal</key><styleUrl>#w_grocH_n</styleUrl></Pair><Pair><key>highlight</key><styleUrl>#w_grocH_s</styleUrl></Pair></StyleMap>
<Style id="w_grocA_n"><IconStyle><color>ff0000ff</color><scale>1.2</scale><Icon><href>http://maps.google.com/mapfiles/kml/shapes/airports.png</href></Icon><hotSpot x="0.5" y="0" xunits="fraction" yunits="fraction"/></IconStyle><LabelStyle><scale>0.7</scale></LabelStyle></Style>
<Style id="w_grocA_s"><IconStyle><color>ff0000ff</color><scale>1.4</scale><Icon><href>http://maps.google.com/mapfiles/kml/shapes/airports.png</href></Icon><hotSpot x="0.5" y="0" xunits="fraction" yunits="fraction"/></IconStyle><LabelStyle><scale>0.7</scale></LabelStyle></Style>
<StyleMap id="w_grocA"><Pair><key>normal</key><styleUrl>#w_grocA_n</styleUrl></Pair><Pair><key>highlight</key><styleUrl>#w_grocA_s</styleUrl></Pair></StyleMap>
<Style id="w_grocB_n"><IconStyle><color>ff00ffff</color><scale>1.0</scale><Icon><href>http://maps.google.com/mapfiles/kml/shapes/sailing.png</href></Icon><hotSpot x="0.5" y="0" xunits="fraction" yunits="fraction"/></IconStyle><LabelStyle><scale>0.7</scale></LabelStyle></Style>
<Style id="w_grocB_s"><IconStyle><color>ff00ffff</color><scale>1.4</scale><Icon><href>http://maps.google.com/mapfiles/kml/shapes/sailing.png</href></Icon><hotSpot x="0.5" y="0" xunits="fraction" yunits="fraction"/></IconStyle><LabelStyle><scale>0.7</scale></LabelStyle></Style>
<StyleMap id="w_grocB"><Pair><key>normal</key><styleUrl>#w_grocBAR_n</styleUrl></Pair><Pair><key>highlight</key><styleUrl>#w_grocBAR_s</styleUrl></Pair></StyleMap>
<Style id="w_vermellP_n"><IconStyle><color>ff0000ff</color><scale>1.0</scale><Icon><href>http://maps.google.com/mapfiles/kml/shapes/man.png</href></Icon><hotSpot x="0.5" y="0" xunits="fraction" yunits="fraction"/></IconStyle><LabelStyle><scale>0.7</scale></LabelStyle></Style>
<Style id="w_vermellP_s"><IconStyle><color>ff0000ff</color><scale>1.4</scale><Icon><href>http://maps.google.com/mapfiles/kml/shapes/man.png</href></Icon><hotSpot x="0.5" y="0" xunits="fraction" yunits="fraction"/></IconStyle><LabelStyle><scale>0.7</scale></LabelStyle></Style>
<StyleMap id="w_vermellP"><Pair><key>normal</key><styleUrl>#w_vermellP_n</styleUrl></Pair><Pair><key>highlight</key><styleUrl>#w_vermellP_s</styleUrl></Pair></StyleMap>
<Style id="w_vermell_n"><IconStyle><color>ff0000ff</color><scale>0.7</scale><Icon><href>http://maps.google.com/mapfiles/kml/shapes/cabs.png</href></Icon><hotSpot x="0.5" y="0" xunits="fraction" yunits="fraction"/></IconStyle><LabelStyle><scale>0.7</scale></LabelStyle></Style>
<Style id="w_vermell_s"><IconStyle><color>ff0000ff</color><scale>1.0</scale><Icon><href>http://maps.google.com/mapfiles/kml/shapes/cabs.png</href></Icon><hotSpot x="0.5" y="0" xunits="fraction" yunits="fraction"/></IconStyle><LabelStyle><scale>0.7</scale></LabelStyle></Style>
<StyleMap id="w_vermell"><Pair><key>normal</key><styleUrl>#w_vermell_n</styleUrl></Pair><Pair><key>highlight</key><styleUrl>#w_vermell_s</styleUrl></Pair></StyleMap>
<Style id="w_vermellC_n"><IconStyle><color>ff0000ff</color><scale>1.0</scale><Icon><href>http://maps.google.com/mapfiles/kml/shapes/truck.png</href></Icon><hotSpot x="0.5" y="0" xunits="fraction" yunits="fraction"/></IconStyle><LabelStyle><scale>0.7</scale></LabelStyle></Style>
<Style id="w_vermellC_s"><IconStyle><color>ff0000ff</color><scale>1.4</scale><Icon><href>http://maps.google.com/mapfiles/kml/shapes/truck.png</href></Icon><hotSpot x="0.5" y="0" xunits="fraction" yunits="fraction"/></IconStyle><LabelStyle><scale>0.7</scale></LabelStyle></Style>
<StyleMap id="w_vermellC"><Pair><key>normal</key><styleUrl>#w_vermellC_n</styleUrl></Pair><Pair><key>highlight</key><styleUrl>#w_vermellC_s</styleUrl></Pair></StyleMap>
<Style id="w_vermellH_n"><IconStyle><color>ff0000ff</color><scale>1.2</scale><Icon><href>http://maps.google.com/mapfiles/kml/shapes/heliport.png</href></Icon><hotSpot x="0.5" y="0" xunits="fraction" yunits="fraction"/></IconStyle><LabelStyle><scale>0.7</scale></LabelStyle></Style>
<Style id="w_vermellH_s"><IconStyle><color>ff0000ff</color><scale>1.4</scale><Icon><href>http://maps.google.com/mapfiles/kml/shapes/heliport.png</href></Icon><hotSpot x="0.5" y="0" xunits="fraction" yunits="fraction"/></IconStyle><LabelStyle><scale>0.7</scale></LabelStyle></Style>
<StyleMap id="w_vermellH"><Pair><key>normal</key><styleUrl>#w_vermellH_n</styleUrl></Pair><Pair><key>highlight</key><styleUrl>#w_vermellH_s</styleUrl></Pair></StyleMap>
<Style id="w_vermellA_n"><IconStyle><color>ff0000ff</color><scale>1.2</scale><Icon><href>http://maps.google.com/mapfiles/kml/shapes/airports.png</href></Icon><hotSpot x="0.5" y="0" xunits="fraction" yunits="fraction"/></IconStyle><LabelStyle><scale>0.7</scale></LabelStyle></Style>
<Style id="w_vermellA_s"><IconStyle><color>ff0000ff</color><scale>1.4</scale><Icon><href>http://maps.google.com/mapfiles/kml/shapes/airports.png</href></Icon><hotSpot x="0.5" y="0" xunits="fraction" yunits="fraction"/></IconStyle><LabelStyle><scale>0.7</scale></LabelStyle></Style>
<StyleMap id="w_vermellA"><Pair><key>normal</key><styleUrl>#w_vermellA_n</styleUrl></Pair><Pair><key>highlight</key><styleUrl>#w_vermellA_s</styleUrl></Pair></StyleMap>
<Style id="w_vermellB_n"><IconStyle><color>ff0000ff</color><scale>1.0</scale><Icon><href>http://maps.google.com/mapfiles/kml/shapes/sailing.png</href></Icon><hotSpot x="0.5" y="0" xunits="fraction" yunits="fraction"/></IconStyle><LabelStyle><scale>0.7</scale></LabelStyle></Style>
<Style id="w_vermellB_s"><IconStyle><color>ff0000ff</color><scale>1.4</scale><Icon><href>http://maps.google.com/mapfiles/kml/shapes/sailing.png</href></Icon><hotSpot x="0.5" y="0" xunits="fraction" yunits="fraction"/></IconStyle><LabelStyle><scale>0.7</scale></LabelStyle></Style>
<StyleMap id="w_vermellB"><Pair><key>normal</key><styleUrl>#w_vermellBAR_n</styleUrl></Pair><Pair><key>highlight</key><styleUrl>#w_vermellBAR_s</styleUrl></Pair></StyleMap>
<Style id="w_descarrega"><IconStyle><color>ff00ffff</color><scale>0.5</scale><Icon><href>http://maps.google.com/mapfiles/kml/shapes/road_shield3.png</href></Icon></IconStyle><LabelStyle><scale>0.7</scale></LabelStyle></Style><Style id="actuacio"><IconStyle><color>ff00ffff</color><scale>0.8</scale><Icon><href>http://maps.google.com/mapfiles/kml/shapes/caution.png</href></Icon></IconStyle><LabelStyle><scale>0.7</scale></LabelStyle></Style></Document></kml>