<?xml version="1.0" encoding="UTF-8"?>
<kml xmlns="http://www.opengis.net/kml/2.2" xmlns:gx="http://www.google.com/kml/ext/2.2" xmlns:kml="http://www.opengis.net/kml/2.2" xmlns:atom="http://www.w3.org/2005/Atom">
<Document>
<name>Terminals</name>
<Snippet maxLines="2">Created 08/08/2018 06:58:59</Snippet>
<Folder>
<name>Terminals</name>
<Placemark><name>A0204</name><description>200204 PORT Dept.
posicio de les: 08/08/2018 06:58:47</description><styleUrl>#w_verdP</styleUrl><Point><coordinates>0.733187198638916,42.3678731918335,0</coordinates></Point></Placemark>
<Placemark><name>GGRAF03</name><description>204203 P.UT
posicio de les: 08/08/2018 06:57:28</description><styleUrl>#w_grocP</styleUrl><Point><coordinates>2.80659914016724,41.9604241847992,0</coordinates></Point></Placemark>
<Placemark><name>GGRAF04</name><description>204204 P.UT
posicio de les: 08/08/2018 06:55:46</description><styleUrl>#w_verdP</styleUrl><Point><coordinates>2.80667424201965,41.960391998291,0</coordinates></Point></Placemark>
<Placemark><name>GGRAF07</name><description>204207 P.UT
posicio de les: 08/08/2018 06:57:39</description><styleUrl>#w_verdP</styleUrl><Point><coordinates>2.80663132667542,41.9602739810944,0</coordinates></Point></Placemark>
<Placemark><name>LGRAF08</name><description>204308 P.UT
posicio de les: 08/08/2018 06:57:07</description><styleUrl>#w_grocP</styleUrl><Point><coordinates>0.889549255371094,42.1644651889801,0</coordinates></Point></Placemark>
<Placemark><name>05178</name><description>205178 BRAVO
posicio de les: 08/08/2018 06:56:21</description><styleUrl>#w_groc</styleUrl><Point><coordinates>2.10416078567505,41.8083536624908,0</coordinates></Point></Placemark>
<Placemark><name>OP05061</name><description>205261 MAER
posicio de les: 08/08/2018 06:55:50</description><styleUrl>#w_verdP</styleUrl><Point><coordinates>0.987428426742554,41.3121020793915,0</coordinates></Point></Placemark>
<Placemark><name>VIEL12</name><description>208012 P.PT VARAN
posicio de les: 08/08/2018 06:58:00</description><styleUrl>#w_grocP</styleUrl><Point><coordinates>0.801208019256592,42.6996088027954,0</coordinates></Point></Placemark>
<Placemark><name>VIEL17</name><description>208017 BASE CCA VARAN
posicio de les: 08/08/2018 06:57:14</description><styleUrl>#w_groc</styleUrl><Point><coordinates>0.796712636947632,42.7081060409546,0</coordinates></Point></Placemark>
<Placemark><name>10072</name><description>210072  REGIÓ
posicio de les: 08/08/2018 06:54:46</description><styleUrl>#w_groc</styleUrl><Point><coordinates>1.85160398483276,41.741384267807,0</coordinates></Point></Placemark>
<Placemark><name>10082</name><description>210082  REGIÓ
posicio de les: 08/08/2018 06:58:54</description><styleUrl>#w_verd</styleUrl><Point><coordinates>0.919386148452759,41.6439771652222,0</coordinates></Point></Placemark>
<Placemark><name>CAB56</name><description>210656 PORT.COM CAB (Centre)
posicio de les: 08/08/2018 06:58:05</description><styleUrl>#w_grocP</styleUrl><Point><coordinates>1.68523192405701,41.6657888889313,0</coordinates></Point></Placemark>
<Placemark><name>MAN03</name><description>211003 PORT MAN (Centre)
posicio de les: 08/08/2018 06:58:12</description><styleUrl>#w_verdP</styleUrl><Point><coordinates>1.85204386711121,41.7408156394959,0</coordinates></Point></Placemark>
<Placemark><name>MOI6</name><description>211106 PORT MOI (Centre)
posicio de les: 08/08/2018 06:57:05</description><styleUrl>#w_grocP</styleUrl><Point><coordinates>2.08645820617676,41.811797618866,0</coordinates></Point></Placemark>
<Placemark><name>PRA03</name><description>211403 PORT PRA (Centre)
posicio de les: 08/08/2018 06:58:31</description><styleUrl>#w_grocP</styleUrl><Point><coordinates>2.035893201828,42.0079100131989,0</coordinates></Point></Placemark>
<Placemark><name>PRA07</name><description>211407 PORT PRA (Centre)
posicio de les: 08/08/2018 06:58:53</description><styleUrl>#w_grocP</styleUrl><Point><coordinates>2.03609704971313,42.0079529285431,0</coordinates></Point></Placemark>
<Placemark><name>12030</name><description>212030 BRP TOR (Centre)
posicio de les: 08/08/2018 06:54:27</description><styleUrl>#w_grocC</styleUrl><Point><coordinates>2.2671103477478,42.0485079288483,0</coordinates></Point></Placemark>
<Placemark><name>217224</name><description>217224 P.GUAITA GUAITA
posicio de les: 08/08/2018 06:56:02</description><styleUrl>#w_verdP</styleUrl><Point><coordinates>2.03626871109009,42.0081782341003,0</coordinates></Point></Placemark>
<Placemark><name>E0REG</name><description>220012 P.Tec REGIÓ
posicio de les: 08/08/2018 06:58:41</description><styleUrl>#w_grocP</styleUrl><Point><coordinates>3.15301179885864,42.3576056957245,0</coordinates></Point></Placemark>
<Placemark><name>20080</name><description>220080  REGIÓ
posicio de les: 08/08/2018 06:58:58</description><styleUrl>#w_verd</styleUrl><Point><coordinates>2.74624943733215,41.8236529827118,0</coordinates></Point></Placemark>
<Placemark><name>AMER57</name><description>220157 PORT.COM AMER (Girona)
posicio de les: 08/08/2018 06:58:42</description><styleUrl>#w_verdP</styleUrl><Point><coordinates>2.59621739387512,42.0112788677216,0</coordinates></Point></Placemark>
<Placemark><name>20690</name><description>220690 UPC CALO (Girona)
posicio de les: 08/08/2018 06:55:54</description><styleUrl>#w_verd</styleUrl><Point><coordinates>3.07565689086914,41.8520414829254,0</coordinates></Point></Placemark>
<Placemark><name>CASS56</name><description>220856 PORT.COM CASS (Girona)
posicio de les: 08/08/2018 06:58:13</description><styleUrl>#w_verdP</styleUrl><Point><coordinates>2.88356781005859,41.8794000148773,0</coordinates></Point></Placemark>
<Placemark><name>20880</name><description>220880 UPCL/USL CASS (Girona)
posicio de les: 08/08/2018 06:58:34</description><styleUrl>#w_groc</styleUrl><Point><coordinates>2.88428664207459,41.879700422287,0</coordinates></Point></Placemark>
<Placemark><name>20930</name><description>220930 BRP ESCA (Girona)
posicio de les: 08/08/2018 06:58:00</description><styleUrl>#w_grocC</styleUrl><Point><coordinates>3.12724113464355,42.1152949333191,0</coordinates></Point></Placemark>
<Placemark><name>21030</name><description>221030 BRP FIGU (Girona)
posicio de les: 08/08/2018 06:55:21</description><styleUrl>#w_grocC</styleUrl><Point><coordinates>2.97150135040283,42.2712171077728,0</coordinates></Point></Placemark>
<Placemark><name>FIGU56</name><description>221056 PORT.COM FIGU (Girona)
posicio de les: 08/08/2018 06:59:01</description><styleUrl>#w_verdP</styleUrl><Point><coordinates>2.97057867050171,42.2720646858215,0</coordinates></Point></Placemark>
<Placemark><name>21190</name><description>221190 UPC GIRO (Girona)
posicio de les: 08/08/2018 06:54:30</description><styleUrl>#w_groc</styleUrl><Point><coordinates>2.80645966529846,41.9603168964386,0</coordinates></Point></Placemark>
<Placemark><name>21330</name><description>221330 BRP JONQ (Girona)
posicio de les: 08/08/2018 06:58:02</description><styleUrl>#w_grocC</styleUrl><Point><coordinates>2.88304209709167,42.4006497859955,0</coordinates></Point></Placemark>
<Placemark><name>JONQ56</name><description>221356 PORT.COM JONQ (Girona)
posicio de les: 08/08/2018 06:58:40</description><styleUrl>#w_verdP</styleUrl><Point><coordinates>2.8829026222229,42.4006927013397,0</coordinates></Point></Placemark>
<Placemark><name>LLAN57</name><description>221457 PORT.COM LLAN (Girona)
posicio de les: 08/08/2018 06:57:38</description><styleUrl>#w_verdP</styleUrl><Point><coordinates>3.15285086631775,42.3573696613312,0</coordinates></Point></Placemark>
<Placemark><name>LLOR56</name><description>221556 PORT.COM LLOR (Girona)
posicio de les: 08/08/2018 06:57:30</description><styleUrl>#w_verdP</styleUrl><Point><coordinates>2.83631801605225,41.6997671127319,0</coordinates></Point></Placemark>
<Placemark><name>21630</name><description>221630 BRP MACA (Girona)
posicio de les: 08/08/2018 06:57:40</description><styleUrl>#w_grocC</styleUrl><Point><coordinates>2.75975704193115,41.7856085300446,0</coordinates></Point></Placemark>
<Placemark><name>21655</name><description>221655 FSV/FRQ/FER/FRM/FRA/FSA MACA (Girona)
posicio de les: 08/08/2018 06:55:29</description><styleUrl>#w_grocC</styleUrl><Point><coordinates>2.75310516357422,41.7796003818512,0</coordinates></Point></Placemark>
<Placemark><name>MAÇA57</name><description>221657 PORT.COM MACA (Girona)
posicio de les: 08/08/2018 06:57:26</description><styleUrl>#w_grocP</styleUrl><Point><coordinates>2.75300860404968,41.7794394493103,0</coordinates></Point></Placemark>
<Placemark><name>PALA56</name><description>221856 PORT.COM PALA (Girona)
posicio de les: 08/08/2018 06:54:36</description><styleUrl>#w_verdP</styleUrl><Point><coordinates>3.15668106079102,41.9256520271301,0</coordinates></Point></Placemark>
<Placemark><name>21890</name><description>221890 UPC PALA (Girona)
posicio de les: 08/08/2018 06:58:42</description><styleUrl>#w_groc</styleUrl><Point><coordinates>3.15635919570923,41.9258451461792,0</coordinates></Point></Placemark>
<Placemark><name>22130</name><description>222130 BRP RIPO (Girona)
posicio de les: 08/08/2018 06:55:48</description><styleUrl>#w_grocC</styleUrl><Point><coordinates>2.16829776763916,42.2149980068207,0</coordinates></Point></Placemark>
<Placemark><name>RIPO56</name><description>222156 PORT.COM RIPO (Girona)
posicio de les: 08/08/2018 06:58:20</description><styleUrl>#w_verdP</styleUrl><Point><coordinates>2.16841578483582,42.2152233123779,0</coordinates></Point></Placemark>
<Placemark><name>TORR56</name><description>222656 PORT.COM TORR (Girona)
posicio de les: 08/08/2018 06:57:18</description><styleUrl>#w_grocP</styleUrl><Point><coordinates>3.16707730293274,42.0478105545044,0</coordinates></Point></Placemark>
<Placemark><name>VALL57</name><description>222857 PORT.COM VALL (Girona)
posicio de les: 08/08/2018 06:56:47</description><styleUrl>#w_verdP</styleUrl><Point><coordinates>3.03193688392639,41.8088471889496,0</coordinates></Point></Placemark>
<Placemark><name>I308</name><description>227308 P.GUAITA GUAITA
posicio de les: 08/08/2018 06:57:58</description><styleUrl>#w_verdP</styleUrl><Point><coordinates>3.1555438041687,41.9257807731628,0</coordinates></Point></Placemark>
<Placemark><name>D3REG</name><description>228043  SERVEIS REGIÓ
posicio de les: 08/08/2018 06:55:47</description><styleUrl>#w_groc</styleUrl><Point><coordinates>2.80624508857727,41.9602203369141,0</coordinates></Point></Placemark>
<Placemark><name>D0REL</name><description>230010 P.CG REGIÓ
posicio de les: 08/08/2018 06:57:04</description><styleUrl>#w_verdP</styleUrl><Point><coordinates>0.605524778366089,41.6238605976105,0</coordinates></Point></Placemark>
<Placemark><name>RELL12</name><description>230012 P.Tec REGIÓ
posicio de les: 08/08/2018 06:55:58</description><styleUrl>#w_grocP</styleUrl><Point><coordinates>1.22831225395203,42.5586533546448,0</coordinates></Point></Placemark>
<Placemark><name>30092</name><description>230092  REGIÓ
posicio de les: 08/08/2018 06:57:16</description><styleUrl>#w_groc</styleUrl><Point><coordinates>1.22806549072266,42.5588464736938,0</coordinates></Point></Placemark>
<Placemark><name>30096</name><description>230096  REGIÓ
posicio de les: 08/08/2018 06:56:23</description><styleUrl>#w_groc</styleUrl><Point><coordinates>1.14389777183533,42.045224905014,0</coordinates></Point></Placemark>
<Placemark><name>AGRA01</name><description>230201 PORT AGRA (Lleida)
posicio de les: 08/08/2018 06:57:00</description><styleUrl>#w_verdP</styleUrl><Point><coordinates>1.05036377906799,41.797581911087,0</coordinates></Point></Placemark>
<Placemark><name>ALMA07</name><description>230307 PORT ALMA (Lleida)
posicio de les: 08/08/2018 06:57:51</description><styleUrl>#w_verdP</styleUrl><Point><coordinates>0.442854166030884,41.7298078536987,0</coordinates></Point></Placemark>
<Placemark><name>BALA56</name><description>230656 PORT.COM BALA (Lleida)
posicio de les: 08/08/2018 06:57:40</description><styleUrl>#w_verdP</styleUrl><Point><coordinates>1.14362955093384,42.0450639724731,0</coordinates></Point></Placemark>
<Placemark><name>BORG05</name><description>230705 PORT BORG (Lleida)
posicio de les: 08/08/2018 06:58:58</description><styleUrl>#w_grocP</styleUrl><Point><coordinates>0.845099687576294,41.5070450305939,0</coordinates></Point></Placemark>
<Placemark><name>32234</name><description>232234 BFP OLIA (Lleida)
posicio de les: 08/08/2018 06:56:07</description><styleUrl>#w_grocC</styleUrl><Point><coordinates>1.14384412765503,42.0451927185059,0</coordinates></Point></Placemark>
<Placemark><name>POBL01</name><description>232401 PORT POBL (Lleida)
posicio de les: 08/08/2018 06:58:26</description><styleUrl>#w_verdP</styleUrl><Point><coordinates>0.964339971542358,42.2389984130859,0</coordinates></Point></Placemark>
<Placemark><name>PONS01</name><description>232601 PORT PONS (Lleida)
posicio de les: 08/08/2018 06:57:52</description><styleUrl>#w_verdP</styleUrl><Point><coordinates>1.1956000328064,41.9045698642731,0</coordinates></Point></Placemark>
<Placemark><name>32634</name><description>232634 BFP PONS (Lleida)
posicio de les: 08/08/2018 06:58:37</description><styleUrl>#w_verdC</styleUrl><Point><coordinates>1.14529252052307,42.0449352264404,0</coordinates></Point></Placemark>
<Placemark><name>PONS56</name><description>232656 PORT.COM PONS (Lleida)
posicio de les: 08/08/2018 06:57:25</description><styleUrl>#w_verdP</styleUrl><Point><coordinates>1.14392995834351,42.045750617981,0</coordinates></Point></Placemark>
<Placemark><name>SORT04</name><description>233004 PORT SORT (Lleida)
posicio de les: 08/08/2018 06:58:45</description><styleUrl>#w_verdP</styleUrl><Point><coordinates>1.22820496559143,42.5590717792511,0</coordinates></Point></Placemark>
<Placemark><name>GE0REMN</name><description>240013 P.Tec REGIÓ
posicio de les: 08/08/2018 06:57:10</description><styleUrl>#w_verdP</styleUrl><Point><coordinates>2.50692129135132,41.6953361034393,0</coordinates></Point></Placemark>
<Placemark><name>240090</name><description>240090  REGIÓ
posicio de les: 08/08/2018 06:59:00</description><styleUrl>#w_verd</styleUrl><Point><coordinates>0.785683393478394,40.873464345932,0</coordinates></Point></Placemark>
<Placemark><name>40091</name><description>240091  REGIÓ
posicio de les: 08/08/2018 06:58:44</description><styleUrl>#w_groc</styleUrl><Point><coordinates>2.11168169975281,41.5024960041046,0</coordinates></Point></Placemark>
<Placemark><name>40290</name><description>240290 UPC BAD (Metro. Nord)
posicio de les: 08/08/2018 06:57:03</description><styleUrl>#w_groc</styleUrl><Point><coordinates>2.02584028244019,41.5678560733795,0</coordinates></Point></Placemark>
<Placemark><name>40660</name><description>240660 AEA/AES/ABA GRA (Metro. Nord)
posicio de les: 08/08/2018 06:58:39</description><styleUrl>#w_grocC</styleUrl><Point><coordinates>2.27370858192444,41.5875864028931,0</coordinates></Point></Placemark>
<Placemark><name>MOL03</name><description>241003 PORT MOL (Metro. Nord)
posicio de les: 08/08/2018 06:58:51</description><styleUrl>#w_verdP</styleUrl><Point><coordinates>2.20072031021118,41.5366780757904,0</coordinates></Point></Placemark>
<Placemark><name>41260</name><description>241260 AEA/AES/ABA PIN (Metro. Nord)
posicio de les: 08/08/2018 06:54:38</description><styleUrl>#w_grocC</styleUrl><Point><coordinates>2.27545738220215,41.5907084941864,0</coordinates></Point></Placemark>
<Placemark><name>RUB01</name><description>241301 PORT RUB (Metro. Nord)
posicio de les: 08/08/2018 06:58:14</description><styleUrl>#w_verdP</styleUrl><Point><coordinates>2.0350456237793,41.4735925197601,0</coordinates></Point></Placemark>
<Placemark><name>41340</name><description>241340 BUP RUB (Metro. Nord)
posicio de les: 08/08/2018 06:56:20</description><styleUrl>#w_grocC</styleUrl><Point><coordinates>2.03287839889526,41.4798903465271,0</coordinates></Point></Placemark>
<Placemark><name>41640</name><description>241640 BUP SCE (Metro. Nord)
posicio de les: 08/08/2018 06:55:17</description><styleUrl>#w_grocC</styleUrl><Point><coordinates>2.50703930854797,41.6952395439148,0</coordinates></Point></Placemark>
<Placemark><name>TER07</name><description>242007 PORT TER (Metro. Nord)
posicio de les: 08/08/2018 06:58:07</description><styleUrl>#w_grocP</styleUrl><Point><coordinates>2.02604413032532,41.5684032440186,0</coordinates></Point></Placemark>
<Placemark><name>TER09</name><description>242009 PORT TER (Metro. Nord)
posicio de les: 08/08/2018 06:57:34</description><styleUrl>#w_verdP</styleUrl><Point><coordinates>2.02555060386658,41.5683495998383,0</coordinates></Point></Placemark>
<Placemark><name>TOD56</name><description>242156 PORT.COM TOD (Metro. Nord)
posicio de les: 08/08/2018 06:58:20</description><styleUrl>#w_verdP</styleUrl><Point><coordinates>2.71678805351257,41.6913664340973,0</coordinates></Point></Placemark>
<Placemark><name>50071</name><description>250071  REGIÓ
posicio de les: 08/08/2018 06:58:47</description><styleUrl>#w_groc</styleUrl><Point><coordinates>2.03389763832092,41.3228309154511,0</coordinates></Point></Placemark>
<Placemark><name>50093</name><description>250093  REGIÓ
posicio de les: 08/08/2018 06:57:49</description><styleUrl>#w_groc</styleUrl><Point><coordinates>2.03440189361572,41.3228416442871,0</coordinates></Point></Placemark>
<Placemark><name>COR03</name><description>250403 PORT COR (Metro. Sud)
posicio de les: 08/08/2018 06:57:04</description><styleUrl>#w_verdP</styleUrl><Point><coordinates>2.07001090049744,41.3600707054138,0</coordinates></Point></Placemark>
<Placemark><name>GAV11</name><description>250511 PORT GAV (Metro. Sud)
posicio de les: 08/08/2018 06:58:29</description><styleUrl>#w_verdP</styleUrl><Point><coordinates>1.99029564857483,41.299957036972,0</coordinates></Point></Placemark>
<Placemark><name>GAV57</name><description>250557 PORT.COM GAV (Metro. Sud)
posicio de les: 08/08/2018 06:57:53</description><styleUrl>#w_verdP</styleUrl><Point><coordinates>1.99018836021423,41.3001394271851,0</coordinates></Point></Placemark>
<Placemark><name>50890</name><description>250890 UPC IGU (Metro. Sud)
posicio de les: 08/08/2018 06:56:02</description><styleUrl>#w_groc</styleUrl><Point><coordinates>1.61119222640991,41.5890777111053,0</coordinates></Point></Placemark>
<Placemark><name>51030</name><description>251030 BRP MAR (Metro. Sud)
posicio de les: 08/08/2018 06:58:30</description><styleUrl>#w_grocC</styleUrl><Point><coordinates>1.90810203552246,41.4989018440247,0</coordinates></Point></Placemark>
<Placemark><name>PLL57</name><description>251257 PORT.COM PLL (Metro. Sud)
posicio de les: 08/08/2018 06:57:23</description><styleUrl>#w_verdP</styleUrl><Point><coordinates>2.08152294158936,41.3170909881592,0</coordinates></Point></Placemark>
<Placemark><name>SBOI56</name><description>251356 PORT.COM SBOI (Metro. Sud)
posicio de les: 08/08/2018 06:56:24</description><styleUrl>#w_verdP</styleUrl><Point><coordinates>2.0350456237793,41.3227450847626,0</coordinates></Point></Placemark>
<Placemark><name>SFE56</name><description>251556 PORT.COM SFE (Metro. Sud)
posicio de les: 08/08/2018 06:57:30</description><styleUrl>#w_grocP</styleUrl><Point><coordinates>2.04319953918457,41.3887274265289,0</coordinates></Point></Placemark>
<Placemark><name>SIT03</name><description>251703 PORT SIT (Metro. Sud)
posicio de les: 08/08/2018 06:57:44</description><styleUrl>#w_verdP</styleUrl><Point><coordinates>1.80970788002014,41.2412166595459,0</coordinates></Point></Placemark>
<Placemark><name>51780</name><description>251780 UPCL/USL SIT (Metro. Sud)
posicio de les: 08/08/2018 06:56:33</description><styleUrl>#w_groc</styleUrl><Point><coordinates>1.71354532241821,41.2202847003937,0</coordinates></Point></Placemark>
<Placemark><name>D1REMS</name><description>258041  SERVEIS REGIÓ
posicio de les: 08/08/2018 06:58:45</description><styleUrl>#w_verd</styleUrl><Point><coordinates>2.03399419784546,41.3227987289429,0</coordinates></Point></Placemark>
<Placemark><name>60850</name><description>260850 FSV/FRQ/FER/FRM/FRA/FSA REUS (Tarragona)
posicio de les: 08/08/2018 06:54:38</description><styleUrl>#w_grocC</styleUrl><Point><coordinates>1.06283068656921,41.1366748809814,0</coordinates></Point></Placemark>
<Placemark><name>TARR03</name><description>261203 PORT TARR (Tarragona)
posicio de les: 08/08/2018 06:53:39</description><styleUrl>#w_grocP</styleUrl><Point><coordinates>1.22101664543152,41.1134791374207,0</coordinates></Point></Placemark>
<Placemark><name>E00RETE</name><description>270014 P.Tec REGIÓ
posicio de les: 08/08/2018 06:55:08</description><styleUrl>#w_verdP</styleUrl><Point><coordinates>0.512816905975342,40.8193159103394,0</coordinates></Point></Placemark>
<Placemark><name>ASCO05</name><description>272205 PORT ASCO (Terres de l'Ebre)
posicio de les: 08/08/2018 06:57:52</description><styleUrl>#w_verdP</styleUrl><Point><coordinates>0.569454431533813,41.1880767345428,0</coordinates></Point></Placemark>
<Placemark><name>CMTE56</name><description>274556 PORT.COM Parc X
posicio de les: 08/08/2018 06:58:15</description><styleUrl>#w_verdP</styleUrl><Point><coordinates>0.580430030822754,40.689400434494,0</coordinates></Point></Placemark>
<Placemark><name>92078</name><description>292078 UE SST
posicio de les: 08/08/2018 06:57:10</description><styleUrl>#w_verd</styleUrl><Point><coordinates>1.92834734916687,41.4818966388702,0</coordinates></Point></Placemark>
<Placemark><name>93080</name><description>293080 UPCL/USL ESC
posicio de les: 08/08/2018 06:54:19</description><styleUrl>#w_groc</styleUrl><Point><coordinates>2.11275458335876,41.5016162395477,0</coordinates></Point></Placemark>
</Folder>
<Folder>
<name>Descarregues</name>
</Folder>
<Style id="w_verdP_n"><IconStyle><color>ff00ff00</color><scale>1.0</scale><Icon><href>http://maps.google.com/mapfiles/kml/shapes/man.png</href></Icon><hotSpot x="0.5" y="0" xunits="fraction" yunits="fraction"/></IconStyle><LabelStyle><scale>0.7</scale></LabelStyle></Style>
<Style id="w_verdP_s"><IconStyle><color>ff00ff00</color><scale>1.4</scale><Icon><href>http://maps.google.com/mapfiles/kml/shapes/man.png</href></Icon><hotSpot x="0.5" y="0" xunits="fraction" yunits="fraction"/></IconStyle><LabelStyle><scale>0.7</scale></LabelStyle></Style>
<StyleMap id="w_verdP"><Pair><key>normal</key><styleUrl>#w_verdP_n</styleUrl></Pair><Pair><key>highlight</key><styleUrl>#w_verdP_s</styleUrl></Pair></StyleMap>
<Style id="w_verd_n"><IconStyle><color>ff00ff00</color><scale>0.7</scale><Icon><href>http://maps.google.com/mapfiles/kml/shapes/cabs.png</href></Icon><hotSpot x="0.5" y="0" xunits="fraction" yunits="fraction"/></IconStyle><LabelStyle><scale>0.7</scale></LabelStyle></Style>
<Style id="w_verd_s"><IconStyle><color>ff00ff00</color><scale>1.0</scale><Icon><href>http://maps.google.com/mapfiles/kml/shapes/cabs.png</href></Icon><hotSpot x="0.5" y="0" xunits="fraction" yunits="fraction"/></IconStyle><LabelStyle><scale>0.7</scale></LabelStyle></Style>
<StyleMap id="w_verd"><Pair><key>normal</key><styleUrl>#w_verd_n</styleUrl></Pair><Pair><key>highlight</key><styleUrl>#w_verd_s</styleUrl></Pair></StyleMap>
<Style id="w_verdC_n"><IconStyle><color>ff00ff00</color><scale>1.0</scale><Icon><href>http://maps.google.com/mapfiles/kml/shapes/truck.png</href></Icon><hotSpot x="0.5" y="0" xunits="fraction" yunits="fraction"/></IconStyle><LabelStyle><scale>0.7</scale></LabelStyle></Style>
<Style id="w_verdC_s"><IconStyle><color>ff00ff00</color><scale>1.4</scale><Icon><href>http://maps.google.com/mapfiles/kml/shapes/truck.png</href></Icon><hotSpot x="0.5" y="0" xunits="fraction" yunits="fraction"/></IconStyle><LabelStyle><scale>0.7</scale></LabelStyle></Style>
<StyleMap id="w_verdC"><Pair><key>normal</key><styleUrl>#w_verdC_n</styleUrl></Pair><Pair><key>highlight</key><styleUrl>#w_verdC_s</styleUrl></Pair></StyleMap>
<Style id="w_verdH_n"><IconStyle><color>ff0000ff</color><scale>1.2</scale><Icon><href>http://maps.google.com/mapfiles/kml/shapes/heliport.png</href></Icon><hotSpot x="0.5" y="0" xunits="fraction" yunits="fraction"/></IconStyle><LabelStyle><scale>0.7</scale></LabelStyle></Style>
<Style id="w_verdH_s"><IconStyle><color>ff0000ff</color><scale>1.4</scale><Icon><href>http://maps.google.com/mapfiles/kml/shapes/heliport.png</href></Icon><hotSpot x="0.5" y="0" xunits="fraction" yunits="fraction"/></IconStyle><LabelStyle><scale>0.7</scale></LabelStyle></Style>
<StyleMap id="w_verdH"><Pair><key>normal</key><styleUrl>#w_verdH_n</styleUrl></Pair><Pair><key>highlight</key><styleUrl>#w_verdH_s</styleUrl></Pair></StyleMap>
<Style id="w_verdA_n"><IconStyle><color>ff0000ff</color><scale>1.2</scale><Icon><href>http://maps.google.com/mapfiles/kml/shapes/airports.png</href></Icon><hotSpot x="0.5" y="0" xunits="fraction" yunits="fraction"/></IconStyle><LabelStyle><scale>0.7</scale></LabelStyle></Style>
<Style id="w_verdA_s"><IconStyle><color>ff0000ff</color><scale>1.4</scale><Icon><href>http://maps.google.com/mapfiles/kml/shapes/airports.png</href></Icon><hotSpot x="0.5" y="0" xunits="fraction" yunits="fraction"/></IconStyle><LabelStyle><scale>0.7</scale></LabelStyle></Style>
<StyleMap id="w_verdA"><Pair><key>normal</key><styleUrl>#w_verdA_n</styleUrl></Pair><Pair><key>highlight</key><styleUrl>#w_verdA_s</styleUrl></Pair></StyleMap>
<Style id="w_verdB_n"><IconStyle><color>ff00ff00</color><scale>1.0</scale><Icon><href>http://maps.google.com/mapfiles/kml/shapes/sailing.png</href></Icon><hotSpot x="0.5" y="0" xunits="fraction" yunits="fraction"/></IconStyle><LabelStyle><scale>0.7</scale></LabelStyle></Style>
<Style id="w_verdB_s"><IconStyle><color>ff00ff00</color><scale>1.4</scale><Icon><href>http://maps.google.com/mapfiles/kml/shapes/sailing.png</href></Icon><hotSpot x="0.5" y="0" xunits="fraction" yunits="fraction"/></IconStyle><LabelStyle><scale>0.7</scale></LabelStyle></Style>
<StyleMap id="w_verdB"><Pair><key>normal</key><styleUrl>#w_verdBAR_n</styleUrl></Pair><Pair><key>highlight</key><styleUrl>#w_verdBAR_s</styleUrl></Pair></StyleMap>
<Style id="w_grocP_n"><IconStyle><color>ff00ffff</color><scale>1.0</scale><Icon><href>http://maps.google.com/mapfiles/kml/shapes/man.png</href></Icon><hotSpot x="0.5" y="0" xunits="fraction" yunits="fraction"/></IconStyle><LabelStyle><scale>0.7</scale></LabelStyle></Style>
<Style id="w_grocP_s"><IconStyle><color>ff00ffff</color><scale>1.4</scale><Icon><href>http://maps.google.com/mapfiles/kml/shapes/man.png</href></Icon><hotSpot x="0.5" y="0" xunits="fraction" yunits="fraction"/></IconStyle><LabelStyle><scale>0.7</scale></LabelStyle></Style>
<StyleMap id="w_grocP"><Pair><key>normal</key><styleUrl>#w_grocP_n</styleUrl></Pair><Pair><key>highlight</key><styleUrl>#w_grocP_s</styleUrl></Pair></StyleMap>
<Style id="w_groc_n"><IconStyle><color>ff00ffff</color><scale>0.7</scale><Icon><href>http://maps.google.com/mapfiles/kml/shapes/cabs.png</href></Icon><hotSpot x="0.5" y="0" xunits="fraction" yunits="fraction"/></IconStyle><LabelStyle><scale>0.7</scale></LabelStyle></Style>
<Style id="w_groc_s"><IconStyle><color>ff00ffff</color><scale>1.0</scale><Icon><href>http://maps.google.com/mapfiles/kml/shapes/cabs.png</href></Icon><hotSpot x="0.5" y="0" xunits="fraction" yunits="fraction"/></IconStyle><LabelStyle><scale>0.7</scale></LabelStyle></Style>
<StyleMap id="w_groc"><Pair><key>normal</key><styleUrl>#w_groc_n</styleUrl></Pair><Pair><key>highlight</key><styleUrl>#w_groc_s</styleUrl></Pair></StyleMap>
<Style id="w_grocC_n"><IconStyle><color>ff00ffff</color><scale>1.0</scale><Icon><href>http://maps.google.com/mapfiles/kml/shapes/truck.png</href></Icon><hotSpot x="0.5" y="0" xunits="fraction" yunits="fraction"/></IconStyle><LabelStyle><scale>0.7</scale></LabelStyle></Style>
<Style id="w_grocC_s"><IconStyle><color>ff00ffff</color><scale>1.4</scale><Icon><href>http://maps.google.com/mapfiles/kml/shapes/truck.png</href></Icon><hotSpot x="0.5" y="0" xunits="fraction" yunits="fraction"/></IconStyle><LabelStyle><scale>0.7</scale></LabelStyle></Style>
<StyleMap id="w_grocC"><Pair><key>normal</key><styleUrl>#w_grocC_n</styleUrl></Pair><Pair><key>highlight</key><styleUrl>#w_grocC_s</styleUrl></Pair></StyleMap>
<Style id="w_grocH_n"><IconStyle><color>ff0000ff</color><scale>1.2</scale><Icon><href>http://maps.google.com/mapfiles/kml/shapes/heliport.png</href></Icon><hotSpot x="0.5" y="0" xunits="fraction" yunits="fraction"/></IconStyle><LabelStyle><scale>0.7</scale></LabelStyle></Style>
<Style id="w_grocH_s"><IconStyle><color>ff0000ff</color><scale>1.4</scale><Icon><href>http://maps.google.com/mapfiles/kml/shapes/heliport.png</href></Icon><hotSpot x="0.5" y="0" xunits="fraction" yunits="fraction"/></IconStyle><LabelStyle><scale>0.7</scale></LabelStyle></Style>
<StyleMap id="w_grocH"><Pair><key>normal</key><styleUrl>#w_grocH_n</styleUrl></Pair><Pair><key>highlight</key><styleUrl>#w_grocH_s</styleUrl></Pair></StyleMap>
<Style id="w_grocA_n"><IconStyle><color>ff0000ff</color><scale>1.2</scale><Icon><href>http://maps.google.com/mapfiles/kml/shapes/airports.png</href></Icon><hotSpot x="0.5" y="0" xunits="fraction" yunits="fraction"/></IconStyle><LabelStyle><scale>0.7</scale></LabelStyle></Style>
<Style id="w_grocA_s"><IconStyle><color>ff0000ff</color><scale>1.4</scale><Icon><href>http://maps.google.com/mapfiles/kml/shapes/airports.png</href></Icon><hotSpot x="0.5" y="0" xunits="fraction" yunits="fraction"/></IconStyle><LabelStyle><scale>0.7</scale></LabelStyle></Style>
<StyleMap id="w_grocA"><Pair><key>normal</key><styleUrl>#w_grocA_n</styleUrl></Pair><Pair><key>highlight</key><styleUrl>#w_grocA_s</styleUrl></Pair></StyleMap>
<Style id="w_grocB_n"><IconStyle><color>ff00ffff</color><scale>1.0</scale><Icon><href>http://maps.google.com/mapfiles/kml/shapes/sailing.png</href></Icon><hotSpot x="0.5" y="0" xunits="fraction" yunits="fraction"/></IconStyle><LabelStyle><scale>0.7</scale></LabelStyle></Style>
<Style id="w_grocB_s"><IconStyle><color>ff00ffff</color><scale>1.4</scale><Icon><href>http://maps.google.com/mapfiles/kml/shapes/sailing.png</href></Icon><hotSpot x="0.5" y="0" xunits="fraction" yunits="fraction"/></IconStyle><LabelStyle><scale>0.7</scale></LabelStyle></Style>
<StyleMap id="w_grocB"><Pair><key>normal</key><styleUrl>#w_grocBAR_n</styleUrl></Pair><Pair><key>highlight</key><styleUrl>#w_grocBAR_s</styleUrl></Pair></StyleMap>
<Style id="w_vermellP_n"><IconStyle><color>ff0000ff</color><scale>1.0</scale><Icon><href>http://maps.google.com/mapfiles/kml/shapes/man.png</href></Icon><hotSpot x="0.5" y="0" xunits="fraction" yunits="fraction"/></IconStyle><LabelStyle><scale>0.7</scale></LabelStyle></Style>
<Style id="w_vermellP_s"><IconStyle><color>ff0000ff</color><scale>1.4</scale><Icon><href>http://maps.google.com/mapfiles/kml/shapes/man.png</href></Icon><hotSpot x="0.5" y="0" xunits="fraction" yunits="fraction"/></IconStyle><LabelStyle><scale>0.7</scale></LabelStyle></Style>
<StyleMap id="w_vermellP"><Pair><key>normal</key><styleUrl>#w_vermellP_n</styleUrl></Pair><Pair><key>highlight</key><styleUrl>#w_vermellP_s</styleUrl></Pair></StyleMap>
<Style id="w_vermell_n"><IconStyle><color>ff0000ff</color><scale>0.7</scale><Icon><href>http://maps.google.com/mapfiles/kml/shapes/cabs.png</href></Icon><hotSpot x="0.5" y="0" xunits="fraction" yunits="fraction"/></IconStyle><LabelStyle><scale>0.7</scale></LabelStyle></Style>
<Style id="w_vermell_s"><IconStyle><color>ff0000ff</color><scale>1.0</scale><Icon><href>http://maps.google.com/mapfiles/kml/shapes/cabs.png</href></Icon><hotSpot x="0.5" y="0" xunits="fraction" yunits="fraction"/></IconStyle><LabelStyle><scale>0.7</scale></LabelStyle></Style>
<StyleMap id="w_vermell"><Pair><key>normal</key><styleUrl>#w_vermell_n</styleUrl></Pair><Pair><key>highlight</key><styleUrl>#w_vermell_s</styleUrl></Pair></StyleMap>
<Style id="w_vermellC_n"><IconStyle><color>ff0000ff</color><scale>1.0</scale><Icon><href>http://maps.google.com/mapfiles/kml/shapes/truck.png</href></Icon><hotSpot x="0.5" y="0" xunits="fraction" yunits="fraction"/></IconStyle><LabelStyle><scale>0.7</scale></LabelStyle></Style>
<Style id="w_vermellC_s"><IconStyle><color>ff0000ff</color><scale>1.4</scale><Icon><href>http://maps.google.com/mapfiles/kml/shapes/truck.png</href></Icon><hotSpot x="0.5" y="0" xunits="fraction" yunits="fraction"/></IconStyle><LabelStyle><scale>0.7</scale></LabelStyle></Style>
<StyleMap id="w_vermellC"><Pair><key>normal</key><styleUrl>#w_vermellC_n</styleUrl></Pair><Pair><key>highlight</key><styleUrl>#w_vermellC_s</styleUrl></Pair></StyleMap>
<Style id="w_vermellH_n"><IconStyle><color>ff0000ff</color><scale>1.2</scale><Icon><href>http://maps.google.com/mapfiles/kml/shapes/heliport.png</href></Icon><hotSpot x="0.5" y="0" xunits="fraction" yunits="fraction"/></IconStyle><LabelStyle><scale>0.7</scale></LabelStyle></Style>
<Style id="w_vermellH_s"><IconStyle><color>ff0000ff</color><scale>1.4</scale><Icon><href>http://maps.google.com/mapfiles/kml/shapes/heliport.png</href></Icon><hotSpot x="0.5" y="0" xunits="fraction" yunits="fraction"/></IconStyle><LabelStyle><scale>0.7</scale></LabelStyle></Style>
<StyleMap id="w_vermellH"><Pair><key>normal</key><styleUrl>#w_vermellH_n</styleUrl></Pair><Pair><key>highlight</key><styleUrl>#w_vermellH_s</styleUrl></Pair></StyleMap>
<Style id="w_vermellA_n"><IconStyle><color>ff0000ff</color><scale>1.2</scale><Icon><href>http://maps.google.com/mapfiles/kml/shapes/airports.png</href></Icon><hotSpot x="0.5" y="0" xunits="fraction" yunits="fraction"/></IconStyle><LabelStyle><scale>0.7</scale></LabelStyle></Style>
<Style id="w_vermellA_s"><IconStyle><color>ff0000ff</color><scale>1.4</scale><Icon><href>http://maps.google.com/mapfiles/kml/shapes/airports.png</href></Icon><hotSpot x="0.5" y="0" xunits="fraction" yunits="fraction"/></IconStyle><LabelStyle><scale>0.7</scale></LabelStyle></Style>
<StyleMap id="w_vermellA"><Pair><key>normal</key><styleUrl>#w_vermellA_n</styleUrl></Pair><Pair><key>highlight</key><styleUrl>#w_vermellA_s</styleUrl></Pair></StyleMap>
<Style id="w_vermellB_n"><IconStyle><color>ff0000ff</color><scale>1.0</scale><Icon><href>http://maps.google.com/mapfiles/kml/shapes/sailing.png</href></Icon><hotSpot x="0.5" y="0" xunits="fraction" yunits="fraction"/></IconStyle><LabelStyle><scale>0.7</scale></LabelStyle></Style>
<Style id="w_vermellB_s"><IconStyle><color>ff0000ff</color><scale>1.4</scale><Icon><href>http://maps.google.com/mapfiles/kml/shapes/sailing.png</href></Icon><hotSpot x="0.5" y="0" xunits="fraction" yunits="fraction"/></IconStyle><LabelStyle><scale>0.7</scale></LabelStyle></Style>
<StyleMap id="w_vermellB"><Pair><key>normal</key><styleUrl>#w_vermellBAR_n</styleUrl></Pair><Pair><key>highlight</key><styleUrl>#w_vermellBAR_s</styleUrl></Pair></StyleMap>
<Style id="w_descarrega"><IconStyle><color>ff00ffff</color><scale>0.5</scale><Icon><href>http://maps.google.com/mapfiles/kml/shapes/road_shield3.png</href></Icon></IconStyle><LabelStyle><scale>0.7</scale></LabelStyle></Style><Style id="actuacio"><IconStyle><color>ff00ffff</color><scale>0.8</scale><Icon><href>http://maps.google.com/mapfiles/kml/shapes/caution.png</href></Icon></IconStyle><LabelStyle><scale>0.7</scale></LabelStyle></Style></Document></kml>