<?xml version="1.0" encoding="UTF-8"?>
<kml xmlns="http://www.opengis.net/kml/2.2" xmlns:gx="http://www.google.com/kml/ext/2.2" xmlns:kml="http://www.opengis.net/kml/2.2" xmlns:atom="http://www.w3.org/2005/Atom">
<Document>
<name>Terminals</name>
<Snippet maxLines="2">Created 06/08/2018 00:18:21</Snippet>
<Folder>
<name>Terminals</name>
<Placemark><name>02063</name><description>202063 GEM
posicio de les: 06/08/2018 00:16:41</description><styleUrl>#w_verd</styleUrl><Point><coordinates>2.11280822753906,41.5027964115143,0</coordinates></Point></Placemark>
<Placemark><name>GRAEUT3</name><description>203003 GRAE
posicio de les: 06/08/2018 00:16:22</description><styleUrl>#w_verdP</styleUrl><Point><coordinates>1.85135722160339,41.7418241500854,0</coordinates></Point></Placemark>
<Placemark><name>GGRAF08</name><description>204208 P.UT
posicio de les: 06/08/2018 00:16:10</description><styleUrl>#w_grocP</styleUrl><Point><coordinates>2.97470927238464,42.0295608043671,0</coordinates></Point></Placemark>
<Placemark><name>GGRAF10</name><description>204210 P.UT
posicio de les: 06/08/2018 00:18:09</description><styleUrl>#w_verdP</styleUrl><Point><coordinates>2.97465562820435,42.0297002792358,0</coordinates></Point></Placemark>
<Placemark><name>LGRAF02</name><description>204302 P.UT
posicio de les: 06/08/2018 00:16:34</description><styleUrl>#w_grocP</styleUrl><Point><coordinates>0.889420509338379,42.1650445461273,0</coordinates></Point></Placemark>
<Placemark><name>BGRAF08</name><description>204408 P.UT
posicio de les: 06/08/2018 00:18:01</description><styleUrl>#w_verdP</styleUrl><Point><coordinates>1.8526017665863,41.7414271831512,0</coordinates></Point></Placemark>
<Placemark><name>VIEL17</name><description>208017 BASE CCA VARAN
posicio de les: 06/08/2018 00:17:20</description><styleUrl>#w_groc</styleUrl><Point><coordinates>0.796734094619751,42.7080953121185,0</coordinates></Point></Placemark>
<Placemark><name>BER57</name><description>210357 PORT.COM BER (Centre)
posicio de les: 06/08/2018 00:17:33</description><styleUrl>#w_verdP</styleUrl><Point><coordinates>1.85768723487854,42.1039009094238,0</coordinates></Point></Placemark>
<Placemark><name>CAF04</name><description>210404 PORT CAF (Centre)
posicio de les: 06/08/2018 00:17:29</description><styleUrl>#w_verdP</styleUrl><Point><coordinates>0.787754058837891,41.6373574733734,0</coordinates></Point></Placemark>
<Placemark><name>10430</name><description>210430 BRP CAF (Centre)
posicio de les: 06/08/2018 00:18:14</description><styleUrl>#w_verdC</styleUrl><Point><coordinates>0.799223184585571,41.6344606876373,0</coordinates></Point></Placemark>
<Placemark><name>CAB56</name><description>210656 PORT.COM CAB (Centre)
posicio de les: 06/08/2018 00:17:25</description><styleUrl>#w_verdP</styleUrl><Point><coordinates>1.68527483940125,41.6657030582428,0</coordinates></Point></Placemark>
<Placemark><name>MAN01</name><description>211001 PORT MAN (Centre)
posicio de les: 06/08/2018 00:16:19</description><styleUrl>#w_grocP</styleUrl><Point><coordinates>1.8217670917511,41.7211711406708,0</coordinates></Point></Placemark>
<Placemark><name>11040</name><description>211040 BUP MAN (Centre)
posicio de les: 06/08/2018 00:13:22</description><styleUrl>#w_grocC</styleUrl><Point><coordinates>1.82201385498047,41.721214056015,0</coordinates></Point></Placemark>
<Placemark><name>11060</name><description>211060 AEA/AES/ABA MAN (Centre)
posicio de les: 06/08/2018 00:13:29</description><styleUrl>#w_grocC</styleUrl><Point><coordinates>1.8217670917511,41.7211496829987,0</coordinates></Point></Placemark>
<Placemark><name>PRA07</name><description>211407 PORT PRA (Centre)
posicio de les: 06/08/2018 00:18:14</description><styleUrl>#w_verdP</styleUrl><Point><coordinates>2.03597903251648,42.0083177089691,0</coordinates></Point></Placemark>
<Placemark><name>TOR02</name><description>212002 PORT TOR (Centre)
posicio de les: 06/08/2018 00:17:24</description><styleUrl>#w_verdP</styleUrl><Point><coordinates>2.26717472076416,42.0485615730286,0</coordinates></Point></Placemark>
<Placemark><name>12130</name><description>212130 BRP VIC (Centre)
posicio de les: 06/08/2018 00:15:16</description><styleUrl>#w_verdC</styleUrl><Point><coordinates>2.18461632728577,41.9796073436737,0</coordinates></Point></Placemark>
<Placemark><name>20091</name><description>220091  REGIÓ
posicio de les: 06/08/2018 00:18:17</description><styleUrl>#w_verd</styleUrl><Point><coordinates>2.78204083442688,41.9390845298767,0</coordinates></Point></Placemark>
<Placemark><name>20093</name><description>220093  REGIÓ
posicio de les: 06/08/2018 00:14:00</description><styleUrl>#w_groc</styleUrl><Point><coordinates>2.76772856712341,41.9416487216949,0</coordinates></Point></Placemark>
<Placemark><name>20130</name><description>220130 BRP AMER (Girona)
posicio de les: 06/08/2018 00:15:34</description><styleUrl>#w_grocC</styleUrl><Point><coordinates>2.80620217323303,41.9607031345367,0</coordinates></Point></Placemark>
<Placemark><name>AMER56</name><description>220156 PORT.COM AMER (Girona)
posicio de les: 06/08/2018 00:15:36</description><styleUrl>#w_verdP</styleUrl><Point><coordinates>2.80654549598694,41.959855556488,0</coordinates></Point></Placemark>
<Placemark><name>AMER57</name><description>220157 PORT.COM AMER (Girona)
posicio de les: 06/08/2018 00:15:06</description><styleUrl>#w_verdP</styleUrl><Point><coordinates>2.59600281715393,42.0112681388855,0</coordinates></Point></Placemark>
<Placemark><name>20330</name><description>220330 BRP BANY (Girona)
posicio de les: 06/08/2018 00:18:11</description><styleUrl>#w_verdC</styleUrl><Point><coordinates>2.78456211090088,42.116185426712,0</coordinates></Point></Placemark>
<Placemark><name>BANY56</name><description>220356 PORT.COM BANY (Girona)
posicio de les: 06/08/2018 00:14:38</description><styleUrl>#w_verdP</styleUrl><Point><coordinates>2.78518438339233,42.1176552772522,0</coordinates></Point></Placemark>
<Placemark><name>PERA03</name><description>220403 PORT PERA (Girona)
posicio de les: 06/08/2018 00:15:26</description><styleUrl>#w_verdP</styleUrl><Point><coordinates>2.97498822212219,42.0299255847931,0</coordinates></Point></Placemark>
<Placemark><name>PERA04</name><description>220404 PORT PERA (Girona)
posicio de les: 06/08/2018 00:15:59</description><styleUrl>#w_grocP</styleUrl><Point><coordinates>2.974773645401,42.0299255847931,0</coordinates></Point></Placemark>
<Placemark><name>20430</name><description>220430 BRP PERA (Girona)
posicio de les: 06/08/2018 00:18:15</description><styleUrl>#w_verdC</styleUrl><Point><coordinates>2.77590394020081,41.9381082057953,0</coordinates></Point></Placemark>
<Placemark><name>20434</name><description>220434 BFP PERA (Girona)
posicio de les: 06/08/2018 00:16:11</description><styleUrl>#w_grocC</styleUrl><Point><coordinates>2.97487020492554,42.0297968387604,0</coordinates></Point></Placemark>
<Placemark><name>20830</name><description>220830 BRP CASS (Girona)
posicio de les: 06/08/2018 00:17:27</description><styleUrl>#w_grocC</styleUrl><Point><coordinates>2.76806116104126,41.9415628910065,0</coordinates></Point></Placemark>
<Placemark><name>CASS56</name><description>220856 PORT.COM CASS (Girona)
posicio de les: 06/08/2018 00:17:10</description><styleUrl>#w_grocP</styleUrl><Point><coordinates>2.76826500892639,41.9414663314819,0</coordinates></Point></Placemark>
<Placemark><name>FIGU56</name><description>221056 PORT.COM FIGU (Girona)
posicio de les: 06/08/2018 00:17:51</description><styleUrl>#w_verdP</styleUrl><Point><coordinates>2.97053575515747,42.2720432281494,0</coordinates></Point></Placemark>
<Placemark><name>21130</name><description>221130 BRP GIRO (Girona)
posicio de les: 06/08/2018 00:17:39</description><styleUrl>#w_grocC</styleUrl><Point><coordinates>2.76858687400818,41.9416165351868,0</coordinates></Point></Placemark>
<Placemark><name>21131</name><description>221131 BRP GIRO (Girona)
posicio de les: 06/08/2018 00:14:47</description><styleUrl>#w_grocC</styleUrl><Point><coordinates>2.76839375495911,41.9416701793671,0</coordinates></Point></Placemark>
<Placemark><name>HOST05</name><description>221205 PORT HOST (Girona)
posicio de les: 06/08/2018 00:14:37</description><styleUrl>#w_verdP</styleUrl><Point><coordinates>2.62420892715454,41.7486476898193,0</coordinates></Point></Placemark>
<Placemark><name>221244</name><description>221244 BNP HOST (Girona)
posicio de les: 06/08/2018 00:17:38</description><styleUrl>#w_grocC</styleUrl><Point><coordinates>2.76822209358215,41.9418954849243,0</coordinates></Point></Placemark>
<Placemark><name>HOST57</name><description>221257 PORT.COM HOST (Girona)
posicio de les: 06/08/2018 00:17:12</description><styleUrl>#w_verdP</styleUrl><Point><coordinates>2.62439131736755,41.748218536377,0</coordinates></Point></Placemark>
<Placemark><name>JONQ56</name><description>221356 PORT.COM JONQ (Girona)
posicio de les: 06/08/2018 00:16:36</description><styleUrl>#w_verdP</styleUrl><Point><coordinates>2.87664771080017,42.4116253852844,0</coordinates></Point></Placemark>
<Placemark><name>LLAN57</name><description>221457 PORT.COM LLAN (Girona)
posicio de les: 06/08/2018 00:17:30</description><styleUrl>#w_verdP</styleUrl><Point><coordinates>3.15315127372742,42.357884645462,0</coordinates></Point></Placemark>
<Placemark><name>LLOR56</name><description>221556 PORT.COM LLOR (Girona)
posicio de les: 06/08/2018 00:17:48</description><styleUrl>#w_verdP</styleUrl><Point><coordinates>2.83602833747864,41.6997134685516,0</coordinates></Point></Placemark>
<Placemark><name>MAÇA57</name><description>221657 PORT.COM MACA (Girona)
posicio de les: 06/08/2018 00:15:43</description><styleUrl>#w_verdP</styleUrl><Point><coordinates>2.75290131568909,41.7793428897858,0</coordinates></Point></Placemark>
<Placemark><name>OLOT57</name><description>221757 PORT.COM OLOT (Girona)
posicio de les: 06/08/2018 00:17:53</description><styleUrl>#w_verdP</styleUrl><Point><coordinates>2.47475624084473,42.1902251243591,0</coordinates></Point></Placemark>
<Placemark><name>PALA06</name><description>221806 PORT PALA (Girona)
posicio de les: 06/08/2018 00:15:31</description><styleUrl>#w_verdP</styleUrl><Point><coordinates>3.1555438041687,41.9257593154907,0</coordinates></Point></Placemark>
<Placemark><name>PALA56</name><description>221856 PORT.COM PALA (Girona)
posicio de les: 06/08/2018 00:15:03</description><styleUrl>#w_verdP</styleUrl><Point><coordinates>3.15573692321777,41.9255340099335,0</coordinates></Point></Placemark>
<Placemark><name>PALA57</name><description>221857 PORT.COM PALA (Girona)
posicio de les: 06/08/2018 00:16:49</description><styleUrl>#w_grocP</styleUrl><Point><coordinates>3.15583348274231,41.9256842136383,0</coordinates></Point></Placemark>
<Placemark><name>RIPO56</name><description>222156 PORT.COM RIPO (Girona)
posicio de les: 06/08/2018 00:16:17</description><styleUrl>#w_verdP</styleUrl><Point><coordinates>2.16767549514771,42.2142469882965,0</coordinates></Point></Placemark>
<Placemark><name>RIPO57</name><description>222157 PORT.COM RIPO (Girona)
posicio de les: 06/08/2018 00:16:05</description><styleUrl>#w_verdP</styleUrl><Point><coordinates>2.1683406829834,42.2148048877716,0</coordinates></Point></Placemark>
<Placemark><name>ROSE01</name><description>222201 PORT ROSE (Girona)
posicio de les: 06/08/2018 00:17:16</description><styleUrl>#w_grocP</styleUrl><Point><coordinates>3.16095113754272,42.2765707969666,0</coordinates></Point></Placemark>
<Placemark><name>ROSE56</name><description>222256 PORT.COM ROSE (Girona)
posicio de les: 06/08/2018 00:17:40</description><styleUrl>#w_verdP</styleUrl><Point><coordinates>3.16102623939514,42.2766029834747,0</coordinates></Point></Placemark>
<Placemark><name>TORR56</name><description>222656 PORT.COM TORR (Girona)
posicio de les: 06/08/2018 00:17:05</description><styleUrl>#w_grocP</styleUrl><Point><coordinates>3.16761374473572,42.0479285717011,0</coordinates></Point></Placemark>
<Placemark><name>VALL56</name><description>222856 PORT.COM VALL (Girona)
posicio de les: 06/08/2018 00:18:16</description><styleUrl>#w_verdP</styleUrl><Point><coordinates>3.03149700164795,41.8086862564087,0</coordinates></Point></Placemark>
<Placemark><name>D7REG</name><description>228047  SERVEIS REGIÓ
posicio de les: 06/08/2018 00:17:32</description><styleUrl>#w_verd</styleUrl><Point><coordinates>2.76845812797546,41.9388484954834,0</coordinates></Point></Placemark>
<Placemark><name>C30RELL</name><description>230018 P.Tec REGIÓ
posicio de les: 06/08/2018 00:16:41</description><styleUrl>#w_verdP</styleUrl><Point><coordinates>0.604816675186157,41.6233563423157,0</coordinates></Point></Placemark>
<Placemark><name>FTREMP1</name><description>230073  REGIÓ
posicio de les: 06/08/2018 00:17:50</description><styleUrl>#w_groc</styleUrl><Point><coordinates>0.63046932220459,41.6166186332703,0</coordinates></Point></Placemark>
<Placemark><name>30083</name><description>230083  REGIÓ
posicio de les: 06/08/2018 00:16:00</description><styleUrl>#w_groc</styleUrl><Point><coordinates>0.630651712417603,41.6162109375,0</coordinates></Point></Placemark>
<Placemark><name>30091</name><description>230091  REGIÓ
posicio de les: 06/08/2018 00:17:05</description><styleUrl>#w_groc</styleUrl><Point><coordinates>0.631499290466309,41.6164791584015,0</coordinates></Point></Placemark>
<Placemark><name>30092</name><description>230092  REGIÓ
posicio de les: 06/08/2018 00:18:09</description><styleUrl>#w_groc</styleUrl><Point><coordinates>0.63146710395813,41.6166508197784,0</coordinates></Point></Placemark>
<Placemark><name>30095</name><description>230095  REGIÓ
posicio de les: 06/08/2018 00:16:19</description><styleUrl>#w_groc</styleUrl><Point><coordinates>0.604902505874634,41.6234636306763,0</coordinates></Point></Placemark>
<Placemark><name>30098</name><description>230098  REGIÓ
posicio de les: 06/08/2018 00:15:55</description><styleUrl>#w_groc</styleUrl><Point><coordinates>0.6307053565979,41.6162538528442,0</coordinates></Point></Placemark>
<Placemark><name>30330</name><description>230330 BRP ALMA (Lleida)
posicio de les: 06/08/2018 00:15:31</description><styleUrl>#w_verdC</styleUrl><Point><coordinates>0.593905448913574,41.6314566135406,0</coordinates></Point></Placemark>
<Placemark><name>BORG01</name><description>230701 PORT BORG (Lleida)
posicio de les: 06/08/2018 00:14:47</description><styleUrl>#w_grocP</styleUrl><Point><coordinates>0.844852924346924,41.5071415901184,0</coordinates></Point></Placemark>
<Placemark><name>LLEI04</name><description>231904 PORT LLEI (Lleida)
posicio de les: 06/08/2018 00:18:10</description><styleUrl>#w_grocP</styleUrl><Point><coordinates>0.630608797073364,41.616382598877,0</coordinates></Point></Placemark>
<Placemark><name>LLEI05</name><description>231905 PORT LLEI (Lleida)
posicio de les: 06/08/2018 00:15:46</description><styleUrl>#w_verdP</styleUrl><Point><coordinates>0.631327629089355,41.6168439388275,0</coordinates></Point></Placemark>
<Placemark><name>LLEI13</name><description>231913 PORT LLEI (Lleida)
posicio de les: 06/08/2018 00:17:15</description><styleUrl>#w_grocP</styleUrl><Point><coordinates>0.605074167251587,41.6241180896759,0</coordinates></Point></Placemark>
<Placemark><name>31940</name><description>231940 BUP LLEI (Lleida)
posicio de les: 06/08/2018 00:16:56</description><styleUrl>#w_grocC</styleUrl><Point><coordinates>0.630598068237305,41.6162109375,0</coordinates></Point></Placemark>
<Placemark><name>31948</name><description>231948 BUL LLEI (Lleida)
posicio de les: 06/08/2018 00:16:37</description><styleUrl>#w_grocC</styleUrl><Point><coordinates>0.631349086761475,41.6168224811554,0</coordinates></Point></Placemark>
<Placemark><name>31960</name><description>231960 AEA/AES/ABA LLEI (Lleida)
posicio de les: 06/08/2018 00:16:57</description><styleUrl>#w_grocC</styleUrl><Point><coordinates>0.630329847335815,41.6162967681885,0</coordinates></Point></Placemark>
<Placemark><name>32031</name><description>232031 BRP MOLL (Lleida)
posicio de les: 06/08/2018 00:17:01</description><styleUrl>#w_grocC</styleUrl><Point><coordinates>0.631617307662964,41.6165328025818,0</coordinates></Point></Placemark>
<Placemark><name>MOLL56</name><description>232056 PORT.COM MOLL (Lleida)
posicio de les: 06/08/2018 00:16:59</description><styleUrl>#w_verdP</styleUrl><Point><coordinates>0.630683898925781,41.616382598877,0</coordinates></Point></Placemark>
<Placemark><name>32090</name><description>232090 UPC MOLL (Lleida)
posicio de les: 06/08/2018 00:17:06</description><styleUrl>#w_groc</styleUrl><Point><coordinates>0.630995035171509,41.616393327713,0</coordinates></Point></Placemark>
<Placemark><name>OLIA01</name><description>232201 PORT OLIA (Lleida)
posicio de les: 06/08/2018 00:17:17</description><styleUrl>#w_grocP</styleUrl><Point><coordinates>0.630823373794556,41.6163289546967,0</coordinates></Point></Placemark>
<Placemark><name>OLIA56</name><description>232256 PORT.COM OLIA (Lleida)
posicio de les: 06/08/2018 00:17:03</description><styleUrl>#w_verdP</styleUrl><Point><coordinates>0.630898475646973,41.615674495697,0</coordinates></Point></Placemark>
<Placemark><name>32290</name><description>232290 UPC OLIA (Lleida)
posicio de les: 06/08/2018 00:17:38</description><styleUrl>#w_groc</styleUrl><Point><coordinates>0.6307053565979,41.616393327713,0</coordinates></Point></Placemark>
<Placemark><name>POBL01</name><description>232401 PORT POBL (Lleida)
posicio de les: 06/08/2018 00:16:53</description><styleUrl>#w_verdP</styleUrl><Point><coordinates>0.964393615722656,42.2390413284302,0</coordinates></Point></Placemark>
<Placemark><name>PONT05</name><description>232505 PORT PONT (Lleida)
posicio de les: 06/08/2018 00:16:53</description><styleUrl>#w_grocP</styleUrl><Point><coordinates>0.739860534667969,42.410649061203,0</coordinates></Point></Placemark>
<Placemark><name>33131</name><description>233131 BRP TAR (Lleida)
posicio de les: 06/08/2018 00:16:25</description><styleUrl>#w_grocC</styleUrl><Point><coordinates>0.631788969039917,41.616575717926,0</coordinates></Point></Placemark>
<Placemark><name>TREM05</name><description>233305 PORT TREM (Lleida)
posicio de les: 06/08/2018 00:18:20</description><styleUrl>#w_verdP</styleUrl><Point><coordinates>0.889366865158081,42.1648192405701,0</coordinates></Point></Placemark>
<Placemark><name>TREM07</name><description>233307 PORT TREM (Lleida)
posicio de les: 06/08/2018 00:16:18</description><styleUrl>#w_verdP</styleUrl><Point><coordinates>0.88915228843689,42.1648728847504,0</coordinates></Point></Placemark>
<Placemark><name>TREM56</name><description>233356 PORT.COM TREM (Lleida)
posicio de les: 06/08/2018 00:17:55</description><styleUrl>#w_verdP</styleUrl><Point><coordinates>0.889270305633545,42.1648406982422,0</coordinates></Point></Placemark>
<Placemark><name>FMOLL2</name><description>234508 PORT Parc X
posicio de les: 06/08/2018 00:17:41</description><styleUrl>#w_verdP</styleUrl><Point><coordinates>0.897853374481201,41.6354691982269,0</coordinates></Point></Placemark>
<Placemark><name>FTAR1</name><description>234513 PORT Parc X
posicio de les: 06/08/2018 00:18:16</description><styleUrl>#w_grocP</styleUrl><Point><coordinates>1.14926218986511,41.65114402771,0</coordinates></Point></Placemark>
<Placemark><name>FTREM59</name><description>234559 BSAL Parc X
posicio de les: 06/08/2018 00:16:51</description><styleUrl>#w_verdB</styleUrl><Point><coordinates>0.59675931930542,41.6301047801971,0</coordinates></Point></Placemark>
<Placemark><name>I407</name><description>237407 P.GUAITA GUAITA
posicio de les: 06/08/2018 00:14:41</description><styleUrl>#w_verdP</styleUrl><Point><coordinates>0.966206789016724,42.2529458999634,0</coordinates></Point></Placemark>
<Placemark><name>REMN11</name><description>240011 P.Tec REGIÓ
posicio de les: 06/08/2018 00:16:34</description><styleUrl>#w_grocP</styleUrl><Point><coordinates>2.11213231086731,41.5021204948425,0</coordinates></Point></Placemark>
<Placemark><name>E0REMN</name><description>240012 P.Tec REGIÓ
posicio de les: 06/08/2018 00:17:43</description><styleUrl>#w_verdP</styleUrl><Point><coordinates>2.27447032928467,41.5905475616455,0</coordinates></Point></Placemark>
<Placemark><name>REMN14</name><description>240014 P.Tec REGIÓ
posicio de les: 06/08/2018 00:18:11</description><styleUrl>#w_verdP</styleUrl><Point><coordinates>2.02572226524353,41.5684247016907,0</coordinates></Point></Placemark>
<Placemark><name>40091</name><description>240091  REGIÓ
posicio de les: 06/08/2018 00:15:52</description><styleUrl>#w_verd</styleUrl><Point><coordinates>2.11163878440857,41.5022277832031,0</coordinates></Point></Placemark>
<Placemark><name>BAD02</name><description>240202 PORT BAD (Metro. Nord)
posicio de les: 06/08/2018 00:15:01</description><styleUrl>#w_verdP</styleUrl><Point><coordinates>2.23746657371521,41.4653527736664,0</coordinates></Point></Placemark>
<Placemark><name>40290</name><description>240290 UPC BAD (Metro. Nord)
posicio de les: 06/08/2018 00:15:13</description><styleUrl>#w_groc</styleUrl><Point><coordinates>2.0260226726532,41.5679740905762,0</coordinates></Point></Placemark>
<Placemark><name>CER03</name><description>240503 PORT CER (Metro. Nord)
posicio de les: 06/08/2018 00:17:55</description><styleUrl>#w_verdP</styleUrl><Point><coordinates>2.11146712303162,41.5023994445801,0</coordinates></Point></Placemark>
<Placemark><name>240556</name><description>240556 PORT.COM CER (Metro. Nord)
posicio de les: 06/08/2018 00:13:12</description><styleUrl>#w_verdP</styleUrl><Point><coordinates>2.11146712303162,41.5022170543671,0</coordinates></Point></Placemark>
<Placemark><name>GRA01</name><description>240601 PORT GRA (Metro. Nord)
posicio de les: 06/08/2018 00:16:58</description><styleUrl>#w_verdP</styleUrl><Point><coordinates>2.27474927902222,41.5905475616455,0</coordinates></Point></Placemark>
<Placemark><name>GRA13</name><description>240613 PORT GRA (Metro. Nord)
posicio de les: 06/08/2018 00:16:08</description><styleUrl>#w_verdP</styleUrl><Point><coordinates>2.27476000785828,41.5901398658752,0</coordinates></Point></Placemark>
<Placemark><name>MOL03</name><description>241003 PORT MOL (Metro. Nord)
posicio de les: 06/08/2018 00:17:06</description><styleUrl>#w_verdP</styleUrl><Point><coordinates>2.20111727714539,41.5366566181183,0</coordinates></Point></Placemark>
<Placemark><name>41130</name><description>241130 BRP MFI (Metro. Nord)
posicio de les: 06/08/2018 00:15:42</description><styleUrl>#w_verdC</styleUrl><Point><coordinates>2.27197051048279,41.7162466049194,0</coordinates></Point></Placemark>
<Placemark><name>SAB06</name><description>241406 PORT SAB (Metro. Nord)
posicio de les: 06/08/2018 00:17:42</description><styleUrl>#w_verdP</styleUrl><Point><coordinates>2.10413932800293,41.5421068668365,0</coordinates></Point></Placemark>
<Placemark><name>CMSAB20</name><description>241420 PORT SAB (Metro. Nord)
posicio de les: 06/08/2018 00:17:15</description><styleUrl>#w_verdP</styleUrl><Point><coordinates>2.10392475128174,41.5429973602295,0</coordinates></Point></Placemark>
<Placemark><name>241440</name><description>241440 BUP SAB (Metro. Nord)
posicio de les: 06/08/2018 00:16:40</description><styleUrl>#w_grocC</styleUrl><Point><coordinates>2.10401058197021,41.542546749115,0</coordinates></Point></Placemark>
<Placemark><name>SCG09</name><description>241809 PORT SCG (Metro. Nord)
posicio de les: 06/08/2018 00:16:18</description><styleUrl>#w_verdP</styleUrl><Point><coordinates>2.20952868461609,41.4632499217987,0</coordinates></Point></Placemark>
<Placemark><name>241858</name><description>241858 BSAL SCG (Metro. Nord)
posicio de les: 06/08/2018 00:16:35</description><styleUrl>#w_grocB</styleUrl><Point><coordinates>2.20933556556702,41.4632499217987,0</coordinates></Point></Placemark>
<Placemark><name>TER01</name><description>242001 PORT TER (Metro. Nord)
posicio de les: 06/08/2018 00:16:40</description><styleUrl>#w_verdP</styleUrl><Point><coordinates>2.02593684196472,41.5691328048706,0</coordinates></Point></Placemark>
<Placemark><name>TOD56</name><description>242156 PORT.COM TOD (Metro. Nord)
posicio de les: 06/08/2018 00:12:38</description><styleUrl>#w_grocP</styleUrl><Point><coordinates>2.7160370349884,41.6919672489166,0</coordinates></Point></Placemark>
<Placemark><name>D9REMN</name><description>248049  SERVEIS REGIÓ
posicio de les: 06/08/2018 00:16:11</description><styleUrl>#w_groc</styleUrl><Point><coordinates>2.11275458335876,41.5017020702362,0</coordinates></Point></Placemark>
<Placemark><name>50092</name><description>250092  REGIÓ
posicio de les: 06/08/2018 00:16:15</description><styleUrl>#w_verd</styleUrl><Point><coordinates>1.70457601547241,41.3546741008759,0</coordinates></Point></Placemark>
<Placemark><name>COR05</name><description>250405 PORT COR (Metro. Sud)
posicio de les: 06/08/2018 00:14:25</description><styleUrl>#w_verdP</styleUrl><Point><coordinates>2.07020401954651,41.360650062561,0</coordinates></Point></Placemark>
<Placemark><name>COR10</name><description>250410 PORT COR (Metro. Sud)
posicio de les: 06/08/2018 00:14:34</description><styleUrl>#w_verdP</styleUrl><Point><coordinates>2.07074046134949,41.3609504699707,0</coordinates></Point></Placemark>
<Placemark><name>COR56</name><description>250456 PORT.COM COR (Metro. Sud)
posicio de les: 06/08/2018 00:18:10</description><styleUrl>#w_verdP</styleUrl><Point><coordinates>2.07056879997253,41.3608539104462,0</coordinates></Point></Placemark>
<Placemark><name>GAV01</name><description>250501 PORT GAV (Metro. Sud)
posicio de les: 06/08/2018 00:17:13</description><styleUrl>#w_verdP</styleUrl><Point><coordinates>1.99005961418152,41.299946308136,0</coordinates></Point></Placemark>
<Placemark><name>GAV56</name><description>250556 PORT.COM GAV (Metro. Sud)
posicio de les: 06/08/2018 00:16:17</description><styleUrl>#w_grocP</styleUrl><Point><coordinates>1.99061751365662,41.2998282909393,0</coordinates></Point></Placemark>
<Placemark><name>50560</name><description>250560 AEA/AES/ABA GAV (Metro. Sud)
posicio de les: 06/08/2018 00:17:20</description><styleUrl>#w_grocC</styleUrl><Point><coordinates>2.08215594291687,41.3801872730255,0</coordinates></Point></Placemark>
<Placemark><name>HOS02</name><description>250702 PORT HOS (Metro. Sud)
posicio de les: 06/08/2018 00:14:32</description><styleUrl>#w_verdP</styleUrl><Point><coordinates>2.10599541664124,41.3699519634247,0</coordinates></Point></Placemark>
<Placemark><name>HOS04</name><description>250704 PORT HOS (Metro. Sud)
posicio de les: 06/08/2018 00:17:24</description><styleUrl>#w_verdP</styleUrl><Point><coordinates>2.08186626434326,41.3804340362549,0</coordinates></Point></Placemark>
<Placemark><name>250740</name><description>250740 BUP HOS (Metro. Sud)
posicio de les: 06/08/2018 00:17:33</description><styleUrl>#w_grocC</styleUrl><Point><coordinates>2.08195209503174,41.3804769515991,0</coordinates></Point></Placemark>
<Placemark><name>LLA03</name><description>250903 PORT LLA (Metro. Sud)
posicio de les: 06/08/2018 00:17:26</description><styleUrl>#w_grocP</styleUrl><Point><coordinates>1.53031826019287,41.4732921123505,0</coordinates></Point></Placemark>
<Placemark><name>MAR57</name><description>251057 PORT.COM MAR (Metro. Sud)
posicio de les: 06/08/2018 00:17:12</description><styleUrl>#w_grocP</styleUrl><Point><coordinates>1.90802693367004,41.498783826828,0</coordinates></Point></Placemark>
<Placemark><name>PLL57</name><description>251257 PORT.COM PLL (Metro. Sud)
posicio de les: 06/08/2018 00:16:38</description><styleUrl>#w_grocP</styleUrl><Point><coordinates>2.08157658576965,41.3175523281097,0</coordinates></Point></Placemark>
<Placemark><name>SFE57</name><description>251557 PORT.COM SFE (Metro. Sud)
posicio de les: 06/08/2018 00:17:26</description><styleUrl>#w_verdP</styleUrl><Point><coordinates>2.04329609870911,41.3884592056274,0</coordinates></Point></Placemark>
<Placemark><name>CMS15</name><description>254515 PORT Parc X
posicio de les: 06/08/2018 00:17:46</description><styleUrl>#w_verdP</styleUrl><Point><coordinates>1.70457601547241,41.3544702529907,0</coordinates></Point></Placemark>
<Placemark><name>I215</name><description>257215 P.GUAITA GUAITA
posicio de les: 06/08/2018 00:16:57</description><styleUrl>#w_grocP</styleUrl><Point><coordinates>1.66402101516724,41.4991807937622,0</coordinates></Point></Placemark>
<Placemark><name>D1REMS</name><description>258041  SERVEIS REGIÓ
posicio de les: 06/08/2018 00:16:07</description><styleUrl>#w_verd</styleUrl><Point><coordinates>2.03344702720642,41.3225412368774,0</coordinates></Point></Placemark>
<Placemark><name>RET11</name><description>260011 P.Tec REGIÓ
posicio de les: 06/08/2018 00:16:44</description><styleUrl>#w_verdP</styleUrl><Point><coordinates>1.185622215271,41.1347222328186,0</coordinates></Point></Placemark>
<Placemark><name>FALS06</name><description>260406 PORT FALS (Tarragona)
posicio de les: 06/08/2018 00:17:51</description><styleUrl>#w_verdP</styleUrl><Point><coordinates>0.823212862014771,41.1473393440247,0</coordinates></Point></Placemark>
<Placemark><name>260508</name><description>260508 PORT HOSP (Tarragona)
posicio de les: 06/08/2018 00:17:03</description><styleUrl>#w_grocP</styleUrl><Point><coordinates>0.91985821723938,40.9937024116516,0</coordinates></Point></Placemark>
<Placemark><name>260530</name><description>260530 BRP HOSP (Tarragona)
posicio de les: 06/08/2018 00:18:19</description><styleUrl>#w_verdC</styleUrl><Point><coordinates>0.927636623382568,40.9993135929108,0</coordinates></Point></Placemark>
<Placemark><name>MONT02</name><description>260602 PORT MONT (Tarragona)
posicio de les: 06/08/2018 00:17:40</description><styleUrl>#w_verdP</styleUrl><Point><coordinates>0.730880498886108,41.5856444835663,0</coordinates></Point></Placemark>
<Placemark><name>60630</name><description>260630 BRP MONT (Tarragona)
posicio de les: 06/08/2018 00:18:12</description><styleUrl>#w_verdC</styleUrl><Point><coordinates>0.739603042602539,41.5827262401581,0</coordinates></Point></Placemark>
<Placemark><name>60844</name><description>260844 BNP REUS (Tarragona)
posicio de les: 06/08/2018 00:16:40</description><styleUrl>#w_grocC</styleUrl><Point><coordinates>1.11810564994812,41.1509335041046,0</coordinates></Point></Placemark>
<Placemark><name>60890</name><description>260890 UPC REUS (Tarragona)
posicio de les: 06/08/2018 00:14:59</description><styleUrl>#w_verd</styleUrl><Point><coordinates>1.11796617507935,41.1506330966949,0</coordinates></Point></Placemark>
<Placemark><name>61234</name><description>261234 BFP TARR (Tarragona)
posicio de les: 06/08/2018 00:13:49</description><styleUrl>#w_grocC</styleUrl><Point><coordinates>1.22163891792297,41.1126744747162,0</coordinates></Point></Placemark>
<Placemark><name>VALS56</name><description>261356 PORT.COM VALS (Tarragona)
posicio de les: 06/08/2018 00:17:35</description><styleUrl>#w_grocP</styleUrl><Point><coordinates>1.2604558467865,41.3069522380829,0</coordinates></Point></Placemark>
<Placemark><name>61390</name><description>261390 UPC VALS (Tarragona)
posicio de les: 06/08/2018 00:15:02</description><styleUrl>#w_groc</styleUrl><Point><coordinates>1.25921130180359,41.3072848320007,0</coordinates></Point></Placemark>
<Placemark><name>VEND05</name><description>261405 PORT VEND (Tarragona)
posicio de les: 06/08/2018 00:15:32</description><styleUrl>#w_verdP</styleUrl><Point><coordinates>1.54092907905579,41.222859621048,0</coordinates></Point></Placemark>
<Placemark><name>VEND10</name><description>261410 PORT VEND (Tarragona)
posicio de les: 06/08/2018 00:16:32</description><styleUrl>#w_grocP</styleUrl><Point><coordinates>1.54078960418701,41.2221622467041,0</coordinates></Point></Placemark>
<Placemark><name>E00RETE</name><description>270014 P.Tec REGIÓ
posicio de les: 06/08/2018 00:13:22</description><styleUrl>#w_verdP</styleUrl><Point><coordinates>0.513074398040771,40.8193588256836,0</coordinates></Point></Placemark>
<Placemark><name>GAND56</name><description>272656 PORT.COM GAND (Terres de l'Ebre)
posicio de les: 06/08/2018 00:16:09</description><styleUrl>#w_grocP</styleUrl><Point><coordinates>0.439410209655762,41.0585904121399,0</coordinates></Point></Placemark>
<Placemark><name>MORA56</name><description>272856 PORT.COM MORA (Terres de l'Ebre)
posicio de les: 06/08/2018 00:16:57</description><styleUrl>#w_grocP</styleUrl><Point><coordinates>0.629632472991943,41.0861098766327,0</coordinates></Point></Placemark>
<Placemark><name>E_93</name><description>278031  SERVEIS REGIÓ
posicio de les: 06/08/2018 00:16:33</description><styleUrl>#w_verd</styleUrl><Point><coordinates>0.512709617614746,40.8190047740936,0</coordinates></Point></Placemark>
</Folder>
<Folder>
<name>Descarregues</name>
</Folder>
<Style id="w_verdP_n"><IconStyle><color>ff00ff00</color><scale>1.0</scale><Icon><href>http://maps.google.com/mapfiles/kml/shapes/man.png</href></Icon><hotSpot x="0.5" y="0" xunits="fraction" yunits="fraction"/></IconStyle><LabelStyle><scale>0.7</scale></LabelStyle></Style>
<Style id="w_verdP_s"><IconStyle><color>ff00ff00</color><scale>1.4</scale><Icon><href>http://maps.google.com/mapfiles/kml/shapes/man.png</href></Icon><hotSpot x="0.5" y="0" xunits="fraction" yunits="fraction"/></IconStyle><LabelStyle><scale>0.7</scale></LabelStyle></Style>
<StyleMap id="w_verdP"><Pair><key>normal</key><styleUrl>#w_verdP_n</styleUrl></Pair><Pair><key>highlight</key><styleUrl>#w_verdP_s</styleUrl></Pair></StyleMap>
<Style id="w_verd_n"><IconStyle><color>ff00ff00</color><scale>0.7</scale><Icon><href>http://maps.google.com/mapfiles/kml/shapes/cabs.png</href></Icon><hotSpot x="0.5" y="0" xunits="fraction" yunits="fraction"/></IconStyle><LabelStyle><scale>0.7</scale></LabelStyle></Style>
<Style id="w_verd_s"><IconStyle><color>ff00ff00</color><scale>1.0</scale><Icon><href>http://maps.google.com/mapfiles/kml/shapes/cabs.png</href></Icon><hotSpot x="0.5" y="0" xunits="fraction" yunits="fraction"/></IconStyle><LabelStyle><scale>0.7</scale></LabelStyle></Style>
<StyleMap id="w_verd"><Pair><key>normal</key><styleUrl>#w_verd_n</styleUrl></Pair><Pair><key>highlight</key><styleUrl>#w_verd_s</styleUrl></Pair></StyleMap>
<Style id="w_verdC_n"><IconStyle><color>ff00ff00</color><scale>1.0</scale><Icon><href>http://maps.google.com/mapfiles/kml/shapes/truck.png</href></Icon><hotSpot x="0.5" y="0" xunits="fraction" yunits="fraction"/></IconStyle><LabelStyle><scale>0.7</scale></LabelStyle></Style>
<Style id="w_verdC_s"><IconStyle><color>ff00ff00</color><scale>1.4</scale><Icon><href>http://maps.google.com/mapfiles/kml/shapes/truck.png</href></Icon><hotSpot x="0.5" y="0" xunits="fraction" yunits="fraction"/></IconStyle><LabelStyle><scale>0.7</scale></LabelStyle></Style>
<StyleMap id="w_verdC"><Pair><key>normal</key><styleUrl>#w_verdC_n</styleUrl></Pair><Pair><key>highlight</key><styleUrl>#w_verdC_s</styleUrl></Pair></StyleMap>
<Style id="w_verdH_n"><IconStyle><color>ff0000ff</color><scale>1.2</scale><Icon><href>http://maps.google.com/mapfiles/kml/shapes/heliport.png</href></Icon><hotSpot x="0.5" y="0" xunits="fraction" yunits="fraction"/></IconStyle><LabelStyle><scale>0.7</scale></LabelStyle></Style>
<Style id="w_verdH_s"><IconStyle><color>ff0000ff</color><scale>1.4</scale><Icon><href>http://maps.google.com/mapfiles/kml/shapes/heliport.png</href></Icon><hotSpot x="0.5" y="0" xunits="fraction" yunits="fraction"/></IconStyle><LabelStyle><scale>0.7</scale></LabelStyle></Style>
<StyleMap id="w_verdH"><Pair><key>normal</key><styleUrl>#w_verdH_n</styleUrl></Pair><Pair><key>highlight</key><styleUrl>#w_verdH_s</styleUrl></Pair></StyleMap>
<Style id="w_verdA_n"><IconStyle><color>ff0000ff</color><scale>1.2</scale><Icon><href>http://maps.google.com/mapfiles/kml/shapes/airports.png</href></Icon><hotSpot x="0.5" y="0" xunits="fraction" yunits="fraction"/></IconStyle><LabelStyle><scale>0.7</scale></LabelStyle></Style>
<Style id="w_verdA_s"><IconStyle><color>ff0000ff</color><scale>1.4</scale><Icon><href>http://maps.google.com/mapfiles/kml/shapes/airports.png</href></Icon><hotSpot x="0.5" y="0" xunits="fraction" yunits="fraction"/></IconStyle><LabelStyle><scale>0.7</scale></LabelStyle></Style>
<StyleMap id="w_verdA"><Pair><key>normal</key><styleUrl>#w_verdA_n</styleUrl></Pair><Pair><key>highlight</key><styleUrl>#w_verdA_s</styleUrl></Pair></StyleMap>
<Style id="w_verdB_n"><IconStyle><color>ff00ff00</color><scale>1.0</scale><Icon><href>http://maps.google.com/mapfiles/kml/shapes/sailing.png</href></Icon><hotSpot x="0.5" y="0" xunits="fraction" yunits="fraction"/></IconStyle><LabelStyle><scale>0.7</scale></LabelStyle></Style>
<Style id="w_verdB_s"><IconStyle><color>ff00ff00</color><scale>1.4</scale><Icon><href>http://maps.google.com/mapfiles/kml/shapes/sailing.png</href></Icon><hotSpot x="0.5" y="0" xunits="fraction" yunits="fraction"/></IconStyle><LabelStyle><scale>0.7</scale></LabelStyle></Style>
<StyleMap id="w_verdB"><Pair><key>normal</key><styleUrl>#w_verdBAR_n</styleUrl></Pair><Pair><key>highlight</key><styleUrl>#w_verdBAR_s</styleUrl></Pair></StyleMap>
<Style id="w_grocP_n"><IconStyle><color>ff00ffff</color><scale>1.0</scale><Icon><href>http://maps.google.com/mapfiles/kml/shapes/man.png</href></Icon><hotSpot x="0.5" y="0" xunits="fraction" yunits="fraction"/></IconStyle><LabelStyle><scale>0.7</scale></LabelStyle></Style>
<Style id="w_grocP_s"><IconStyle><color>ff00ffff</color><scale>1.4</scale><Icon><href>http://maps.google.com/mapfiles/kml/shapes/man.png</href></Icon><hotSpot x="0.5" y="0" xunits="fraction" yunits="fraction"/></IconStyle><LabelStyle><scale>0.7</scale></LabelStyle></Style>
<StyleMap id="w_grocP"><Pair><key>normal</key><styleUrl>#w_grocP_n</styleUrl></Pair><Pair><key>highlight</key><styleUrl>#w_grocP_s</styleUrl></Pair></StyleMap>
<Style id="w_groc_n"><IconStyle><color>ff00ffff</color><scale>0.7</scale><Icon><href>http://maps.google.com/mapfiles/kml/shapes/cabs.png</href></Icon><hotSpot x="0.5" y="0" xunits="fraction" yunits="fraction"/></IconStyle><LabelStyle><scale>0.7</scale></LabelStyle></Style>
<Style id="w_groc_s"><IconStyle><color>ff00ffff</color><scale>1.0</scale><Icon><href>http://maps.google.com/mapfiles/kml/shapes/cabs.png</href></Icon><hotSpot x="0.5" y="0" xunits="fraction" yunits="fraction"/></IconStyle><LabelStyle><scale>0.7</scale></LabelStyle></Style>
<StyleMap id="w_groc"><Pair><key>normal</key><styleUrl>#w_groc_n</styleUrl></Pair><Pair><key>highlight</key><styleUrl>#w_groc_s</styleUrl></Pair></StyleMap>
<Style id="w_grocC_n"><IconStyle><color>ff00ffff</color><scale>1.0</scale><Icon><href>http://maps.google.com/mapfiles/kml/shapes/truck.png</href></Icon><hotSpot x="0.5" y="0" xunits="fraction" yunits="fraction"/></IconStyle><LabelStyle><scale>0.7</scale></LabelStyle></Style>
<Style id="w_grocC_s"><IconStyle><color>ff00ffff</color><scale>1.4</scale><Icon><href>http://maps.google.com/mapfiles/kml/shapes/truck.png</href></Icon><hotSpot x="0.5" y="0" xunits="fraction" yunits="fraction"/></IconStyle><LabelStyle><scale>0.7</scale></LabelStyle></Style>
<StyleMap id="w_grocC"><Pair><key>normal</key><styleUrl>#w_grocC_n</styleUrl></Pair><Pair><key>highlight</key><styleUrl>#w_grocC_s</styleUrl></Pair></StyleMap>
<Style id="w_grocH_n"><IconStyle><color>ff0000ff</color><scale>1.2</scale><Icon><href>http://maps.google.com/mapfiles/kml/shapes/heliport.png</href></Icon><hotSpot x="0.5" y="0" xunits="fraction" yunits="fraction"/></IconStyle><LabelStyle><scale>0.7</scale></LabelStyle></Style>
<Style id="w_grocH_s"><IconStyle><color>ff0000ff</color><scale>1.4</scale><Icon><href>http://maps.google.com/mapfiles/kml/shapes/heliport.png</href></Icon><hotSpot x="0.5" y="0" xunits="fraction" yunits="fraction"/></IconStyle><LabelStyle><scale>0.7</scale></LabelStyle></Style>
<StyleMap id="w_grocH"><Pair><key>normal</key><styleUrl>#w_grocH_n</styleUrl></Pair><Pair><key>highlight</key><styleUrl>#w_grocH_s</styleUrl></Pair></StyleMap>
<Style id="w_grocA_n"><IconStyle><color>ff0000ff</color><scale>1.2</scale><Icon><href>http://maps.google.com/mapfiles/kml/shapes/airports.png</href></Icon><hotSpot x="0.5" y="0" xunits="fraction" yunits="fraction"/></IconStyle><LabelStyle><scale>0.7</scale></LabelStyle></Style>
<Style id="w_grocA_s"><IconStyle><color>ff0000ff</color><scale>1.4</scale><Icon><href>http://maps.google.com/mapfiles/kml/shapes/airports.png</href></Icon><hotSpot x="0.5" y="0" xunits="fraction" yunits="fraction"/></IconStyle><LabelStyle><scale>0.7</scale></LabelStyle></Style>
<StyleMap id="w_grocA"><Pair><key>normal</key><styleUrl>#w_grocA_n</styleUrl></Pair><Pair><key>highlight</key><styleUrl>#w_grocA_s</styleUrl></Pair></StyleMap>
<Style id="w_grocB_n"><IconStyle><color>ff00ffff</color><scale>1.0</scale><Icon><href>http://maps.google.com/mapfiles/kml/shapes/sailing.png</href></Icon><hotSpot x="0.5" y="0" xunits="fraction" yunits="fraction"/></IconStyle><LabelStyle><scale>0.7</scale></LabelStyle></Style>
<Style id="w_grocB_s"><IconStyle><color>ff00ffff</color><scale>1.4</scale><Icon><href>http://maps.google.com/mapfiles/kml/shapes/sailing.png</href></Icon><hotSpot x="0.5" y="0" xunits="fraction" yunits="fraction"/></IconStyle><LabelStyle><scale>0.7</scale></LabelStyle></Style>
<StyleMap id="w_grocB"><Pair><key>normal</key><styleUrl>#w_grocBAR_n</styleUrl></Pair><Pair><key>highlight</key><styleUrl>#w_grocBAR_s</styleUrl></Pair></StyleMap>
<Style id="w_vermellP_n"><IconStyle><color>ff0000ff</color><scale>1.0</scale><Icon><href>http://maps.google.com/mapfiles/kml/shapes/man.png</href></Icon><hotSpot x="0.5" y="0" xunits="fraction" yunits="fraction"/></IconStyle><LabelStyle><scale>0.7</scale></LabelStyle></Style>
<Style id="w_vermellP_s"><IconStyle><color>ff0000ff</color><scale>1.4</scale><Icon><href>http://maps.google.com/mapfiles/kml/shapes/man.png</href></Icon><hotSpot x="0.5" y="0" xunits="fraction" yunits="fraction"/></IconStyle><LabelStyle><scale>0.7</scale></LabelStyle></Style>
<StyleMap id="w_vermellP"><Pair><key>normal</key><styleUrl>#w_vermellP_n</styleUrl></Pair><Pair><key>highlight</key><styleUrl>#w_vermellP_s</styleUrl></Pair></StyleMap>
<Style id="w_vermell_n"><IconStyle><color>ff0000ff</color><scale>0.7</scale><Icon><href>http://maps.google.com/mapfiles/kml/shapes/cabs.png</href></Icon><hotSpot x="0.5" y="0" xunits="fraction" yunits="fraction"/></IconStyle><LabelStyle><scale>0.7</scale></LabelStyle></Style>
<Style id="w_vermell_s"><IconStyle><color>ff0000ff</color><scale>1.0</scale><Icon><href>http://maps.google.com/mapfiles/kml/shapes/cabs.png</href></Icon><hotSpot x="0.5" y="0" xunits="fraction" yunits="fraction"/></IconStyle><LabelStyle><scale>0.7</scale></LabelStyle></Style>
<StyleMap id="w_vermell"><Pair><key>normal</key><styleUrl>#w_vermell_n</styleUrl></Pair><Pair><key>highlight</key><styleUrl>#w_vermell_s</styleUrl></Pair></StyleMap>
<Style id="w_vermellC_n"><IconStyle><color>ff0000ff</color><scale>1.0</scale><Icon><href>http://maps.google.com/mapfiles/kml/shapes/truck.png</href></Icon><hotSpot x="0.5" y="0" xunits="fraction" yunits="fraction"/></IconStyle><LabelStyle><scale>0.7</scale></LabelStyle></Style>
<Style id="w_vermellC_s"><IconStyle><color>ff0000ff</color><scale>1.4</scale><Icon><href>http://maps.google.com/mapfiles/kml/shapes/truck.png</href></Icon><hotSpot x="0.5" y="0" xunits="fraction" yunits="fraction"/></IconStyle><LabelStyle><scale>0.7</scale></LabelStyle></Style>
<StyleMap id="w_vermellC"><Pair><key>normal</key><styleUrl>#w_vermellC_n</styleUrl></Pair><Pair><key>highlight</key><styleUrl>#w_vermellC_s</styleUrl></Pair></StyleMap>
<Style id="w_vermellH_n"><IconStyle><color>ff0000ff</color><scale>1.2</scale><Icon><href>http://maps.google.com/mapfiles/kml/shapes/heliport.png</href></Icon><hotSpot x="0.5" y="0" xunits="fraction" yunits="fraction"/></IconStyle><LabelStyle><scale>0.7</scale></LabelStyle></Style>
<Style id="w_vermellH_s"><IconStyle><color>ff0000ff</color><scale>1.4</scale><Icon><href>http://maps.google.com/mapfiles/kml/shapes/heliport.png</href></Icon><hotSpot x="0.5" y="0" xunits="fraction" yunits="fraction"/></IconStyle><LabelStyle><scale>0.7</scale></LabelStyle></Style>
<StyleMap id="w_vermellH"><Pair><key>normal</key><styleUrl>#w_vermellH_n</styleUrl></Pair><Pair><key>highlight</key><styleUrl>#w_vermellH_s</styleUrl></Pair></StyleMap>
<Style id="w_vermellA_n"><IconStyle><color>ff0000ff</color><scale>1.2</scale><Icon><href>http://maps.google.com/mapfiles/kml/shapes/airports.png</href></Icon><hotSpot x="0.5" y="0" xunits="fraction" yunits="fraction"/></IconStyle><LabelStyle><scale>0.7</scale></LabelStyle></Style>
<Style id="w_vermellA_s"><IconStyle><color>ff0000ff</color><scale>1.4</scale><Icon><href>http://maps.google.com/mapfiles/kml/shapes/airports.png</href></Icon><hotSpot x="0.5" y="0" xunits="fraction" yunits="fraction"/></IconStyle><LabelStyle><scale>0.7</scale></LabelStyle></Style>
<StyleMap id="w_vermellA"><Pair><key>normal</key><styleUrl>#w_vermellA_n</styleUrl></Pair><Pair><key>highlight</key><styleUrl>#w_vermellA_s</styleUrl></Pair></StyleMap>
<Style id="w_vermellB_n"><IconStyle><color>ff0000ff</color><scale>1.0</scale><Icon><href>http://maps.google.com/mapfiles/kml/shapes/sailing.png</href></Icon><hotSpot x="0.5" y="0" xunits="fraction" yunits="fraction"/></IconStyle><LabelStyle><scale>0.7</scale></LabelStyle></Style>
<Style id="w_vermellB_s"><IconStyle><color>ff0000ff</color><scale>1.4</scale><Icon><href>http://maps.google.com/mapfiles/kml/shapes/sailing.png</href></Icon><hotSpot x="0.5" y="0" xunits="fraction" yunits="fraction"/></IconStyle><LabelStyle><scale>0.7</scale></LabelStyle></Style>
<StyleMap id="w_vermellB"><Pair><key>normal</key><styleUrl>#w_vermellBAR_n</styleUrl></Pair><Pair><key>highlight</key><styleUrl>#w_vermellBAR_s</styleUrl></Pair></StyleMap>
<Style id="w_descarrega"><IconStyle><color>ff00ffff</color><scale>0.5</scale><Icon><href>http://maps.google.com/mapfiles/kml/shapes/road_shield3.png</href></Icon></IconStyle><LabelStyle><scale>0.7</scale></LabelStyle></Style><Style id="actuacio"><IconStyle><color>ff00ffff</color><scale>0.8</scale><Icon><href>http://maps.google.com/mapfiles/kml/shapes/caution.png</href></Icon></IconStyle><LabelStyle><scale>0.7</scale></LabelStyle></Style></Document></kml>