<?xml version="1.0" encoding="UTF-8"?>
<kml xmlns="http://www.opengis.net/kml/2.2" xmlns:gx="http://www.google.com/kml/ext/2.2" xmlns:kml="http://www.opengis.net/kml/2.2" xmlns:atom="http://www.w3.org/2005/Atom">
<Document>
<name>Terminals</name>
<Snippet maxLines="2">Created 03/08/2018 23:55:25</Snippet>
<Folder>
<name>Terminals</name>
<Placemark><name>GGRAF03</name><description>204203 P.UT
posicio de les: 03/08/2018 23:54:53</description><styleUrl>#w_verdP</styleUrl><Point><coordinates>2.80624508857727,41.9607138633728,0</coordinates></Point></Placemark>
<Placemark><name>VIEL12</name><description>208012 P.PT VARAN
posicio de les: 03/08/2018 23:54:51</description><styleUrl>#w_grocP</styleUrl><Point><coordinates>0.801283121109009,42.6994264125824,0</coordinates></Point></Placemark>
<Placemark><name>VIEL17</name><description>208017 BASE CCA VARAN
posicio de les: 03/08/2018 23:53:53</description><styleUrl>#w_verd</styleUrl><Point><coordinates>0.796787738800049,42.7080416679382,0</coordinates></Point></Placemark>
<Placemark><name>GE100</name><description>210017 P.Tec REGIÓ
posicio de les: 03/08/2018 23:54:29</description><styleUrl>#w_verdP</styleUrl><Point><coordinates>1.85142159461975,41.7414379119873,0</coordinates></Point></Placemark>
<Placemark><name>10071</name><description>210071  REGIÓ
posicio de les: 03/08/2018 23:52:13</description><styleUrl>#w_groc</styleUrl><Point><coordinates>1.8528163433075,41.7415130138397,0</coordinates></Point></Placemark>
<Placemark><name>BER57</name><description>210357 PORT.COM BER (Centre)
posicio de les: 03/08/2018 23:53:41</description><styleUrl>#w_verdP</styleUrl><Point><coordinates>1.85799837112427,42.1042227745056,0</coordinates></Point></Placemark>
<Placemark><name>CAR56</name><description>210556 PORT.COM CAR (Centre)
posicio de les: 03/08/2018 23:53:24</description><styleUrl>#w_verdP</styleUrl><Point><coordinates>1.70446872711182,41.9005787372589,0</coordinates></Point></Placemark>
<Placemark><name>211130</name><description>211130 BRP MOI (Centre)
posicio de les: 03/08/2018 23:54:29</description><styleUrl>#w_grocC</styleUrl><Point><coordinates>2.08612561225891,41.811797618866,0</coordinates></Point></Placemark>
<Placemark><name>PRA03</name><description>211403 PORT PRA (Centre)
posicio de les: 03/08/2018 23:53:57</description><styleUrl>#w_verdP</styleUrl><Point><coordinates>2.03616142272949,42.0080173015594,0</coordinates></Point></Placemark>
<Placemark><name>PRA07</name><description>211407 PORT PRA (Centre)
posicio de les: 03/08/2018 23:54:22</description><styleUrl>#w_verdP</styleUrl><Point><coordinates>2.03611850738525,42.0080173015594,0</coordinates></Point></Placemark>
<Placemark><name>PUIG08</name><description>211508 PORT PUIG (Centre)
posicio de les: 03/08/2018 23:55:24</description><styleUrl>#w_verdP</styleUrl><Point><coordinates>1.90294146537781,42.430100440979,0</coordinates></Point></Placemark>
<Placemark><name>SOLS05</name><description>211905 PORT SOLS (Centre)
posicio de les: 03/08/2018 23:53:33</description><styleUrl>#w_grocP</styleUrl><Point><coordinates>1.51250839233398,41.9895851612091,0</coordinates></Point></Placemark>
<Placemark><name>VIC04</name><description>212104 PORT VIC (Centre)
posicio de les: 03/08/2018 23:54:49</description><styleUrl>#w_verdP</styleUrl><Point><coordinates>2.26914882659912,41.9424641132355,0</coordinates></Point></Placemark>
<Placemark><name>CMC01</name><description>214501 PORT Parc X
posicio de les: 03/08/2018 23:53:12</description><styleUrl>#w_grocP</styleUrl><Point><coordinates>1.85196876525879,41.7416524887085,0</coordinates></Point></Placemark>
<Placemark><name>20091</name><description>220091  REGIÓ
posicio de les: 03/08/2018 23:50:59</description><styleUrl>#w_groc</styleUrl><Point><coordinates>2.80710339546204,41.958042383194,0</coordinates></Point></Placemark>
<Placemark><name>20134</name><description>220134 BFP AMER (Girona)
posicio de les: 03/08/2018 23:52:55</description><styleUrl>#w_grocC</styleUrl><Point><coordinates>3.15339803695679,42.3575735092163,0</coordinates></Point></Placemark>
<Placemark><name>BANY56</name><description>220356 PORT.COM BANY (Girona)
posicio de les: 03/08/2018 23:53:46</description><styleUrl>#w_verdP</styleUrl><Point><coordinates>2.78565645217896,42.1176874637604,0</coordinates></Point></Placemark>
<Placemark><name>220656</name><description>220656 PORT.COM CALO (Girona)
posicio de les: 03/08/2018 23:54:42</description><styleUrl>#w_grocP</styleUrl><Point><coordinates>3.07445526123047,41.8525242805481,0</coordinates></Point></Placemark>
<Placemark><name>CASS04</name><description>220804 PORT CASS (Girona)
posicio de les: 03/08/2018 23:52:02</description><styleUrl>#w_verdP</styleUrl><Point><coordinates>2.88334250450134,41.8795394897461,0</coordinates></Point></Placemark>
<Placemark><name>20830</name><description>220830 BRP CASS (Girona)
posicio de les: 03/08/2018 23:55:00</description><styleUrl>#w_verdC</styleUrl><Point><coordinates>2.88620710372925,41.8773078918457,0</coordinates></Point></Placemark>
<Placemark><name>CASS56</name><description>220856 PORT.COM CASS (Girona)
posicio de les: 03/08/2018 23:49:55</description><styleUrl>#w_verdP</styleUrl><Point><coordinates>2.88356781005859,41.8796896934509,0</coordinates></Point></Placemark>
<Placemark><name>FIGU56</name><description>221056 PORT.COM FIGU (Girona)
posicio de les: 03/08/2018 23:54:17</description><styleUrl>#w_verdP</styleUrl><Point><coordinates>3.00119876861572,42.3449885845184,0</coordinates></Point></Placemark>
<Placemark><name>GIRO06</name><description>221106 PORT GIRO (Girona)
posicio de les: 03/08/2018 23:53:38</description><styleUrl>#w_verdP</styleUrl><Point><coordinates>2.80584812164307,41.9602525234222,0</coordinates></Point></Placemark>
<Placemark><name>JONQ56</name><description>221356 PORT.COM JONQ (Girona)
posicio de les: 03/08/2018 23:54:08</description><styleUrl>#w_verdP</styleUrl><Point><coordinates>2.87629365921021,42.4118399620056,0</coordinates></Point></Placemark>
<Placemark><name>LLAN57</name><description>221457 PORT.COM LLAN (Girona)
posicio de les: 03/08/2018 23:50:43</description><styleUrl>#w_verdP</styleUrl><Point><coordinates>3.15261483192444,42.3573911190033,0</coordinates></Point></Placemark>
<Placemark><name>LLOR56</name><description>221556 PORT.COM LLOR (Girona)
posicio de les: 03/08/2018 23:55:09</description><styleUrl>#w_verdP</styleUrl><Point><coordinates>2.83614635467529,41.6996490955353,0</coordinates></Point></Placemark>
<Placemark><name>MAÇA57</name><description>221657 PORT.COM MACA (Girona)
posicio de les: 03/08/2018 23:53:26</description><styleUrl>#w_grocP</styleUrl><Point><coordinates>2.7530300617218,41.7798149585724,0</coordinates></Point></Placemark>
<Placemark><name>OLOT01</name><description>221701 PORT OLOT (Girona)
posicio de les: 03/08/2018 23:54:03</description><styleUrl>#w_verdP</styleUrl><Point><coordinates>3.16084384918213,42.2766029834747,0</coordinates></Point></Placemark>
<Placemark><name>OLOT56</name><description>221756 PORT.COM OLOT (Girona)
posicio de les: 03/08/2018 23:53:17</description><styleUrl>#w_verdP</styleUrl><Point><coordinates>2.47456312179565,42.190203666687,0</coordinates></Point></Placemark>
<Placemark><name>OLOT57</name><description>221757 PORT.COM OLOT (Girona)
posicio de les: 03/08/2018 23:51:40</description><styleUrl>#w_verdP</styleUrl><Point><coordinates>2.47368335723877,42.1907722949982,0</coordinates></Point></Placemark>
<Placemark><name>RIPO56</name><description>222156 PORT.COM RIPO (Girona)
posicio de les: 03/08/2018 23:51:25</description><styleUrl>#w_verdP</styleUrl><Point><coordinates>2.16869473457336,42.2148048877716,0</coordinates></Point></Placemark>
<Placemark><name>ROSE57</name><description>222257 PORT.COM ROSE (Girona)
posicio de les: 03/08/2018 23:53:01</description><styleUrl>#w_verdP</styleUrl><Point><coordinates>3.16106915473938,42.2763454914093,0</coordinates></Point></Placemark>
<Placemark><name>22430</name><description>222430 BRP SHIL (Girona)
posicio de les: 03/08/2018 23:53:05</description><styleUrl>#w_grocC</styleUrl><Point><coordinates>3.03179740905762,41.8087935447693,0</coordinates></Point></Placemark>
<Placemark><name>VALL56</name><description>222856 PORT.COM VALL (Girona)
posicio de les: 03/08/2018 23:54:58</description><styleUrl>#w_verdP</styleUrl><Point><coordinates>3.03145408630371,41.8090403079987,0</coordinates></Point></Placemark>
<Placemark><name>22890</name><description>222890 UPC VALL (Girona)
posicio de les: 03/08/2018 23:51:11</description><styleUrl>#w_verd</styleUrl><Point><coordinates>3.03415775299072,41.8095982074738,0</coordinates></Point></Placemark>
<Placemark><name>D6REG</name><description>228046  SERVEIS REGIÓ
posicio de les: 03/08/2018 23:54:04</description><styleUrl>#w_groc</styleUrl><Point><coordinates>2.80647039413452,41.9601345062256,0</coordinates></Point></Placemark>
<Placemark><name>D0REL</name><description>230010 P.CG REGIÓ
posicio de les: 03/08/2018 23:51:58</description><styleUrl>#w_verdP</styleUrl><Point><coordinates>0.605074167251587,41.623420715332,0</coordinates></Point></Placemark>
<Placemark><name>RELL11</name><description>230011 P.Tec REGIÓ
posicio de les: 03/08/2018 23:53:18</description><styleUrl>#w_verdP</styleUrl><Point><coordinates>0.604097843170166,41.6237318515778,0</coordinates></Point></Placemark>
<Placemark><name>E00RELL</name><description>230014 P.Tec REGIÓ
posicio de les: 03/08/2018 23:55:27</description><styleUrl>#w_verdP</styleUrl><Point><coordinates>1.12902760505676,42.4089539051056,0</coordinates></Point></Placemark>
<Placemark><name>30082</name><description>230082  REGIÓ
posicio de les: 03/08/2018 23:50:50</description><styleUrl>#w_groc</styleUrl><Point><coordinates>0.805649757385254,41.799384355545,0</coordinates></Point></Placemark>
<Placemark><name>ALMA01</name><description>230301 PORT ALMA (Lleida)
posicio de les: 03/08/2018 23:54:24</description><styleUrl>#w_grocP</styleUrl><Point><coordinates>0.433863401412964,41.7320394515991,0</coordinates></Point></Placemark>
<Placemark><name>ALMA02</name><description>230302 PORT ALMA (Lleida)
posicio de les: 03/08/2018 23:54:05</description><styleUrl>#w_grocP</styleUrl><Point><coordinates>0.433745384216309,41.7319536209106,0</coordinates></Point></Placemark>
<Placemark><name>BALA57</name><description>230657 PORT.COM BALA (Lleida)
posicio de les: 03/08/2018 23:54:39</description><styleUrl>#w_grocP</styleUrl><Point><coordinates>0.805188417434692,41.7995667457581,0</coordinates></Point></Placemark>
<Placemark><name>BORG01</name><description>230701 PORT BORG (Lleida)
posicio de les: 03/08/2018 23:55:07</description><styleUrl>#w_verdP</styleUrl><Point><coordinates>0.844659805297852,41.5076351165771,0</coordinates></Point></Placemark>
<Placemark><name>BORG02</name><description>230702 PORT BORG (Lleida)
posicio de les: 03/08/2018 23:54:49</description><styleUrl>#w_verdP</styleUrl><Point><coordinates>0.877597332000732,41.5123665332794,0</coordinates></Point></Placemark>
<Placemark><name>230704</name><description>230704 PORT BORG (Lleida)
posicio de les: 03/08/2018 23:54:26</description><styleUrl>#w_grocP</styleUrl><Point><coordinates>0.877704620361328,41.5125381946564,0</coordinates></Point></Placemark>
<Placemark><name>BORG06</name><description>230706 PORT BORG (Lleida)
posicio de les: 03/08/2018 23:55:10</description><styleUrl>#w_grocP</styleUrl><Point><coordinates>0.877693891525269,41.5124952793121,0</coordinates></Point></Placemark>
<Placemark><name>BORG07</name><description>230707 PORT BORG (Lleida)
posicio de les: 03/08/2018 23:54:31</description><styleUrl>#w_grocP</styleUrl><Point><coordinates>0.877554416656494,41.5126883983612,0</coordinates></Point></Placemark>
<Placemark><name>30730</name><description>230730 BRP BORG (Lleida)
posicio de les: 03/08/2018 23:52:55</description><styleUrl>#w_grocC</styleUrl><Point><coordinates>0.87765097618103,41.5125489234924,0</coordinates></Point></Placemark>
<Placemark><name>30748</name><description>230748 BUL BORG (Lleida)
posicio de les: 03/08/2018 23:52:54</description><styleUrl>#w_grocC</styleUrl><Point><coordinates>0.877618789672852,41.5125918388367,0</coordinates></Point></Placemark>
<Placemark><name>BORG56</name><description>230756 PORT.COM BORG (Lleida)
posicio de les: 03/08/2018 23:54:54</description><styleUrl>#w_verdP</styleUrl><Point><coordinates>0.844681262969971,41.5070343017578,0</coordinates></Point></Placemark>
<Placemark><name>CERV08</name><description>230908 PORT CERV (Lleida)
posicio de les: 03/08/2018 23:52:43</description><styleUrl>#w_verdP</styleUrl><Point><coordinates>1.26513361930847,41.6712605953217,0</coordinates></Point></Placemark>
<Placemark><name>ISON56</name><description>231556 PORT.COM ISON (Lleida)
posicio de les: 03/08/2018 23:53:58</description><styleUrl>#w_verdP</styleUrl><Point><coordinates>1.04865789413452,42.1189534664154,0</coordinates></Point></Placemark>
<Placemark><name>MOLL07</name><description>232007 PORT MOLL (Lleida)
posicio de les: 03/08/2018 23:54:36</description><styleUrl>#w_verdP</styleUrl><Point><coordinates>0.898164510726929,41.6365957260132,0</coordinates></Point></Placemark>
<Placemark><name>32031</name><description>232031 BRP MOLL (Lleida)
posicio de les: 03/08/2018 23:54:51</description><styleUrl>#w_grocC</styleUrl><Point><coordinates>0.898185968399048,41.6363918781281,0</coordinates></Point></Placemark>
<Placemark><name>POBL01</name><description>232401 PORT POBL (Lleida)
posicio de les: 03/08/2018 23:54:21</description><styleUrl>#w_verdP</styleUrl><Point><coordinates>0.964361429214478,42.2392559051514,0</coordinates></Point></Placemark>
<Placemark><name>PONT56</name><description>232556 PORT.COM PONT (Lleida)
posicio de les: 03/08/2018 23:50:15</description><styleUrl>#w_grocP</styleUrl><Point><coordinates>0.739463567733765,42.4107241630554,0</coordinates></Point></Placemark>
<Placemark><name>SORT02</name><description>233002 PORT SORT (Lleida)
posicio de les: 03/08/2018 23:54:11</description><styleUrl>#w_verdP</styleUrl><Point><coordinates>1.1291778087616,42.4089753627777,0</coordinates></Point></Placemark>
<Placemark><name>E0REMN</name><description>240012 P.Tec REGIÓ
posicio de les: 03/08/2018 23:55:07</description><styleUrl>#w_grocP</styleUrl><Point><coordinates>2.198885679245,41.5376543998718,0</coordinates></Point></Placemark>
<Placemark><name>40081</name><description>240081  REGIÓ
posicio de les: 03/08/2018 23:51:53</description><styleUrl>#w_groc</styleUrl><Point><coordinates>2.11236834526062,41.5022492408752,0</coordinates></Point></Placemark>
<Placemark><name>40091</name><description>240091  REGIÓ
posicio de les: 03/08/2018 23:51:54</description><styleUrl>#w_groc</styleUrl><Point><coordinates>2.11174607276917,41.5023565292358,0</coordinates></Point></Placemark>
<Placemark><name>40093</name><description>240093  REGIÓ
posicio de les: 03/08/2018 23:52:06</description><styleUrl>#w_verd</styleUrl><Point><coordinates>2.20064520835876,41.5373539924622,0</coordinates></Point></Placemark>
<Placemark><name>40290</name><description>240290 UPC BAD (Metro. Nord)
posicio de les: 03/08/2018 23:52:25</description><styleUrl>#w_groc</styleUrl><Point><coordinates>2.20918536186218,41.4632821083069,0</coordinates></Point></Placemark>
<Placemark><name>CER06</name><description>240506 PORT CER (Metro. Nord)
posicio de les: 03/08/2018 23:55:20</description><styleUrl>#w_verdP</styleUrl><Point><coordinates>2.11177825927734,41.5025067329407,0</coordinates></Point></Placemark>
<Placemark><name>40690</name><description>240690 UPC GRA (Metro. Nord)
posicio de les: 03/08/2018 23:54:14</description><styleUrl>#w_verd</styleUrl><Point><coordinates>2.42261409759521,41.532096862793,0</coordinates></Point></Placemark>
<Placemark><name>MTD03</name><description>240803 PORT MTD (Metro. Nord)
posicio de les: 03/08/2018 23:53:49</description><styleUrl>#w_grocP</styleUrl><Point><coordinates>2.01351284980774,41.6447389125824,0</coordinates></Point></Placemark>
<Placemark><name>MAT03</name><description>240903 PORT MAT (Metro. Nord)
posicio de les: 03/08/2018 23:51:29</description><styleUrl>#w_verdP</styleUrl><Point><coordinates>2.42282867431641,41.5320217609406,0</coordinates></Point></Placemark>
<Placemark><name>MAT07</name><description>240907 PORT MAT (Metro. Nord)
posicio de les: 03/08/2018 23:55:01</description><styleUrl>#w_grocP</styleUrl><Point><coordinates>2.42265701293945,41.5321290493011,0</coordinates></Point></Placemark>
<Placemark><name>40940</name><description>240940 BUP MAT (Metro. Nord)
posicio de les: 03/08/2018 23:52:51</description><styleUrl>#w_verdC</styleUrl><Point><coordinates>2.4228823184967,41.5324079990387,0</coordinates></Point></Placemark>
<Placemark><name>240990</name><description>240990 UPC MAT (Metro. Nord)
posicio de les: 03/08/2018 23:51:46</description><styleUrl>#w_groc</styleUrl><Point><coordinates>2.27500677108765,41.5902900695801,0</coordinates></Point></Placemark>
<Placemark><name>241040</name><description>241040 BUP MOL (Metro. Nord)
posicio de les: 03/08/2018 23:51:15</description><styleUrl>#w_grocC</styleUrl><Point><coordinates>2.202308177948,41.5364742279053,0</coordinates></Point></Placemark>
<Placemark><name>241048</name><description>241048 BUL MOL (Metro. Nord)
posicio de les: 03/08/2018 23:54:01</description><styleUrl>#w_verdC</styleUrl><Point><coordinates>2.20199704170227,41.5367424488068,0</coordinates></Point></Placemark>
<Placemark><name>MOL56</name><description>241056 PORT.COM MOL (Metro. Nord)
posicio de les: 03/08/2018 23:51:18</description><styleUrl>#w_verdP</styleUrl><Point><coordinates>2.20199704170227,41.5367960929871,0</coordinates></Point></Placemark>
<Placemark><name>RUB01</name><description>241301 PORT RUB (Metro. Nord)
posicio de les: 03/08/2018 23:54:15</description><styleUrl>#w_verdP</styleUrl><Point><coordinates>2.03534603118896,41.4733564853668,0</coordinates></Point></Placemark>
<Placemark><name>241440</name><description>241440 BUP SAB (Metro. Nord)
posicio de les: 03/08/2018 23:50:52</description><styleUrl>#w_grocC</styleUrl><Point><coordinates>2.10396766662598,41.5423214435577,0</coordinates></Point></Placemark>
<Placemark><name>SCE07</name><description>241607 PORT SCE (Metro. Nord)
posicio de les: 03/08/2018 23:54:39</description><styleUrl>#w_verdP</styleUrl><Point><coordinates>2.50703930854797,41.6953575611115,0</coordinates></Point></Placemark>
<Placemark><name>41640</name><description>241640 BUP SCE (Metro. Nord)
posicio de les: 03/08/2018 23:52:21</description><styleUrl>#w_verdC</styleUrl><Point><coordinates>2.50700712203979,41.6956043243408,0</coordinates></Point></Placemark>
<Placemark><name>241858</name><description>241858 BSAL SCG (Metro. Nord)
posicio de les: 03/08/2018 23:53:00</description><styleUrl>#w_verdB</styleUrl><Point><coordinates>2.20938920974731,41.4633679389954,0</coordinates></Point></Placemark>
<Placemark><name>242040</name><description>242040 BUP TER (Metro. Nord)
posicio de les: 03/08/2018 23:51:37</description><styleUrl>#w_grocC</styleUrl><Point><coordinates>2.02599048614502,41.5681564807892,0</coordinates></Point></Placemark>
<Placemark><name>D3REMN</name><description>248043  SERVEIS REGIÓ
posicio de les: 03/08/2018 23:52:00</description><styleUrl>#w_groc</styleUrl><Point><coordinates>2.11217522621155,41.5025496482849,0</coordinates></Point></Placemark>
<Placemark><name>REMS14</name><description>250014 P.Tec REGIÓ
posicio de les: 03/08/2018 23:53:30</description><styleUrl>#w_grocP</styleUrl><Point><coordinates>2.03417658805847,41.3232171535492,0</coordinates></Point></Placemark>
<Placemark><name>50092</name><description>250092  REGIÓ
posicio de les: 03/08/2018 23:52:24</description><styleUrl>#w_verd</styleUrl><Point><coordinates>1.71384572982788,41.2196087837219,0</coordinates></Point></Placemark>
<Placemark><name>50093</name><description>250093  REGIÓ
posicio de les: 03/08/2018 23:52:57</description><styleUrl>#w_groc</styleUrl><Point><coordinates>2.0343804359436,41.3228523731232,0</coordinates></Point></Placemark>
<Placemark><name>COR03</name><description>250403 PORT COR (Metro. Sud)
posicio de les: 03/08/2018 23:55:08</description><styleUrl>#w_verdP</styleUrl><Point><coordinates>2.0703649520874,41.3607144355774,0</coordinates></Point></Placemark>
<Placemark><name>COR07</name><description>250407 PORT COR (Metro. Sud)
posicio de les: 03/08/2018 23:54:00</description><styleUrl>#w_verdP</styleUrl><Point><coordinates>2.07082629203796,41.3604998588562,0</coordinates></Point></Placemark>
<Placemark><name>COR56</name><description>250456 PORT.COM COR (Metro. Sud)
posicio de les: 03/08/2018 23:53:12</description><styleUrl>#w_verdP</styleUrl><Point><coordinates>2.07051515579224,41.3607251644135,0</coordinates></Point></Placemark>
<Placemark><name>GAV09</name><description>250509 PORT GAV (Metro. Sud)
posicio de les: 03/08/2018 23:49:59</description><styleUrl>#w_verdP</styleUrl><Point><coordinates>1.98970556259155,41.3005042076111,0</coordinates></Point></Placemark>
<Placemark><name>GAV57</name><description>250557 PORT.COM GAV (Metro. Sud)
posicio de les: 03/08/2018 23:53:10</description><styleUrl>#w_verdP</styleUrl><Point><coordinates>1.99024200439453,41.3002574443817,0</coordinates></Point></Placemark>
<Placemark><name>250740</name><description>250740 BUP HOS (Metro. Sud)
posicio de les: 03/08/2018 23:54:45</description><styleUrl>#w_verdC</styleUrl><Point><coordinates>2.12042570114136,41.3401472568512,0</coordinates></Point></Placemark>
<Placemark><name>IGU02</name><description>250802 PORT IGU (Metro. Sud)
posicio de les: 03/08/2018 23:51:50</description><styleUrl>#w_verdP</styleUrl><Point><coordinates>1.61004424095154,41.5890669822693,0</coordinates></Point></Placemark>
<Placemark><name>IGU06</name><description>250806 PORT IGU (Metro. Sud)
posicio de les: 03/08/2018 23:50:27</description><styleUrl>#w_verdP</styleUrl><Point><coordinates>1.61007642745972,41.5893244743347,0</coordinates></Point></Placemark>
<Placemark><name>IGU20E</name><description>250820 PORT IGU (Metro. Sud)
posicio de les: 03/08/2018 23:53:50</description><styleUrl>#w_grocP</styleUrl><Point><coordinates>1.61013007164001,41.5894210338593,0</coordinates></Point></Placemark>
<Placemark><name>50848</name><description>250848 BUL IGU (Metro. Sud)
posicio de les: 03/08/2018 23:49:54</description><styleUrl>#w_verdC</styleUrl><Point><coordinates>1.60932540893555,41.5892601013184,0</coordinates></Point></Placemark>
<Placemark><name>MAR01</name><description>251001 PORT MAR (Metro. Sud)
posicio de les: 03/08/2018 23:53:33</description><styleUrl>#w_verdP</styleUrl><Point><coordinates>1.90824151039124,41.4986872673035,0</coordinates></Point></Placemark>
<Placemark><name>MAR10</name><description>251010 PORT MAR (Metro. Sud)
posicio de les: 03/08/2018 23:53:22</description><styleUrl>#w_verdP</styleUrl><Point><coordinates>1.90772652626038,41.4986121654511,0</coordinates></Point></Placemark>
<Placemark><name>MAR11</name><description>251011 PORT MAR (Metro. Sud)
posicio de les: 03/08/2018 23:54:40</description><styleUrl>#w_verdP</styleUrl><Point><coordinates>1.90804839134216,41.4989447593689,0</coordinates></Point></Placemark>
<Placemark><name>51030</name><description>251030 BRP MAR (Metro. Sud)
posicio de les: 03/08/2018 23:53:35</description><styleUrl>#w_grocC</styleUrl><Point><coordinates>1.90795183181763,41.4987409114838,0</coordinates></Point></Placemark>
<Placemark><name>251040</name><description>251040 BUP MAR (Metro. Sud)
posicio de les: 03/08/2018 23:54:18</description><styleUrl>#w_grocC</styleUrl><Point><coordinates>1.88463807106018,41.5502071380615,0</coordinates></Point></Placemark>
<Placemark><name>MAR56</name><description>251056 PORT.COM MAR (Metro. Sud)
posicio de les: 03/08/2018 23:54:47</description><styleUrl>#w_grocP</styleUrl><Point><coordinates>1.88440203666687,41.5502715110779,0</coordinates></Point></Placemark>
<Placemark><name>PLL03</name><description>251203 PORT PLL (Metro. Sud)
posicio de les: 03/08/2018 23:54:44</description><styleUrl>#w_verdP</styleUrl><Point><coordinates>2.08132982254028,41.3169515132904,0</coordinates></Point></Placemark>
<Placemark><name>PLL57</name><description>251257 PORT.COM PLL (Metro. Sud)
posicio de les: 03/08/2018 23:54:00</description><styleUrl>#w_verdP</styleUrl><Point><coordinates>2.08154439926147,41.3170695304871,0</coordinates></Point></Placemark>
<Placemark><name>SBOI02</name><description>251302 PORT SBOI (Metro. Sud)
posicio de les: 03/08/2018 23:55:29</description><styleUrl>#w_grocP</styleUrl><Point><coordinates>2.03449845314026,41.3233137130737,0</coordinates></Point></Placemark>
<Placemark><name>SFE03</name><description>251503 PORT SFE (Metro. Sud)
posicio de les: 03/08/2018 23:53:53</description><styleUrl>#w_verdP</styleUrl><Point><coordinates>2.04249143600464,41.388566493988,0</coordinates></Point></Placemark>
<Placemark><name>VIF03</name><description>251803 PORT VIF (Metro. Sud)
posicio de les: 03/08/2018 23:53:52</description><styleUrl>#w_verdP</styleUrl><Point><coordinates>1.70417904853821,41.354695558548,0</coordinates></Point></Placemark>
<Placemark><name>51860</name><description>251860 AEA/AES/ABA VIF (Metro. Sud)
posicio de les: 03/08/2018 23:51:35</description><styleUrl>#w_grocC</styleUrl><Point><coordinates>1.70446872711182,41.3545024394989,0</coordinates></Point></Placemark>
<Placemark><name>SCREMS3</name><description>258003 P.COMODIN SERVEIS REGIÓ
posicio de les: 03/08/2018 23:53:09</description><styleUrl>#w_verdP</styleUrl><Point><coordinates>2.03350067138672,41.3229167461395,0</coordinates></Point></Placemark>
<Placemark><name>260508</name><description>260508 PORT HOSP (Tarragona)
posicio de les: 03/08/2018 23:55:14</description><styleUrl>#w_grocP</styleUrl><Point><coordinates>0.91985821723938,40.9936165809631,0</coordinates></Point></Placemark>
<Placemark><name>260530</name><description>260530 BRP HOSP (Tarragona)
posicio de les: 03/08/2018 23:52:41</description><styleUrl>#w_grocC</styleUrl><Point><coordinates>0.830647945404053,40.927677154541,0</coordinates></Point></Placemark>
<Placemark><name>HOSP56</name><description>260556 PORT.COM HOSP (Tarragona)
posicio de les: 03/08/2018 23:53:44</description><styleUrl>#w_verdP</styleUrl><Point><coordinates>0.830326080322266,40.927494764328,0</coordinates></Point></Placemark>
<Placemark><name>60890</name><description>260890 UPC REUS (Tarragona)
posicio de les: 03/08/2018 23:50:53</description><styleUrl>#w_groc</styleUrl><Point><coordinates>1.11825585365295,41.1512124538422,0</coordinates></Point></Placemark>
<Placemark><name>TARR01</name><description>261201 PORT TARR (Tarragona)
posicio de les: 03/08/2018 23:52:38</description><styleUrl>#w_verdP</styleUrl><Point><coordinates>1.18473172187805,41.1346364021301,0</coordinates></Point></Placemark>
<Placemark><name>TARR04</name><description>261204 PORT TARR (Tarragona)
posicio de les: 03/08/2018 23:55:13</description><styleUrl>#w_verdP</styleUrl><Point><coordinates>1.22215390205383,41.1137044429779,0</coordinates></Point></Placemark>
<Placemark><name>61460</name><description>261460 AEA/AES/ABA VEND (Tarragona)
posicio de les: 03/08/2018 23:55:20</description><styleUrl>#w_verdC</styleUrl><Point><coordinates>0.512999296188354,40.8157968521118,0</coordinates></Point></Placemark>
<Placemark><name>SCRET</name><description>268001 P.COMODIN SERVEIS REGIÓ
posicio de les: 03/08/2018 23:51:17</description><styleUrl>#w_verdP</styleUrl><Point><coordinates>1.18515014648438,41.1346364021301,0</coordinates></Point></Placemark>
<Placemark><name>E00RETE</name><description>270014 P.Tec REGIÓ
posicio de les: 03/08/2018 23:54:55</description><styleUrl>#w_verdP</styleUrl><Point><coordinates>0.512709617614746,40.8153140544891,0</coordinates></Point></Placemark>
<Placemark><name>70092</name><description>270092  REGIÓ
posicio de les: 03/08/2018 23:55:12</description><styleUrl>#w_groc</styleUrl><Point><coordinates>0.513042211532593,40.8158612251282,0</coordinates></Point></Placemark>
<Placemark><name>AMET02</name><description>272002 PORT AMET (Terres de l'Ebre)
posicio de les: 03/08/2018 23:54:56</description><styleUrl>#w_verdP</styleUrl><Point><coordinates>0.83045482635498,40.9275269508362,0</coordinates></Point></Placemark>
<Placemark><name>AMET06</name><description>272006 PORT AMET (Terres de l'Ebre)
posicio de les: 03/08/2018 23:55:04</description><styleUrl>#w_verdP</styleUrl><Point><coordinates>0.830368995666504,40.927494764328,0</coordinates></Point></Placemark>
<Placemark><name>72031</name><description>272031 BRP AMET (Terres de l'Ebre)
posicio de les: 03/08/2018 23:50:59</description><styleUrl>#w_grocC</styleUrl><Point><coordinates>0.830154418945313,40.9272801876068,0</coordinates></Point></Placemark>
<Placemark><name>272130</name><description>272130 BRP AMPO (Terres de l'Ebre)
posicio de les: 03/08/2018 23:55:27</description><styleUrl>#w_grocC</styleUrl><Point><coordinates>0.57853102684021,40.702908039093,0</coordinates></Point></Placemark>
<Placemark><name>AMPO57</name><description>272157 PORT.COM AMPO (Terres de l'Ebre)
posicio de les: 03/08/2018 23:54:11</description><styleUrl>#w_verdP</styleUrl><Point><coordinates>0.579603910446167,40.6890034675598,0</coordinates></Point></Placemark>
<Placemark><name>ASCO56</name><description>272256 PORT.COM ASCO (Terres de l'Ebre)
posicio de les: 03/08/2018 23:54:35</description><styleUrl>#w_verdP</styleUrl><Point><coordinates>0.568746328353882,41.187926530838,0</coordinates></Point></Placemark>
<Placemark><name>MORA06</name><description>272806 PORT MORA (Terres de l'Ebre)
posicio de les: 03/08/2018 23:53:57</description><styleUrl>#w_verdP</styleUrl><Point><coordinates>0.629686117172241,41.0865068435669,0</coordinates></Point></Placemark>
<Placemark><name>ULLD08</name><description>273108 PORT ULLD (Terres de l'Ebre)
posicio de les: 03/08/2018 23:54:18</description><styleUrl>#w_grocP</styleUrl><Point><coordinates>0.358031988143921,40.6087410449982,0</coordinates></Point></Placemark>
</Folder>
<Folder>
<name>Descarregues</name>
</Folder>
<Style id="w_verdP_n"><IconStyle><color>ff00ff00</color><scale>1.0</scale><Icon><href>http://maps.google.com/mapfiles/kml/shapes/man.png</href></Icon><hotSpot x="0.5" y="0" xunits="fraction" yunits="fraction"/></IconStyle><LabelStyle><scale>0.7</scale></LabelStyle></Style>
<Style id="w_verdP_s"><IconStyle><color>ff00ff00</color><scale>1.4</scale><Icon><href>http://maps.google.com/mapfiles/kml/shapes/man.png</href></Icon><hotSpot x="0.5" y="0" xunits="fraction" yunits="fraction"/></IconStyle><LabelStyle><scale>0.7</scale></LabelStyle></Style>
<StyleMap id="w_verdP"><Pair><key>normal</key><styleUrl>#w_verdP_n</styleUrl></Pair><Pair><key>highlight</key><styleUrl>#w_verdP_s</styleUrl></Pair></StyleMap>
<Style id="w_verd_n"><IconStyle><color>ff00ff00</color><scale>0.7</scale><Icon><href>http://maps.google.com/mapfiles/kml/shapes/cabs.png</href></Icon><hotSpot x="0.5" y="0" xunits="fraction" yunits="fraction"/></IconStyle><LabelStyle><scale>0.7</scale></LabelStyle></Style>
<Style id="w_verd_s"><IconStyle><color>ff00ff00</color><scale>1.0</scale><Icon><href>http://maps.google.com/mapfiles/kml/shapes/cabs.png</href></Icon><hotSpot x="0.5" y="0" xunits="fraction" yunits="fraction"/></IconStyle><LabelStyle><scale>0.7</scale></LabelStyle></Style>
<StyleMap id="w_verd"><Pair><key>normal</key><styleUrl>#w_verd_n</styleUrl></Pair><Pair><key>highlight</key><styleUrl>#w_verd_s</styleUrl></Pair></StyleMap>
<Style id="w_verdC_n"><IconStyle><color>ff00ff00</color><scale>1.0</scale><Icon><href>http://maps.google.com/mapfiles/kml/shapes/truck.png</href></Icon><hotSpot x="0.5" y="0" xunits="fraction" yunits="fraction"/></IconStyle><LabelStyle><scale>0.7</scale></LabelStyle></Style>
<Style id="w_verdC_s"><IconStyle><color>ff00ff00</color><scale>1.4</scale><Icon><href>http://maps.google.com/mapfiles/kml/shapes/truck.png</href></Icon><hotSpot x="0.5" y="0" xunits="fraction" yunits="fraction"/></IconStyle><LabelStyle><scale>0.7</scale></LabelStyle></Style>
<StyleMap id="w_verdC"><Pair><key>normal</key><styleUrl>#w_verdC_n</styleUrl></Pair><Pair><key>highlight</key><styleUrl>#w_verdC_s</styleUrl></Pair></StyleMap>
<Style id="w_verdH_n"><IconStyle><color>ff0000ff</color><scale>1.2</scale><Icon><href>http://maps.google.com/mapfiles/kml/shapes/heliport.png</href></Icon><hotSpot x="0.5" y="0" xunits="fraction" yunits="fraction"/></IconStyle><LabelStyle><scale>0.7</scale></LabelStyle></Style>
<Style id="w_verdH_s"><IconStyle><color>ff0000ff</color><scale>1.4</scale><Icon><href>http://maps.google.com/mapfiles/kml/shapes/heliport.png</href></Icon><hotSpot x="0.5" y="0" xunits="fraction" yunits="fraction"/></IconStyle><LabelStyle><scale>0.7</scale></LabelStyle></Style>
<StyleMap id="w_verdH"><Pair><key>normal</key><styleUrl>#w_verdH_n</styleUrl></Pair><Pair><key>highlight</key><styleUrl>#w_verdH_s</styleUrl></Pair></StyleMap>
<Style id="w_verdA_n"><IconStyle><color>ff0000ff</color><scale>1.2</scale><Icon><href>http://maps.google.com/mapfiles/kml/shapes/airports.png</href></Icon><hotSpot x="0.5" y="0" xunits="fraction" yunits="fraction"/></IconStyle><LabelStyle><scale>0.7</scale></LabelStyle></Style>
<Style id="w_verdA_s"><IconStyle><color>ff0000ff</color><scale>1.4</scale><Icon><href>http://maps.google.com/mapfiles/kml/shapes/airports.png</href></Icon><hotSpot x="0.5" y="0" xunits="fraction" yunits="fraction"/></IconStyle><LabelStyle><scale>0.7</scale></LabelStyle></Style>
<StyleMap id="w_verdA"><Pair><key>normal</key><styleUrl>#w_verdA_n</styleUrl></Pair><Pair><key>highlight</key><styleUrl>#w_verdA_s</styleUrl></Pair></StyleMap>
<Style id="w_verdB_n"><IconStyle><color>ff00ff00</color><scale>1.0</scale><Icon><href>http://maps.google.com/mapfiles/kml/shapes/sailing.png</href></Icon><hotSpot x="0.5" y="0" xunits="fraction" yunits="fraction"/></IconStyle><LabelStyle><scale>0.7</scale></LabelStyle></Style>
<Style id="w_verdB_s"><IconStyle><color>ff00ff00</color><scale>1.4</scale><Icon><href>http://maps.google.com/mapfiles/kml/shapes/sailing.png</href></Icon><hotSpot x="0.5" y="0" xunits="fraction" yunits="fraction"/></IconStyle><LabelStyle><scale>0.7</scale></LabelStyle></Style>
<StyleMap id="w_verdB"><Pair><key>normal</key><styleUrl>#w_verdBAR_n</styleUrl></Pair><Pair><key>highlight</key><styleUrl>#w_verdBAR_s</styleUrl></Pair></StyleMap>
<Style id="w_grocP_n"><IconStyle><color>ff00ffff</color><scale>1.0</scale><Icon><href>http://maps.google.com/mapfiles/kml/shapes/man.png</href></Icon><hotSpot x="0.5" y="0" xunits="fraction" yunits="fraction"/></IconStyle><LabelStyle><scale>0.7</scale></LabelStyle></Style>
<Style id="w_grocP_s"><IconStyle><color>ff00ffff</color><scale>1.4</scale><Icon><href>http://maps.google.com/mapfiles/kml/shapes/man.png</href></Icon><hotSpot x="0.5" y="0" xunits="fraction" yunits="fraction"/></IconStyle><LabelStyle><scale>0.7</scale></LabelStyle></Style>
<StyleMap id="w_grocP"><Pair><key>normal</key><styleUrl>#w_grocP_n</styleUrl></Pair><Pair><key>highlight</key><styleUrl>#w_grocP_s</styleUrl></Pair></StyleMap>
<Style id="w_groc_n"><IconStyle><color>ff00ffff</color><scale>0.7</scale><Icon><href>http://maps.google.com/mapfiles/kml/shapes/cabs.png</href></Icon><hotSpot x="0.5" y="0" xunits="fraction" yunits="fraction"/></IconStyle><LabelStyle><scale>0.7</scale></LabelStyle></Style>
<Style id="w_groc_s"><IconStyle><color>ff00ffff</color><scale>1.0</scale><Icon><href>http://maps.google.com/mapfiles/kml/shapes/cabs.png</href></Icon><hotSpot x="0.5" y="0" xunits="fraction" yunits="fraction"/></IconStyle><LabelStyle><scale>0.7</scale></LabelStyle></Style>
<StyleMap id="w_groc"><Pair><key>normal</key><styleUrl>#w_groc_n</styleUrl></Pair><Pair><key>highlight</key><styleUrl>#w_groc_s</styleUrl></Pair></StyleMap>
<Style id="w_grocC_n"><IconStyle><color>ff00ffff</color><scale>1.0</scale><Icon><href>http://maps.google.com/mapfiles/kml/shapes/truck.png</href></Icon><hotSpot x="0.5" y="0" xunits="fraction" yunits="fraction"/></IconStyle><LabelStyle><scale>0.7</scale></LabelStyle></Style>
<Style id="w_grocC_s"><IconStyle><color>ff00ffff</color><scale>1.4</scale><Icon><href>http://maps.google.com/mapfiles/kml/shapes/truck.png</href></Icon><hotSpot x="0.5" y="0" xunits="fraction" yunits="fraction"/></IconStyle><LabelStyle><scale>0.7</scale></LabelStyle></Style>
<StyleMap id="w_grocC"><Pair><key>normal</key><styleUrl>#w_grocC_n</styleUrl></Pair><Pair><key>highlight</key><styleUrl>#w_grocC_s</styleUrl></Pair></StyleMap>
<Style id="w_grocH_n"><IconStyle><color>ff0000ff</color><scale>1.2</scale><Icon><href>http://maps.google.com/mapfiles/kml/shapes/heliport.png</href></Icon><hotSpot x="0.5" y="0" xunits="fraction" yunits="fraction"/></IconStyle><LabelStyle><scale>0.7</scale></LabelStyle></Style>
<Style id="w_grocH_s"><IconStyle><color>ff0000ff</color><scale>1.4</scale><Icon><href>http://maps.google.com/mapfiles/kml/shapes/heliport.png</href></Icon><hotSpot x="0.5" y="0" xunits="fraction" yunits="fraction"/></IconStyle><LabelStyle><scale>0.7</scale></LabelStyle></Style>
<StyleMap id="w_grocH"><Pair><key>normal</key><styleUrl>#w_grocH_n</styleUrl></Pair><Pair><key>highlight</key><styleUrl>#w_grocH_s</styleUrl></Pair></StyleMap>
<Style id="w_grocA_n"><IconStyle><color>ff0000ff</color><scale>1.2</scale><Icon><href>http://maps.google.com/mapfiles/kml/shapes/airports.png</href></Icon><hotSpot x="0.5" y="0" xunits="fraction" yunits="fraction"/></IconStyle><LabelStyle><scale>0.7</scale></LabelStyle></Style>
<Style id="w_grocA_s"><IconStyle><color>ff0000ff</color><scale>1.4</scale><Icon><href>http://maps.google.com/mapfiles/kml/shapes/airports.png</href></Icon><hotSpot x="0.5" y="0" xunits="fraction" yunits="fraction"/></IconStyle><LabelStyle><scale>0.7</scale></LabelStyle></Style>
<StyleMap id="w_grocA"><Pair><key>normal</key><styleUrl>#w_grocA_n</styleUrl></Pair><Pair><key>highlight</key><styleUrl>#w_grocA_s</styleUrl></Pair></StyleMap>
<Style id="w_grocB_n"><IconStyle><color>ff00ffff</color><scale>1.0</scale><Icon><href>http://maps.google.com/mapfiles/kml/shapes/sailing.png</href></Icon><hotSpot x="0.5" y="0" xunits="fraction" yunits="fraction"/></IconStyle><LabelStyle><scale>0.7</scale></LabelStyle></Style>
<Style id="w_grocB_s"><IconStyle><color>ff00ffff</color><scale>1.4</scale><Icon><href>http://maps.google.com/mapfiles/kml/shapes/sailing.png</href></Icon><hotSpot x="0.5" y="0" xunits="fraction" yunits="fraction"/></IconStyle><LabelStyle><scale>0.7</scale></LabelStyle></Style>
<StyleMap id="w_grocB"><Pair><key>normal</key><styleUrl>#w_grocBAR_n</styleUrl></Pair><Pair><key>highlight</key><styleUrl>#w_grocBAR_s</styleUrl></Pair></StyleMap>
<Style id="w_vermellP_n"><IconStyle><color>ff0000ff</color><scale>1.0</scale><Icon><href>http://maps.google.com/mapfiles/kml/shapes/man.png</href></Icon><hotSpot x="0.5" y="0" xunits="fraction" yunits="fraction"/></IconStyle><LabelStyle><scale>0.7</scale></LabelStyle></Style>
<Style id="w_vermellP_s"><IconStyle><color>ff0000ff</color><scale>1.4</scale><Icon><href>http://maps.google.com/mapfiles/kml/shapes/man.png</href></Icon><hotSpot x="0.5" y="0" xunits="fraction" yunits="fraction"/></IconStyle><LabelStyle><scale>0.7</scale></LabelStyle></Style>
<StyleMap id="w_vermellP"><Pair><key>normal</key><styleUrl>#w_vermellP_n</styleUrl></Pair><Pair><key>highlight</key><styleUrl>#w_vermellP_s</styleUrl></Pair></StyleMap>
<Style id="w_vermell_n"><IconStyle><color>ff0000ff</color><scale>0.7</scale><Icon><href>http://maps.google.com/mapfiles/kml/shapes/cabs.png</href></Icon><hotSpot x="0.5" y="0" xunits="fraction" yunits="fraction"/></IconStyle><LabelStyle><scale>0.7</scale></LabelStyle></Style>
<Style id="w_vermell_s"><IconStyle><color>ff0000ff</color><scale>1.0</scale><Icon><href>http://maps.google.com/mapfiles/kml/shapes/cabs.png</href></Icon><hotSpot x="0.5" y="0" xunits="fraction" yunits="fraction"/></IconStyle><LabelStyle><scale>0.7</scale></LabelStyle></Style>
<StyleMap id="w_vermell"><Pair><key>normal</key><styleUrl>#w_vermell_n</styleUrl></Pair><Pair><key>highlight</key><styleUrl>#w_vermell_s</styleUrl></Pair></StyleMap>
<Style id="w_vermellC_n"><IconStyle><color>ff0000ff</color><scale>1.0</scale><Icon><href>http://maps.google.com/mapfiles/kml/shapes/truck.png</href></Icon><hotSpot x="0.5" y="0" xunits="fraction" yunits="fraction"/></IconStyle><LabelStyle><scale>0.7</scale></LabelStyle></Style>
<Style id="w_vermellC_s"><IconStyle><color>ff0000ff</color><scale>1.4</scale><Icon><href>http://maps.google.com/mapfiles/kml/shapes/truck.png</href></Icon><hotSpot x="0.5" y="0" xunits="fraction" yunits="fraction"/></IconStyle><LabelStyle><scale>0.7</scale></LabelStyle></Style>
<StyleMap id="w_vermellC"><Pair><key>normal</key><styleUrl>#w_vermellC_n</styleUrl></Pair><Pair><key>highlight</key><styleUrl>#w_vermellC_s</styleUrl></Pair></StyleMap>
<Style id="w_vermellH_n"><IconStyle><color>ff0000ff</color><scale>1.2</scale><Icon><href>http://maps.google.com/mapfiles/kml/shapes/heliport.png</href></Icon><hotSpot x="0.5" y="0" xunits="fraction" yunits="fraction"/></IconStyle><LabelStyle><scale>0.7</scale></LabelStyle></Style>
<Style id="w_vermellH_s"><IconStyle><color>ff0000ff</color><scale>1.4</scale><Icon><href>http://maps.google.com/mapfiles/kml/shapes/heliport.png</href></Icon><hotSpot x="0.5" y="0" xunits="fraction" yunits="fraction"/></IconStyle><LabelStyle><scale>0.7</scale></LabelStyle></Style>
<StyleMap id="w_vermellH"><Pair><key>normal</key><styleUrl>#w_vermellH_n</styleUrl></Pair><Pair><key>highlight</key><styleUrl>#w_vermellH_s</styleUrl></Pair></StyleMap>
<Style id="w_vermellA_n"><IconStyle><color>ff0000ff</color><scale>1.2</scale><Icon><href>http://maps.google.com/mapfiles/kml/shapes/airports.png</href></Icon><hotSpot x="0.5" y="0" xunits="fraction" yunits="fraction"/></IconStyle><LabelStyle><scale>0.7</scale></LabelStyle></Style>
<Style id="w_vermellA_s"><IconStyle><color>ff0000ff</color><scale>1.4</scale><Icon><href>http://maps.google.com/mapfiles/kml/shapes/airports.png</href></Icon><hotSpot x="0.5" y="0" xunits="fraction" yunits="fraction"/></IconStyle><LabelStyle><scale>0.7</scale></LabelStyle></Style>
<StyleMap id="w_vermellA"><Pair><key>normal</key><styleUrl>#w_vermellA_n</styleUrl></Pair><Pair><key>highlight</key><styleUrl>#w_vermellA_s</styleUrl></Pair></StyleMap>
<Style id="w_vermellB_n"><IconStyle><color>ff0000ff</color><scale>1.0</scale><Icon><href>http://maps.google.com/mapfiles/kml/shapes/sailing.png</href></Icon><hotSpot x="0.5" y="0" xunits="fraction" yunits="fraction"/></IconStyle><LabelStyle><scale>0.7</scale></LabelStyle></Style>
<Style id="w_vermellB_s"><IconStyle><color>ff0000ff</color><scale>1.4</scale><Icon><href>http://maps.google.com/mapfiles/kml/shapes/sailing.png</href></Icon><hotSpot x="0.5" y="0" xunits="fraction" yunits="fraction"/></IconStyle><LabelStyle><scale>0.7</scale></LabelStyle></Style>
<StyleMap id="w_vermellB"><Pair><key>normal</key><styleUrl>#w_vermellBAR_n</styleUrl></Pair><Pair><key>highlight</key><styleUrl>#w_vermellBAR_s</styleUrl></Pair></StyleMap>
<Style id="w_descarrega"><IconStyle><color>ff00ffff</color><scale>0.5</scale><Icon><href>http://maps.google.com/mapfiles/kml/shapes/road_shield3.png</href></Icon></IconStyle><LabelStyle><scale>0.7</scale></LabelStyle></Style><Style id="actuacio"><IconStyle><color>ff00ffff</color><scale>0.8</scale><Icon><href>http://maps.google.com/mapfiles/kml/shapes/caution.png</href></Icon></IconStyle><LabelStyle><scale>0.7</scale></LabelStyle></Style></Document></kml>