<?xml version="1.0" encoding="UTF-8"?>
<kml xmlns="http://www.opengis.net/kml/2.2" xmlns:gx="http://www.google.com/kml/ext/2.2" xmlns:kml="http://www.opengis.net/kml/2.2" xmlns:atom="http://www.w3.org/2005/Atom">
<Document>
<name>Terminals</name>
<Snippet maxLines="2">Created 06/08/2018 00:12:21</Snippet>
<Folder>
<name>Terminals</name>
<Placemark><name>02063</name><description>202063 GEM
posicio de les: 06/08/2018 00:09:07</description><styleUrl>#w_groc</styleUrl><Point><coordinates>2.11159586906433,41.502571105957,0</coordinates></Point></Placemark>
<Placemark><name>GRAEUT3</name><description>203003 GRAE
posicio de les: 06/08/2018 00:10:15</description><styleUrl>#w_grocP</styleUrl><Point><coordinates>1.85111045837402,41.7415881156921,0</coordinates></Point></Placemark>
<Placemark><name>GGRAF08</name><description>204208 P.UT
posicio de les: 06/08/2018 00:12:10</description><styleUrl>#w_grocP</styleUrl><Point><coordinates>2.97470927238464,42.0296037197113,0</coordinates></Point></Placemark>
<Placemark><name>GGRAF10</name><description>204210 P.UT
posicio de les: 06/08/2018 00:12:11</description><styleUrl>#w_verdP</styleUrl><Point><coordinates>2.97452688217163,42.0294642448425,0</coordinates></Point></Placemark>
<Placemark><name>LGRAF02</name><description>204302 P.UT
posicio de les: 06/08/2018 00:10:36</description><styleUrl>#w_grocP</styleUrl><Point><coordinates>0.889281034469604,42.1649694442749,0</coordinates></Point></Placemark>
<Placemark><name>BGRAF08</name><description>204408 P.UT
posicio de les: 06/08/2018 00:12:01</description><styleUrl>#w_verdP</styleUrl><Point><coordinates>1.8526017665863,41.7414271831512,0</coordinates></Point></Placemark>
<Placemark><name>VIEL17</name><description>208017 BASE CCA VARAN
posicio de les: 06/08/2018 00:11:21</description><styleUrl>#w_verd</styleUrl><Point><coordinates>0.796680450439453,42.707998752594,0</coordinates></Point></Placemark>
<Placemark><name>BER57</name><description>210357 PORT.COM BER (Centre)
posicio de les: 06/08/2018 00:11:33</description><styleUrl>#w_verdP</styleUrl><Point><coordinates>1.85767650604248,42.1041369438171,0</coordinates></Point></Placemark>
<Placemark><name>CAF04</name><description>210404 PORT CAF (Centre)
posicio de les: 06/08/2018 00:11:29</description><styleUrl>#w_verdP</styleUrl><Point><coordinates>0.708339214324951,41.6245257854462,0</coordinates></Point></Placemark>
<Placemark><name>10430</name><description>210430 BRP CAF (Centre)
posicio de les: 06/08/2018 00:12:14</description><styleUrl>#w_verdC</styleUrl><Point><coordinates>0.718821287155151,41.6255021095276,0</coordinates></Point></Placemark>
<Placemark><name>CAB56</name><description>210656 PORT.COM CAB (Centre)
posicio de les: 06/08/2018 00:10:12</description><styleUrl>#w_verdP</styleUrl><Point><coordinates>1.68521046638489,41.6657888889313,0</coordinates></Point></Placemark>
<Placemark><name>MAN01</name><description>211001 PORT MAN (Centre)
posicio de les: 06/08/2018 00:12:19</description><styleUrl>#w_grocP</styleUrl><Point><coordinates>1.82194948196411,41.7211174964905,0</coordinates></Point></Placemark>
<Placemark><name>11040</name><description>211040 BUP MAN (Centre)
posicio de les: 06/08/2018 00:08:22</description><styleUrl>#w_grocC</styleUrl><Point><coordinates>1.82201385498047,41.721214056015,0</coordinates></Point></Placemark>
<Placemark><name>11060</name><description>211060 AEA/AES/ABA MAN (Centre)
posicio de les: 06/08/2018 00:08:29</description><styleUrl>#w_grocC</styleUrl><Point><coordinates>1.82188510894775,41.7211496829987,0</coordinates></Point></Placemark>
<Placemark><name>PRA07</name><description>211407 PORT PRA (Centre)
posicio de les: 06/08/2018 00:12:15</description><styleUrl>#w_verdP</styleUrl><Point><coordinates>2.03582882881165,42.0075023174286,0</coordinates></Point></Placemark>
<Placemark><name>TOR02</name><description>212002 PORT TOR (Centre)
posicio de les: 06/08/2018 00:11:24</description><styleUrl>#w_grocP</styleUrl><Point><coordinates>2.26731419563293,42.0483148097992,0</coordinates></Point></Placemark>
<Placemark><name>12130</name><description>212130 BRP VIC (Centre)
posicio de les: 06/08/2018 00:12:20</description><styleUrl>#w_verdC</styleUrl><Point><coordinates>2.17705249786377,41.9692969322205,0</coordinates></Point></Placemark>
<Placemark><name>20091</name><description>220091  REGIÓ
posicio de les: 06/08/2018 00:12:11</description><styleUrl>#w_groc</styleUrl><Point><coordinates>2.76790022850037,41.9415307044983,0</coordinates></Point></Placemark>
<Placemark><name>20093</name><description>220093  REGIÓ
posicio de les: 06/08/2018 00:08:59</description><styleUrl>#w_groc</styleUrl><Point><coordinates>2.76781439781189,41.9415950775146,0</coordinates></Point></Placemark>
<Placemark><name>20130</name><description>220130 BRP AMER (Girona)
posicio de les: 06/08/2018 00:10:34</description><styleUrl>#w_verdC</styleUrl><Point><coordinates>2.80628800392151,41.9608747959137,0</coordinates></Point></Placemark>
<Placemark><name>AMER56</name><description>220156 PORT.COM AMER (Girona)
posicio de les: 06/08/2018 00:11:05</description><styleUrl>#w_verdP</styleUrl><Point><coordinates>2.80619144439697,41.9602954387665,0</coordinates></Point></Placemark>
<Placemark><name>AMER57</name><description>220157 PORT.COM AMER (Girona)
posicio de les: 06/08/2018 00:11:54</description><styleUrl>#w_verdP</styleUrl><Point><coordinates>2.5951874256134,42.0123195648193,0</coordinates></Point></Placemark>
<Placemark><name>20330</name><description>220330 BRP BANY (Girona)
posicio de les: 06/08/2018 00:08:11</description><styleUrl>#w_verdC</styleUrl><Point><coordinates>2.78456211090088,42.116185426712,0</coordinates></Point></Placemark>
<Placemark><name>BANY56</name><description>220356 PORT.COM BANY (Girona)
posicio de les: 06/08/2018 00:12:18</description><styleUrl>#w_verdP</styleUrl><Point><coordinates>2.78538823127747,42.1176445484161,0</coordinates></Point></Placemark>
<Placemark><name>PERA03</name><description>220403 PORT PERA (Girona)
posicio de les: 06/08/2018 00:12:15</description><styleUrl>#w_grocP</styleUrl><Point><coordinates>2.97407627105713,42.0294642448425,0</coordinates></Point></Placemark>
<Placemark><name>PERA04</name><description>220404 PORT PERA (Girona)
posicio de les: 06/08/2018 00:11:58</description><styleUrl>#w_grocP</styleUrl><Point><coordinates>2.974773645401,42.0299255847931,0</coordinates></Point></Placemark>
<Placemark><name>20430</name><description>220430 BRP PERA (Girona)
posicio de les: 06/08/2018 00:07:54</description><styleUrl>#w_grocC</styleUrl><Point><coordinates>2.76849031448364,41.9417238235474,0</coordinates></Point></Placemark>
<Placemark><name>20434</name><description>220434 BFP PERA (Girona)
posicio de les: 06/08/2018 00:11:11</description><styleUrl>#w_grocC</styleUrl><Point><coordinates>2.97438740730286,42.0298075675964,0</coordinates></Point></Placemark>
<Placemark><name>20830</name><description>220830 BRP CASS (Girona)
posicio de les: 06/08/2018 00:07:27</description><styleUrl>#w_grocC</styleUrl><Point><coordinates>2.76790022850037,41.941477060318,0</coordinates></Point></Placemark>
<Placemark><name>CASS56</name><description>220856 PORT.COM CASS (Girona)
posicio de les: 06/08/2018 00:11:04</description><styleUrl>#w_grocP</styleUrl><Point><coordinates>2.7679967880249,41.9415092468262,0</coordinates></Point></Placemark>
<Placemark><name>21130</name><description>221130 BRP GIRO (Girona)
posicio de les: 06/08/2018 00:07:38</description><styleUrl>#w_grocC</styleUrl><Point><coordinates>2.76858687400818,41.9415414333344,0</coordinates></Point></Placemark>
<Placemark><name>21131</name><description>221131 BRP GIRO (Girona)
posicio de les: 06/08/2018 00:09:47</description><styleUrl>#w_grocC</styleUrl><Point><coordinates>2.76832938194275,41.9417452812195,0</coordinates></Point></Placemark>
<Placemark><name>HOST05</name><description>221205 PORT HOST (Girona)
posicio de les: 06/08/2018 00:11:14</description><styleUrl>#w_verdP</styleUrl><Point><coordinates>2.62439131736755,41.7484974861145,0</coordinates></Point></Placemark>
<Placemark><name>221244</name><description>221244 BNP HOST (Girona)
posicio de les: 06/08/2018 00:07:38</description><styleUrl>#w_grocC</styleUrl><Point><coordinates>2.76814699172974,41.9419384002686,0</coordinates></Point></Placemark>
<Placemark><name>HOST57</name><description>221257 PORT.COM HOST (Girona)
posicio de les: 06/08/2018 00:11:25</description><styleUrl>#w_verdP</styleUrl><Point><coordinates>2.62459516525269,41.7480146884918,0</coordinates></Point></Placemark>
<Placemark><name>21330</name><description>221330 BRP JONQ (Girona)
posicio de les: 06/08/2018 00:10:17</description><styleUrl>#w_verdC</styleUrl><Point><coordinates>2.87656188011169,42.4115395545959,0</coordinates></Point></Placemark>
<Placemark><name>JONQ56</name><description>221356 PORT.COM JONQ (Girona)
posicio de les: 06/08/2018 00:10:17</description><styleUrl>#w_verdP</styleUrl><Point><coordinates>2.8765082359314,42.4116039276123,0</coordinates></Point></Placemark>
<Placemark><name>LLAN57</name><description>221457 PORT.COM LLAN (Girona)
posicio de les: 06/08/2018 00:08:28</description><styleUrl>#w_verdP</styleUrl><Point><coordinates>3.15288305282593,42.3579275608063,0</coordinates></Point></Placemark>
<Placemark><name>LLOR56</name><description>221556 PORT.COM LLOR (Girona)
posicio de les: 06/08/2018 00:11:47</description><styleUrl>#w_verdP</styleUrl><Point><coordinates>2.83600687980652,41.6997134685516,0</coordinates></Point></Placemark>
<Placemark><name>MAÇA57</name><description>221657 PORT.COM MACA (Girona)
posicio de les: 06/08/2018 00:11:43</description><styleUrl>#w_verdP</styleUrl><Point><coordinates>2.75290131568909,41.7793428897858,0</coordinates></Point></Placemark>
<Placemark><name>OLOT56</name><description>221756 PORT.COM OLOT (Girona)
posicio de les: 06/08/2018 00:12:20</description><styleUrl>#w_verdP</styleUrl><Point><coordinates>2.47570037841797,42.1891522407532,0</coordinates></Point></Placemark>
<Placemark><name>OLOT57</name><description>221757 PORT.COM OLOT (Girona)
posicio de les: 06/08/2018 00:09:53</description><styleUrl>#w_verdP</styleUrl><Point><coordinates>2.47475624084473,42.1902251243591,0</coordinates></Point></Placemark>
<Placemark><name>PALA06</name><description>221806 PORT PALA (Girona)
posicio de les: 06/08/2018 00:09:32</description><styleUrl>#w_verdP</styleUrl><Point><coordinates>3.15556526184082,41.9258236885071,0</coordinates></Point></Placemark>
<Placemark><name>PALA56</name><description>221856 PORT.COM PALA (Girona)
posicio de les: 06/08/2018 00:09:19</description><styleUrl>#w_verdP</styleUrl><Point><coordinates>3.15487861633301,41.9255018234253,0</coordinates></Point></Placemark>
<Placemark><name>PALA57</name><description>221857 PORT.COM PALA (Girona)
posicio de les: 06/08/2018 00:10:49</description><styleUrl>#w_grocP</styleUrl><Point><coordinates>3.15600514411926,41.9257271289825,0</coordinates></Point></Placemark>
<Placemark><name>RIPO56</name><description>222156 PORT.COM RIPO (Girona)
posicio de les: 06/08/2018 00:10:52</description><styleUrl>#w_verdP</styleUrl><Point><coordinates>2.16841578483582,42.2153842449188,0</coordinates></Point></Placemark>
<Placemark><name>RIPO57</name><description>222157 PORT.COM RIPO (Girona)
posicio de les: 06/08/2018 00:12:05</description><styleUrl>#w_grocP</styleUrl><Point><coordinates>2.1683406829834,42.2148585319519,0</coordinates></Point></Placemark>
<Placemark><name>ROSE01</name><description>222201 PORT ROSE (Girona)
posicio de les: 06/08/2018 00:11:19</description><styleUrl>#w_grocP</styleUrl><Point><coordinates>3.16089749336243,42.2767102718353,0</coordinates></Point></Placemark>
<Placemark><name>ROSE56</name><description>222256 PORT.COM ROSE (Girona)
posicio de les: 06/08/2018 00:11:28</description><styleUrl>#w_grocP</styleUrl><Point><coordinates>3.16094040870667,42.2765815258026,0</coordinates></Point></Placemark>
<Placemark><name>TORR56</name><description>222656 PORT.COM TORR (Girona)
posicio de les: 06/08/2018 00:10:51</description><styleUrl>#w_verdP</styleUrl><Point><coordinates>3.16738843917847,42.048282623291,0</coordinates></Point></Placemark>
<Placemark><name>VALL56</name><description>222856 PORT.COM VALL (Girona)
posicio de les: 06/08/2018 00:08:37</description><styleUrl>#w_verdP</styleUrl><Point><coordinates>3.03152918815613,41.8088471889496,0</coordinates></Point></Placemark>
<Placemark><name>D7REG</name><description>228047  SERVEIS REGIÓ
posicio de les: 06/08/2018 00:10:40</description><styleUrl>#w_groc</styleUrl><Point><coordinates>2.76768565177917,41.9416916370392,0</coordinates></Point></Placemark>
<Placemark><name>C30RELL</name><description>230018 P.Tec REGIÓ
posicio de les: 06/08/2018 00:09:32</description><styleUrl>#w_grocP</styleUrl><Point><coordinates>0.604902505874634,41.623592376709,0</coordinates></Point></Placemark>
<Placemark><name>30083</name><description>230083  REGIÓ
posicio de les: 06/08/2018 00:11:00</description><styleUrl>#w_groc</styleUrl><Point><coordinates>0.630651712417603,41.6162109375,0</coordinates></Point></Placemark>
<Placemark><name>30091</name><description>230091  REGIÓ
posicio de les: 06/08/2018 00:12:05</description><styleUrl>#w_groc</styleUrl><Point><coordinates>0.631499290466309,41.6164791584015,0</coordinates></Point></Placemark>
<Placemark><name>30092</name><description>230092  REGIÓ
posicio de les: 06/08/2018 00:07:57</description><styleUrl>#w_groc</styleUrl><Point><coordinates>0.631273984909058,41.6165971755981,0</coordinates></Point></Placemark>
<Placemark><name>30095</name><description>230095  REGIÓ
posicio de les: 06/08/2018 00:11:19</description><styleUrl>#w_groc</styleUrl><Point><coordinates>0.604923963546753,41.6233241558075,0</coordinates></Point></Placemark>
<Placemark><name>30098</name><description>230098  REGIÓ
posicio de les: 06/08/2018 00:10:55</description><styleUrl>#w_groc</styleUrl><Point><coordinates>0.630673170089722,41.6162967681885,0</coordinates></Point></Placemark>
<Placemark><name>30330</name><description>230330 BRP ALMA (Lleida)
posicio de les: 06/08/2018 00:12:19</description><styleUrl>#w_verdC</styleUrl><Point><coordinates>0.606436729431152,41.6195046901703,0</coordinates></Point></Placemark>
<Placemark><name>BORG01</name><description>230701 PORT BORG (Lleida)
posicio de les: 06/08/2018 00:08:22</description><styleUrl>#w_verdP</styleUrl><Point><coordinates>0.844885110855103,41.5073132514954,0</coordinates></Point></Placemark>
<Placemark><name>BORG03</name><description>230703 PORT BORG (Lleida)
posicio de les: 06/08/2018 00:09:12</description><styleUrl>#w_verdP</styleUrl><Point><coordinates>0.845475196838379,41.507420539856,0</coordinates></Point></Placemark>
<Placemark><name>LLEI04</name><description>231904 PORT LLEI (Lleida)
posicio de les: 06/08/2018 00:12:09</description><styleUrl>#w_grocP</styleUrl><Point><coordinates>0.6307053565979,41.6162431240082,0</coordinates></Point></Placemark>
<Placemark><name>LLEI05</name><description>231905 PORT LLEI (Lleida)
posicio de les: 06/08/2018 00:11:47</description><styleUrl>#w_grocP</styleUrl><Point><coordinates>0.631552934646606,41.6163289546967,0</coordinates></Point></Placemark>
<Placemark><name>31940</name><description>231940 BUP LLEI (Lleida)
posicio de les: 06/08/2018 00:11:56</description><styleUrl>#w_grocC</styleUrl><Point><coordinates>0.630555152893066,41.6162967681885,0</coordinates></Point></Placemark>
<Placemark><name>31948</name><description>231948 BUL LLEI (Lleida)
posicio de les: 06/08/2018 00:11:37</description><styleUrl>#w_grocC</styleUrl><Point><coordinates>0.631477832794189,41.6169512271881,0</coordinates></Point></Placemark>
<Placemark><name>31960</name><description>231960 AEA/AES/ABA LLEI (Lleida)
posicio de les: 06/08/2018 00:11:57</description><styleUrl>#w_grocC</styleUrl><Point><coordinates>0.630244016647339,41.6163182258606,0</coordinates></Point></Placemark>
<Placemark><name>32031</name><description>232031 BRP MOLL (Lleida)
posicio de les: 06/08/2018 00:12:01</description><styleUrl>#w_grocC</styleUrl><Point><coordinates>0.631617307662964,41.6165328025818,0</coordinates></Point></Placemark>
<Placemark><name>MOLL56</name><description>232056 PORT.COM MOLL (Lleida)
posicio de les: 06/08/2018 00:11:05</description><styleUrl>#w_grocP</styleUrl><Point><coordinates>0.63072681427002,41.6163504123688,0</coordinates></Point></Placemark>
<Placemark><name>32090</name><description>232090 UPC MOLL (Lleida)
posicio de les: 06/08/2018 00:12:06</description><styleUrl>#w_groc</styleUrl><Point><coordinates>0.630995035171509,41.616393327713,0</coordinates></Point></Placemark>
<Placemark><name>OLIA01</name><description>232201 PORT OLIA (Lleida)
posicio de les: 06/08/2018 00:11:18</description><styleUrl>#w_grocP</styleUrl><Point><coordinates>0.630780458450317,41.6161787509918,0</coordinates></Point></Placemark>
<Placemark><name>OLIA56</name><description>232256 PORT.COM OLIA (Lleida)
posicio de les: 06/08/2018 00:11:02</description><styleUrl>#w_grocP</styleUrl><Point><coordinates>0.630565881729126,41.6163718700409,0</coordinates></Point></Placemark>
<Placemark><name>32290</name><description>232290 UPC OLIA (Lleida)
posicio de les: 06/08/2018 00:07:19</description><styleUrl>#w_groc</styleUrl><Point><coordinates>0.6307053565979,41.6164362430573,0</coordinates></Point></Placemark>
<Placemark><name>POBL01</name><description>232401 PORT POBL (Lleida)
posicio de les: 06/08/2018 00:11:01</description><styleUrl>#w_grocP</styleUrl><Point><coordinates>0.964576005935669,42.2388911247253,0</coordinates></Point></Placemark>
<Placemark><name>PONT05</name><description>232505 PORT PONT (Lleida)
posicio de les: 06/08/2018 00:10:49</description><styleUrl>#w_verdP</styleUrl><Point><coordinates>0.739796161651611,42.4105203151703,0</coordinates></Point></Placemark>
<Placemark><name>33131</name><description>233131 BRP TAR (Lleida)
posicio de les: 06/08/2018 00:11:25</description><styleUrl>#w_grocC</styleUrl><Point><coordinates>0.631778240203857,41.6165542602539,0</coordinates></Point></Placemark>
<Placemark><name>TREM05</name><description>233305 PORT TREM (Lleida)
posicio de les: 06/08/2018 00:12:11</description><styleUrl>#w_verdP</styleUrl><Point><coordinates>0.889098644256592,42.1645617485046,0</coordinates></Point></Placemark>
<Placemark><name>TREM07</name><description>233307 PORT TREM (Lleida)
posicio de les: 06/08/2018 00:12:18</description><styleUrl>#w_verdP</styleUrl><Point><coordinates>0.889720916748047,42.1648514270782,0</coordinates></Point></Placemark>
<Placemark><name>TREM56</name><description>233356 PORT.COM TREM (Lleida)
posicio de les: 06/08/2018 00:10:00</description><styleUrl>#w_verdP</styleUrl><Point><coordinates>0.889109373092651,42.1646046638489,0</coordinates></Point></Placemark>
<Placemark><name>FMOLL2</name><description>234508 PORT Parc X
posicio de les: 06/08/2018 00:11:55</description><styleUrl>#w_verdP</styleUrl><Point><coordinates>0.89788556098938,41.6366708278656,0</coordinates></Point></Placemark>
<Placemark><name>FTAR1</name><description>234513 PORT Parc X
posicio de les: 06/08/2018 00:12:16</description><styleUrl>#w_verdP</styleUrl><Point><coordinates>1.14946603775024,41.6511332988739,0</coordinates></Point></Placemark>
<Placemark><name>FTREM59</name><description>234559 BSAL Parc X
posicio de les: 06/08/2018 00:10:51</description><styleUrl>#w_verdB</styleUrl><Point><coordinates>0.59675931930542,41.6301047801971,0</coordinates></Point></Placemark>
<Placemark><name>I407</name><description>237407 P.GUAITA GUAITA
posicio de les: 06/08/2018 00:11:08</description><styleUrl>#w_verdP</styleUrl><Point><coordinates>0.965938568115234,42.2524738311768,0</coordinates></Point></Placemark>
<Placemark><name>E0REMN</name><description>240012 P.Tec REGIÓ
posicio de les: 06/08/2018 00:11:06</description><styleUrl>#w_verdP</styleUrl><Point><coordinates>2.27395534515381,41.5910947322845,0</coordinates></Point></Placemark>
<Placemark><name>REMN14</name><description>240014 P.Tec REGIÓ
posicio de les: 06/08/2018 00:11:51</description><styleUrl>#w_verdP</styleUrl><Point><coordinates>2.02576518058777,41.5679740905762,0</coordinates></Point></Placemark>
<Placemark><name>40091</name><description>240091  REGIÓ
posicio de les: 06/08/2018 00:10:52</description><styleUrl>#w_groc</styleUrl><Point><coordinates>2.11156368255615,41.502206325531,0</coordinates></Point></Placemark>
<Placemark><name>BAD02</name><description>240202 PORT BAD (Metro. Nord)
posicio de les: 06/08/2018 00:11:01</description><styleUrl>#w_verdP</styleUrl><Point><coordinates>2.23746657371521,41.4653527736664,0</coordinates></Point></Placemark>
<Placemark><name>40290</name><description>240290 UPC BAD (Metro. Nord)
posicio de les: 06/08/2018 00:10:13</description><styleUrl>#w_groc</styleUrl><Point><coordinates>2.0260226726532,41.5679740905762,0</coordinates></Point></Placemark>
<Placemark><name>CER03</name><description>240503 PORT CER (Metro. Nord)
posicio de les: 06/08/2018 00:11:59</description><styleUrl>#w_grocP</styleUrl><Point><coordinates>2.11107015609741,41.5021204948425,0</coordinates></Point></Placemark>
<Placemark><name>240556</name><description>240556 PORT.COM CER (Metro. Nord)
posicio de les: 06/08/2018 00:09:10</description><styleUrl>#w_grocP</styleUrl><Point><coordinates>2.11140275001526,41.5029358863831,0</coordinates></Point></Placemark>
<Placemark><name>GRA01</name><description>240601 PORT GRA (Metro. Nord)
posicio de les: 06/08/2018 00:11:01</description><styleUrl>#w_grocP</styleUrl><Point><coordinates>2.275071144104,41.5908265113831,0</coordinates></Point></Placemark>
<Placemark><name>GRA13</name><description>240613 PORT GRA (Metro. Nord)
posicio de les: 06/08/2018 00:08:36</description><styleUrl>#w_grocP</styleUrl><Point><coordinates>2.27482438087463,41.5906012058258,0</coordinates></Point></Placemark>
<Placemark><name>240948</name><description>240948 BUL MAT (Metro. Nord)
posicio de les: 06/08/2018 00:08:14</description><styleUrl>#w_verdC</styleUrl><Point><coordinates>2.42269992828369,41.5324723720551,0</coordinates></Point></Placemark>
<Placemark><name>40960</name><description>240960 AEA/AES/ABA MAT (Metro. Nord)
posicio de les: 06/08/2018 00:09:30</description><styleUrl>#w_verdC</styleUrl><Point><coordinates>2.42301106452942,41.5319681167603,0</coordinates></Point></Placemark>
<Placemark><name>MOL03</name><description>241003 PORT MOL (Metro. Nord)
posicio de les: 06/08/2018 00:11:34</description><styleUrl>#w_verdP</styleUrl><Point><coordinates>2.20122456550598,41.536602973938,0</coordinates></Point></Placemark>
<Placemark><name>41130</name><description>241130 BRP MFI (Metro. Nord)
posicio de les: 06/08/2018 00:12:12</description><styleUrl>#w_verdC</styleUrl><Point><coordinates>2.28592872619629,41.6979217529297,0</coordinates></Point></Placemark>
<Placemark><name>SAB06</name><description>241406 PORT SAB (Metro. Nord)
posicio de les: 06/08/2018 00:09:42</description><styleUrl>#w_verdP</styleUrl><Point><coordinates>2.10413932800293,41.5421068668365,0</coordinates></Point></Placemark>
<Placemark><name>CMSAB20</name><description>241420 PORT SAB (Metro. Nord)
posicio de les: 06/08/2018 00:10:59</description><styleUrl>#w_grocP</styleUrl><Point><coordinates>2.10404276847839,41.5425682067871,0</coordinates></Point></Placemark>
<Placemark><name>241440</name><description>241440 BUP SAB (Metro. Nord)
posicio de les: 06/08/2018 00:11:39</description><styleUrl>#w_grocC</styleUrl><Point><coordinates>2.10396766662598,41.5422892570496,0</coordinates></Point></Placemark>
<Placemark><name>SCG09</name><description>241809 PORT SCG (Metro. Nord)
posicio de les: 06/08/2018 00:12:18</description><styleUrl>#w_verdP</styleUrl><Point><coordinates>2.20946431159973,41.4632177352905,0</coordinates></Point></Placemark>
<Placemark><name>241858</name><description>241858 BSAL SCG (Metro. Nord)
posicio de les: 06/08/2018 00:10:32</description><styleUrl>#w_grocB</styleUrl><Point><coordinates>2.20921754837036,41.4632928371429,0</coordinates></Point></Placemark>
<Placemark><name>TER01</name><description>242001 PORT TER (Metro. Nord)
posicio de les: 06/08/2018 00:09:07</description><styleUrl>#w_verdP</styleUrl><Point><coordinates>2.02592611312866,41.5680384635925,0</coordinates></Point></Placemark>
<Placemark><name>TER07</name><description>242007 PORT TER (Metro. Nord)
posicio de les: 06/08/2018 00:11:36</description><styleUrl>#w_verdP</styleUrl><Point><coordinates>2.02631235122681,41.5681564807892,0</coordinates></Point></Placemark>
<Placemark><name>TOD56</name><description>242156 PORT.COM TOD (Metro. Nord)
posicio de les: 06/08/2018 00:10:30</description><styleUrl>#w_grocP</styleUrl><Point><coordinates>2.7160370349884,41.6916346549988,0</coordinates></Point></Placemark>
<Placemark><name>D9REMN</name><description>248049  SERVEIS REGIÓ
posicio de les: 06/08/2018 00:12:11</description><styleUrl>#w_verd</styleUrl><Point><coordinates>2.11226105690002,41.502571105957,0</coordinates></Point></Placemark>
<Placemark><name>50092</name><description>250092  REGIÓ
posicio de les: 06/08/2018 00:11:15</description><styleUrl>#w_verd</styleUrl><Point><coordinates>1.70457601547241,41.3546741008759,0</coordinates></Point></Placemark>
<Placemark><name>COR05</name><description>250405 PORT COR (Metro. Sud)
posicio de les: 06/08/2018 00:09:24</description><styleUrl>#w_verdP</styleUrl><Point><coordinates>2.07020401954651,41.360650062561,0</coordinates></Point></Placemark>
<Placemark><name>COR10</name><description>250410 PORT COR (Metro. Sud)
posicio de les: 06/08/2018 00:11:28</description><styleUrl>#w_verdP</styleUrl><Point><coordinates>2.0728862285614,41.3460695743561,0</coordinates></Point></Placemark>
<Placemark><name>COR56</name><description>250456 PORT.COM COR (Metro. Sud)
posicio de les: 06/08/2018 00:11:09</description><styleUrl>#w_verdP</styleUrl><Point><coordinates>2.07056879997253,41.3608539104462,0</coordinates></Point></Placemark>
<Placemark><name>GAV01</name><description>250501 PORT GAV (Metro. Sud)
posicio de les: 06/08/2018 00:11:01</description><styleUrl>#w_grocP</styleUrl><Point><coordinates>1.9900918006897,41.3000214099884,0</coordinates></Point></Placemark>
<Placemark><name>GAV56</name><description>250556 PORT.COM GAV (Metro. Sud)
posicio de les: 06/08/2018 00:08:18</description><styleUrl>#w_verdP</styleUrl><Point><coordinates>1.99085354804993,41.2997531890869,0</coordinates></Point></Placemark>
<Placemark><name>50560</name><description>250560 AEA/AES/ABA GAV (Metro. Sud)
posicio de les: 06/08/2018 00:12:20</description><styleUrl>#w_grocC</styleUrl><Point><coordinates>2.08199501037598,41.380273103714,0</coordinates></Point></Placemark>
<Placemark><name>HOS02</name><description>250702 PORT HOS (Metro. Sud)
posicio de les: 06/08/2018 00:12:21</description><styleUrl>#w_verdP</styleUrl><Point><coordinates>2.10570573806763,41.370187997818,0</coordinates></Point></Placemark>
<Placemark><name>LLA03</name><description>250903 PORT LLA (Metro. Sud)
posicio de les: 06/08/2018 00:11:13</description><styleUrl>#w_grocP</styleUrl><Point><coordinates>1.53038263320923,41.4733457565308,0</coordinates></Point></Placemark>
<Placemark><name>MAR57</name><description>251057 PORT.COM MAR (Metro. Sud)
posicio de les: 06/08/2018 00:11:17</description><styleUrl>#w_grocP</styleUrl><Point><coordinates>1.90799474716187,41.4988374710083,0</coordinates></Point></Placemark>
<Placemark><name>PLL57</name><description>251257 PORT.COM PLL (Metro. Sud)
posicio de les: 06/08/2018 00:08:09</description><styleUrl>#w_verdP</styleUrl><Point><coordinates>2.0818018913269,41.3173055648804,0</coordinates></Point></Placemark>
<Placemark><name>SFE57</name><description>251557 PORT.COM SFE (Metro. Sud)
posicio de les: 06/08/2018 00:11:29</description><styleUrl>#w_verdP</styleUrl><Point><coordinates>2.04329609870911,41.3884162902832,0</coordinates></Point></Placemark>
<Placemark><name>CMS15</name><description>254515 PORT Parc X
posicio de les: 06/08/2018 00:11:33</description><styleUrl>#w_verdP</styleUrl><Point><coordinates>1.70446872711182,41.3547170162201,0</coordinates></Point></Placemark>
<Placemark><name>I215</name><description>257215 P.GUAITA GUAITA
posicio de les: 06/08/2018 00:10:59</description><styleUrl>#w_grocP</styleUrl><Point><coordinates>1.66401028633118,41.4992451667786,0</coordinates></Point></Placemark>
<Placemark><name>D1REMS</name><description>258041  SERVEIS REGIÓ
posicio de les: 06/08/2018 00:10:07</description><styleUrl>#w_verd</styleUrl><Point><coordinates>2.03350067138672,41.3223588466644,0</coordinates></Point></Placemark>
<Placemark><name>RET11</name><description>260011 P.Tec REGIÓ
posicio de les: 06/08/2018 00:08:44</description><styleUrl>#w_verdP</styleUrl><Point><coordinates>1.185622215271,41.1347222328186,0</coordinates></Point></Placemark>
<Placemark><name>FALS06</name><description>260406 PORT FALS (Tarragona)
posicio de les: 06/08/2018 00:09:51</description><styleUrl>#w_verdP</styleUrl><Point><coordinates>0.823212862014771,41.1473393440247,0</coordinates></Point></Placemark>
<Placemark><name>260508</name><description>260508 PORT HOSP (Tarragona)
posicio de les: 06/08/2018 00:11:00</description><styleUrl>#w_grocP</styleUrl><Point><coordinates>0.920008420944214,40.9936380386353,0</coordinates></Point></Placemark>
<Placemark><name>MONT02</name><description>260602 PORT MONT (Tarragona)
posicio de les: 06/08/2018 00:11:40</description><styleUrl>#w_verdP</styleUrl><Point><coordinates>0.660327672958374,41.6117799282074,0</coordinates></Point></Placemark>
<Placemark><name>60630</name><description>260630 BRP MONT (Tarragona)
posicio de les: 06/08/2018 00:12:18</description><styleUrl>#w_verdC</styleUrl><Point><coordinates>0.6651771068573,41.6102027893066,0</coordinates></Point></Placemark>
<Placemark><name>60844</name><description>260844 BNP REUS (Tarragona)
posicio de les: 06/08/2018 00:11:39</description><styleUrl>#w_grocC</styleUrl><Point><coordinates>1.11810564994812,41.1509335041046,0</coordinates></Point></Placemark>
<Placemark><name>60890</name><description>260890 UPC REUS (Tarragona)
posicio de les: 06/08/2018 00:09:59</description><styleUrl>#w_verd</styleUrl><Point><coordinates>1.11796617507935,41.1506330966949,0</coordinates></Point></Placemark>
<Placemark><name>61234</name><description>261234 BFP TARR (Tarragona)
posicio de les: 06/08/2018 00:10:39</description><styleUrl>#w_verdC</styleUrl><Point><coordinates>1.22032999992371,41.1160433292389,0</coordinates></Point></Placemark>
<Placemark><name>VALS56</name><description>261356 PORT.COM VALS (Tarragona)
posicio de les: 06/08/2018 00:11:35</description><styleUrl>#w_verdP</styleUrl><Point><coordinates>1.26020908355713,41.306973695755,0</coordinates></Point></Placemark>
<Placemark><name>61390</name><description>261390 UPC VALS (Tarragona)
posicio de les: 06/08/2018 00:10:02</description><styleUrl>#w_groc</styleUrl><Point><coordinates>1.25921130180359,41.3072848320007,0</coordinates></Point></Placemark>
<Placemark><name>VEND03</name><description>261403 PORT VEND (Tarragona)
posicio de les: 06/08/2018 00:10:41</description><styleUrl>#w_verdP</styleUrl><Point><coordinates>1.54092907905579,41.2227952480316,0</coordinates></Point></Placemark>
<Placemark><name>VEND05</name><description>261405 PORT VEND (Tarragona)
posicio de les: 06/08/2018 00:11:50</description><styleUrl>#w_verdP</styleUrl><Point><coordinates>1.54097199440002,41.2225592136383,0</coordinates></Point></Placemark>
<Placemark><name>VEND10</name><description>261410 PORT VEND (Tarragona)
posicio de les: 06/08/2018 00:10:32</description><styleUrl>#w_grocP</styleUrl><Point><coordinates>1.54086470603943,41.2222909927368,0</coordinates></Point></Placemark>
<Placemark><name>E00RETE</name><description>270014 P.Tec REGIÓ
posicio de les: 06/08/2018 00:11:40</description><styleUrl>#w_verdP</styleUrl><Point><coordinates>0.513267517089844,40.8194661140442,0</coordinates></Point></Placemark>
<Placemark><name>AMET05</name><description>272005 PORT AMET (Terres de l'Ebre)
posicio de les: 06/08/2018 00:09:46</description><styleUrl>#w_verdP</styleUrl><Point><coordinates>0.797603130340576,40.8902657032013,0</coordinates></Point></Placemark>
<Placemark><name>GAND56</name><description>272656 PORT.COM GAND (Terres de l'Ebre)
posicio de les: 06/08/2018 00:11:35</description><styleUrl>#w_grocP</styleUrl><Point><coordinates>0.437607765197754,41.0569059848785,0</coordinates></Point></Placemark>
<Placemark><name>MORA56</name><description>272856 PORT.COM MORA (Terres de l'Ebre)
posicio de les: 06/08/2018 00:11:07</description><styleUrl>#w_verdP</styleUrl><Point><coordinates>0.629621744155884,41.0862064361572,0</coordinates></Point></Placemark>
<Placemark><name>E_93</name><description>278031  SERVEIS REGIÓ
posicio de les: 06/08/2018 00:10:50</description><styleUrl>#w_verd</styleUrl><Point><coordinates>0.513396263122559,40.8191442489624,0</coordinates></Point></Placemark>
</Folder>
<Folder>
<name>Descarregues</name>
</Folder>
<Style id="w_verdP_n"><IconStyle><color>ff00ff00</color><scale>1.0</scale><Icon><href>http://maps.google.com/mapfiles/kml/shapes/man.png</href></Icon><hotSpot x="0.5" y="0" xunits="fraction" yunits="fraction"/></IconStyle><LabelStyle><scale>0.7</scale></LabelStyle></Style>
<Style id="w_verdP_s"><IconStyle><color>ff00ff00</color><scale>1.4</scale><Icon><href>http://maps.google.com/mapfiles/kml/shapes/man.png</href></Icon><hotSpot x="0.5" y="0" xunits="fraction" yunits="fraction"/></IconStyle><LabelStyle><scale>0.7</scale></LabelStyle></Style>
<StyleMap id="w_verdP"><Pair><key>normal</key><styleUrl>#w_verdP_n</styleUrl></Pair><Pair><key>highlight</key><styleUrl>#w_verdP_s</styleUrl></Pair></StyleMap>
<Style id="w_verd_n"><IconStyle><color>ff00ff00</color><scale>0.7</scale><Icon><href>http://maps.google.com/mapfiles/kml/shapes/cabs.png</href></Icon><hotSpot x="0.5" y="0" xunits="fraction" yunits="fraction"/></IconStyle><LabelStyle><scale>0.7</scale></LabelStyle></Style>
<Style id="w_verd_s"><IconStyle><color>ff00ff00</color><scale>1.0</scale><Icon><href>http://maps.google.com/mapfiles/kml/shapes/cabs.png</href></Icon><hotSpot x="0.5" y="0" xunits="fraction" yunits="fraction"/></IconStyle><LabelStyle><scale>0.7</scale></LabelStyle></Style>
<StyleMap id="w_verd"><Pair><key>normal</key><styleUrl>#w_verd_n</styleUrl></Pair><Pair><key>highlight</key><styleUrl>#w_verd_s</styleUrl></Pair></StyleMap>
<Style id="w_verdC_n"><IconStyle><color>ff00ff00</color><scale>1.0</scale><Icon><href>http://maps.google.com/mapfiles/kml/shapes/truck.png</href></Icon><hotSpot x="0.5" y="0" xunits="fraction" yunits="fraction"/></IconStyle><LabelStyle><scale>0.7</scale></LabelStyle></Style>
<Style id="w_verdC_s"><IconStyle><color>ff00ff00</color><scale>1.4</scale><Icon><href>http://maps.google.com/mapfiles/kml/shapes/truck.png</href></Icon><hotSpot x="0.5" y="0" xunits="fraction" yunits="fraction"/></IconStyle><LabelStyle><scale>0.7</scale></LabelStyle></Style>
<StyleMap id="w_verdC"><Pair><key>normal</key><styleUrl>#w_verdC_n</styleUrl></Pair><Pair><key>highlight</key><styleUrl>#w_verdC_s</styleUrl></Pair></StyleMap>
<Style id="w_verdH_n"><IconStyle><color>ff0000ff</color><scale>1.2</scale><Icon><href>http://maps.google.com/mapfiles/kml/shapes/heliport.png</href></Icon><hotSpot x="0.5" y="0" xunits="fraction" yunits="fraction"/></IconStyle><LabelStyle><scale>0.7</scale></LabelStyle></Style>
<Style id="w_verdH_s"><IconStyle><color>ff0000ff</color><scale>1.4</scale><Icon><href>http://maps.google.com/mapfiles/kml/shapes/heliport.png</href></Icon><hotSpot x="0.5" y="0" xunits="fraction" yunits="fraction"/></IconStyle><LabelStyle><scale>0.7</scale></LabelStyle></Style>
<StyleMap id="w_verdH"><Pair><key>normal</key><styleUrl>#w_verdH_n</styleUrl></Pair><Pair><key>highlight</key><styleUrl>#w_verdH_s</styleUrl></Pair></StyleMap>
<Style id="w_verdA_n"><IconStyle><color>ff0000ff</color><scale>1.2</scale><Icon><href>http://maps.google.com/mapfiles/kml/shapes/airports.png</href></Icon><hotSpot x="0.5" y="0" xunits="fraction" yunits="fraction"/></IconStyle><LabelStyle><scale>0.7</scale></LabelStyle></Style>
<Style id="w_verdA_s"><IconStyle><color>ff0000ff</color><scale>1.4</scale><Icon><href>http://maps.google.com/mapfiles/kml/shapes/airports.png</href></Icon><hotSpot x="0.5" y="0" xunits="fraction" yunits="fraction"/></IconStyle><LabelStyle><scale>0.7</scale></LabelStyle></Style>
<StyleMap id="w_verdA"><Pair><key>normal</key><styleUrl>#w_verdA_n</styleUrl></Pair><Pair><key>highlight</key><styleUrl>#w_verdA_s</styleUrl></Pair></StyleMap>
<Style id="w_verdB_n"><IconStyle><color>ff00ff00</color><scale>1.0</scale><Icon><href>http://maps.google.com/mapfiles/kml/shapes/sailing.png</href></Icon><hotSpot x="0.5" y="0" xunits="fraction" yunits="fraction"/></IconStyle><LabelStyle><scale>0.7</scale></LabelStyle></Style>
<Style id="w_verdB_s"><IconStyle><color>ff00ff00</color><scale>1.4</scale><Icon><href>http://maps.google.com/mapfiles/kml/shapes/sailing.png</href></Icon><hotSpot x="0.5" y="0" xunits="fraction" yunits="fraction"/></IconStyle><LabelStyle><scale>0.7</scale></LabelStyle></Style>
<StyleMap id="w_verdB"><Pair><key>normal</key><styleUrl>#w_verdBAR_n</styleUrl></Pair><Pair><key>highlight</key><styleUrl>#w_verdBAR_s</styleUrl></Pair></StyleMap>
<Style id="w_grocP_n"><IconStyle><color>ff00ffff</color><scale>1.0</scale><Icon><href>http://maps.google.com/mapfiles/kml/shapes/man.png</href></Icon><hotSpot x="0.5" y="0" xunits="fraction" yunits="fraction"/></IconStyle><LabelStyle><scale>0.7</scale></LabelStyle></Style>
<Style id="w_grocP_s"><IconStyle><color>ff00ffff</color><scale>1.4</scale><Icon><href>http://maps.google.com/mapfiles/kml/shapes/man.png</href></Icon><hotSpot x="0.5" y="0" xunits="fraction" yunits="fraction"/></IconStyle><LabelStyle><scale>0.7</scale></LabelStyle></Style>
<StyleMap id="w_grocP"><Pair><key>normal</key><styleUrl>#w_grocP_n</styleUrl></Pair><Pair><key>highlight</key><styleUrl>#w_grocP_s</styleUrl></Pair></StyleMap>
<Style id="w_groc_n"><IconStyle><color>ff00ffff</color><scale>0.7</scale><Icon><href>http://maps.google.com/mapfiles/kml/shapes/cabs.png</href></Icon><hotSpot x="0.5" y="0" xunits="fraction" yunits="fraction"/></IconStyle><LabelStyle><scale>0.7</scale></LabelStyle></Style>
<Style id="w_groc_s"><IconStyle><color>ff00ffff</color><scale>1.0</scale><Icon><href>http://maps.google.com/mapfiles/kml/shapes/cabs.png</href></Icon><hotSpot x="0.5" y="0" xunits="fraction" yunits="fraction"/></IconStyle><LabelStyle><scale>0.7</scale></LabelStyle></Style>
<StyleMap id="w_groc"><Pair><key>normal</key><styleUrl>#w_groc_n</styleUrl></Pair><Pair><key>highlight</key><styleUrl>#w_groc_s</styleUrl></Pair></StyleMap>
<Style id="w_grocC_n"><IconStyle><color>ff00ffff</color><scale>1.0</scale><Icon><href>http://maps.google.com/mapfiles/kml/shapes/truck.png</href></Icon><hotSpot x="0.5" y="0" xunits="fraction" yunits="fraction"/></IconStyle><LabelStyle><scale>0.7</scale></LabelStyle></Style>
<Style id="w_grocC_s"><IconStyle><color>ff00ffff</color><scale>1.4</scale><Icon><href>http://maps.google.com/mapfiles/kml/shapes/truck.png</href></Icon><hotSpot x="0.5" y="0" xunits="fraction" yunits="fraction"/></IconStyle><LabelStyle><scale>0.7</scale></LabelStyle></Style>
<StyleMap id="w_grocC"><Pair><key>normal</key><styleUrl>#w_grocC_n</styleUrl></Pair><Pair><key>highlight</key><styleUrl>#w_grocC_s</styleUrl></Pair></StyleMap>
<Style id="w_grocH_n"><IconStyle><color>ff0000ff</color><scale>1.2</scale><Icon><href>http://maps.google.com/mapfiles/kml/shapes/heliport.png</href></Icon><hotSpot x="0.5" y="0" xunits="fraction" yunits="fraction"/></IconStyle><LabelStyle><scale>0.7</scale></LabelStyle></Style>
<Style id="w_grocH_s"><IconStyle><color>ff0000ff</color><scale>1.4</scale><Icon><href>http://maps.google.com/mapfiles/kml/shapes/heliport.png</href></Icon><hotSpot x="0.5" y="0" xunits="fraction" yunits="fraction"/></IconStyle><LabelStyle><scale>0.7</scale></LabelStyle></Style>
<StyleMap id="w_grocH"><Pair><key>normal</key><styleUrl>#w_grocH_n</styleUrl></Pair><Pair><key>highlight</key><styleUrl>#w_grocH_s</styleUrl></Pair></StyleMap>
<Style id="w_grocA_n"><IconStyle><color>ff0000ff</color><scale>1.2</scale><Icon><href>http://maps.google.com/mapfiles/kml/shapes/airports.png</href></Icon><hotSpot x="0.5" y="0" xunits="fraction" yunits="fraction"/></IconStyle><LabelStyle><scale>0.7</scale></LabelStyle></Style>
<Style id="w_grocA_s"><IconStyle><color>ff0000ff</color><scale>1.4</scale><Icon><href>http://maps.google.com/mapfiles/kml/shapes/airports.png</href></Icon><hotSpot x="0.5" y="0" xunits="fraction" yunits="fraction"/></IconStyle><LabelStyle><scale>0.7</scale></LabelStyle></Style>
<StyleMap id="w_grocA"><Pair><key>normal</key><styleUrl>#w_grocA_n</styleUrl></Pair><Pair><key>highlight</key><styleUrl>#w_grocA_s</styleUrl></Pair></StyleMap>
<Style id="w_grocB_n"><IconStyle><color>ff00ffff</color><scale>1.0</scale><Icon><href>http://maps.google.com/mapfiles/kml/shapes/sailing.png</href></Icon><hotSpot x="0.5" y="0" xunits="fraction" yunits="fraction"/></IconStyle><LabelStyle><scale>0.7</scale></LabelStyle></Style>
<Style id="w_grocB_s"><IconStyle><color>ff00ffff</color><scale>1.4</scale><Icon><href>http://maps.google.com/mapfiles/kml/shapes/sailing.png</href></Icon><hotSpot x="0.5" y="0" xunits="fraction" yunits="fraction"/></IconStyle><LabelStyle><scale>0.7</scale></LabelStyle></Style>
<StyleMap id="w_grocB"><Pair><key>normal</key><styleUrl>#w_grocBAR_n</styleUrl></Pair><Pair><key>highlight</key><styleUrl>#w_grocBAR_s</styleUrl></Pair></StyleMap>
<Style id="w_vermellP_n"><IconStyle><color>ff0000ff</color><scale>1.0</scale><Icon><href>http://maps.google.com/mapfiles/kml/shapes/man.png</href></Icon><hotSpot x="0.5" y="0" xunits="fraction" yunits="fraction"/></IconStyle><LabelStyle><scale>0.7</scale></LabelStyle></Style>
<Style id="w_vermellP_s"><IconStyle><color>ff0000ff</color><scale>1.4</scale><Icon><href>http://maps.google.com/mapfiles/kml/shapes/man.png</href></Icon><hotSpot x="0.5" y="0" xunits="fraction" yunits="fraction"/></IconStyle><LabelStyle><scale>0.7</scale></LabelStyle></Style>
<StyleMap id="w_vermellP"><Pair><key>normal</key><styleUrl>#w_vermellP_n</styleUrl></Pair><Pair><key>highlight</key><styleUrl>#w_vermellP_s</styleUrl></Pair></StyleMap>
<Style id="w_vermell_n"><IconStyle><color>ff0000ff</color><scale>0.7</scale><Icon><href>http://maps.google.com/mapfiles/kml/shapes/cabs.png</href></Icon><hotSpot x="0.5" y="0" xunits="fraction" yunits="fraction"/></IconStyle><LabelStyle><scale>0.7</scale></LabelStyle></Style>
<Style id="w_vermell_s"><IconStyle><color>ff0000ff</color><scale>1.0</scale><Icon><href>http://maps.google.com/mapfiles/kml/shapes/cabs.png</href></Icon><hotSpot x="0.5" y="0" xunits="fraction" yunits="fraction"/></IconStyle><LabelStyle><scale>0.7</scale></LabelStyle></Style>
<StyleMap id="w_vermell"><Pair><key>normal</key><styleUrl>#w_vermell_n</styleUrl></Pair><Pair><key>highlight</key><styleUrl>#w_vermell_s</styleUrl></Pair></StyleMap>
<Style id="w_vermellC_n"><IconStyle><color>ff0000ff</color><scale>1.0</scale><Icon><href>http://maps.google.com/mapfiles/kml/shapes/truck.png</href></Icon><hotSpot x="0.5" y="0" xunits="fraction" yunits="fraction"/></IconStyle><LabelStyle><scale>0.7</scale></LabelStyle></Style>
<Style id="w_vermellC_s"><IconStyle><color>ff0000ff</color><scale>1.4</scale><Icon><href>http://maps.google.com/mapfiles/kml/shapes/truck.png</href></Icon><hotSpot x="0.5" y="0" xunits="fraction" yunits="fraction"/></IconStyle><LabelStyle><scale>0.7</scale></LabelStyle></Style>
<StyleMap id="w_vermellC"><Pair><key>normal</key><styleUrl>#w_vermellC_n</styleUrl></Pair><Pair><key>highlight</key><styleUrl>#w_vermellC_s</styleUrl></Pair></StyleMap>
<Style id="w_vermellH_n"><IconStyle><color>ff0000ff</color><scale>1.2</scale><Icon><href>http://maps.google.com/mapfiles/kml/shapes/heliport.png</href></Icon><hotSpot x="0.5" y="0" xunits="fraction" yunits="fraction"/></IconStyle><LabelStyle><scale>0.7</scale></LabelStyle></Style>
<Style id="w_vermellH_s"><IconStyle><color>ff0000ff</color><scale>1.4</scale><Icon><href>http://maps.google.com/mapfiles/kml/shapes/heliport.png</href></Icon><hotSpot x="0.5" y="0" xunits="fraction" yunits="fraction"/></IconStyle><LabelStyle><scale>0.7</scale></LabelStyle></Style>
<StyleMap id="w_vermellH"><Pair><key>normal</key><styleUrl>#w_vermellH_n</styleUrl></Pair><Pair><key>highlight</key><styleUrl>#w_vermellH_s</styleUrl></Pair></StyleMap>
<Style id="w_vermellA_n"><IconStyle><color>ff0000ff</color><scale>1.2</scale><Icon><href>http://maps.google.com/mapfiles/kml/shapes/airports.png</href></Icon><hotSpot x="0.5" y="0" xunits="fraction" yunits="fraction"/></IconStyle><LabelStyle><scale>0.7</scale></LabelStyle></Style>
<Style id="w_vermellA_s"><IconStyle><color>ff0000ff</color><scale>1.4</scale><Icon><href>http://maps.google.com/mapfiles/kml/shapes/airports.png</href></Icon><hotSpot x="0.5" y="0" xunits="fraction" yunits="fraction"/></IconStyle><LabelStyle><scale>0.7</scale></LabelStyle></Style>
<StyleMap id="w_vermellA"><Pair><key>normal</key><styleUrl>#w_vermellA_n</styleUrl></Pair><Pair><key>highlight</key><styleUrl>#w_vermellA_s</styleUrl></Pair></StyleMap>
<Style id="w_vermellB_n"><IconStyle><color>ff0000ff</color><scale>1.0</scale><Icon><href>http://maps.google.com/mapfiles/kml/shapes/sailing.png</href></Icon><hotSpot x="0.5" y="0" xunits="fraction" yunits="fraction"/></IconStyle><LabelStyle><scale>0.7</scale></LabelStyle></Style>
<Style id="w_vermellB_s"><IconStyle><color>ff0000ff</color><scale>1.4</scale><Icon><href>http://maps.google.com/mapfiles/kml/shapes/sailing.png</href></Icon><hotSpot x="0.5" y="0" xunits="fraction" yunits="fraction"/></IconStyle><LabelStyle><scale>0.7</scale></LabelStyle></Style>
<StyleMap id="w_vermellB"><Pair><key>normal</key><styleUrl>#w_vermellBAR_n</styleUrl></Pair><Pair><key>highlight</key><styleUrl>#w_vermellBAR_s</styleUrl></Pair></StyleMap>
<Style id="w_descarrega"><IconStyle><color>ff00ffff</color><scale>0.5</scale><Icon><href>http://maps.google.com/mapfiles/kml/shapes/road_shield3.png</href></Icon></IconStyle><LabelStyle><scale>0.7</scale></LabelStyle></Style><Style id="actuacio"><IconStyle><color>ff00ffff</color><scale>0.8</scale><Icon><href>http://maps.google.com/mapfiles/kml/shapes/caution.png</href></Icon></IconStyle><LabelStyle><scale>0.7</scale></LabelStyle></Style></Document></kml>