<?xml version="1.0" encoding="UTF-8"?>
<kml xmlns="http://www.opengis.net/kml/2.2" xmlns:gx="http://www.google.com/kml/ext/2.2" xmlns:kml="http://www.opengis.net/kml/2.2" xmlns:atom="http://www.w3.org/2005/Atom">
<Document>
<name>Terminals</name>
<Snippet maxLines="2">Created 05/08/2018 23:59:20</Snippet>
<Folder>
<name>Terminals</name>
<Placemark><name>02063</name><description>202063 GEM
posicio de les: 05/08/2018 23:59:07</description><styleUrl>#w_groc</styleUrl><Point><coordinates>2.11146712303162,41.5021526813507,0</coordinates></Point></Placemark>
<Placemark><name>GGRAF08</name><description>204208 P.UT
posicio de les: 05/08/2018 23:58:21</description><styleUrl>#w_verdP</styleUrl><Point><coordinates>2.97431230545044,42.0292818546295,0</coordinates></Point></Placemark>
<Placemark><name>GGRAF10</name><description>204210 P.UT
posicio de les: 05/08/2018 23:58:06</description><styleUrl>#w_verdP</styleUrl><Point><coordinates>2.9743230342865,42.0292925834656,0</coordinates></Point></Placemark>
<Placemark><name>LGRAF02</name><description>204302 P.UT
posicio de les: 05/08/2018 23:58:33</description><styleUrl>#w_grocP</styleUrl><Point><coordinates>0.889656543731689,42.1647870540619,0</coordinates></Point></Placemark>
<Placemark><name>BGRAF08</name><description>204408 P.UT
posicio de les: 05/08/2018 23:58:45</description><styleUrl>#w_verdP</styleUrl><Point><coordinates>1.8526017665863,41.7414271831512,0</coordinates></Point></Placemark>
<Placemark><name>OP05087</name><description>205287 OP.AAV
posicio de les: 05/08/2018 23:57:47</description><styleUrl>#w_verdP</styleUrl><Point><coordinates>1.15827441215515,41.1478543281555,0</coordinates></Point></Placemark>
<Placemark><name>VIEL17</name><description>208017 BASE CCA VARAN
posicio de les: 05/08/2018 23:59:18</description><styleUrl>#w_verd</styleUrl><Point><coordinates>0.796680450439453,42.7080738544464,0</coordinates></Point></Placemark>
<Placemark><name>GD00REC</name><description>210019 P.Tec REGIÓ
posicio de les: 05/08/2018 23:58:18</description><styleUrl>#w_verdP</styleUrl><Point><coordinates>1.85235500335693,41.7411696910858,0</coordinates></Point></Placemark>
<Placemark><name>BER57</name><description>210357 PORT.COM BER (Centre)
posicio de les: 05/08/2018 23:54:02</description><styleUrl>#w_verdP</styleUrl><Point><coordinates>1.85777306556702,42.1036863327026,0</coordinates></Point></Placemark>
<Placemark><name>CAF04</name><description>210404 PORT CAF (Centre)
posicio de les: 05/08/2018 23:58:53</description><styleUrl>#w_verdP</styleUrl><Point><coordinates>0.636434555053711,41.6190540790558,0</coordinates></Point></Placemark>
<Placemark><name>10430</name><description>210430 BRP CAF (Centre)
posicio de les: 05/08/2018 23:58:58</description><styleUrl>#w_verdC</styleUrl><Point><coordinates>0.637260675430298,41.6198587417603,0</coordinates></Point></Placemark>
<Placemark><name>CAB56</name><description>210656 PORT.COM CAB (Centre)
posicio de les: 05/08/2018 23:58:12</description><styleUrl>#w_grocP</styleUrl><Point><coordinates>1.68509244918823,41.6657781600952,0</coordinates></Point></Placemark>
<Placemark><name>GUA56</name><description>210856 PORT.COM GUA (Centre)
posicio de les: 05/08/2018 23:57:23</description><styleUrl>#w_verdP</styleUrl><Point><coordinates>1.86989665031433,42.2195255756378,0</coordinates></Point></Placemark>
<Placemark><name>MAN01</name><description>211001 PORT MAN (Centre)
posicio de les: 05/08/2018 23:58:21</description><styleUrl>#w_grocP</styleUrl><Point><coordinates>1.82202458381653,41.7209351062775,0</coordinates></Point></Placemark>
<Placemark><name>11040</name><description>211040 BUP MAN (Centre)
posicio de les: 05/08/2018 23:58:22</description><styleUrl>#w_grocC</styleUrl><Point><coordinates>1.82201385498047,41.721214056015,0</coordinates></Point></Placemark>
<Placemark><name>11060</name><description>211060 AEA/AES/ABA MAN (Centre)
posicio de les: 05/08/2018 23:58:29</description><styleUrl>#w_grocC</styleUrl><Point><coordinates>1.8217134475708,41.7212355136871,0</coordinates></Point></Placemark>
<Placemark><name>PRA07</name><description>211407 PORT PRA (Centre)
posicio de les: 05/08/2018 23:58:29</description><styleUrl>#w_verdP</styleUrl><Point><coordinates>2.0359468460083,42.0081353187561,0</coordinates></Point></Placemark>
<Placemark><name>TOR02</name><description>212002 PORT TOR (Centre)
posicio de les: 05/08/2018 23:57:52</description><styleUrl>#w_verdP</styleUrl><Point><coordinates>2.26717472076416,42.048454284668,0</coordinates></Point></Placemark>
<Placemark><name>20091</name><description>220091  REGIÓ
posicio de les: 05/08/2018 23:57:11</description><styleUrl>#w_groc</styleUrl><Point><coordinates>2.76790022850037,41.9415307044983,0</coordinates></Point></Placemark>
<Placemark><name>20093</name><description>220093  REGIÓ
posicio de les: 05/08/2018 23:59:00</description><styleUrl>#w_groc</styleUrl><Point><coordinates>2.76834011077881,41.9414341449738,0</coordinates></Point></Placemark>
<Placemark><name>20130</name><description>220130 BRP AMER (Girona)
posicio de les: 05/08/2018 23:57:28</description><styleUrl>#w_verdC</styleUrl><Point><coordinates>2.80321955680847,41.9732773303986,0</coordinates></Point></Placemark>
<Placemark><name>AMER56</name><description>220156 PORT.COM AMER (Girona)
posicio de les: 05/08/2018 23:58:12</description><styleUrl>#w_grocP</styleUrl><Point><coordinates>2.80435681343079,41.972644329071,0</coordinates></Point></Placemark>
<Placemark><name>AMER57</name><description>220157 PORT.COM AMER (Girona)
posicio de les: 05/08/2018 23:55:20</description><styleUrl>#w_verdP</styleUrl><Point><coordinates>2.59620666503906,42.0113003253937,0</coordinates></Point></Placemark>
<Placemark><name>20330</name><description>220330 BRP BANY (Girona)
posicio de les: 05/08/2018 23:58:11</description><styleUrl>#w_verdC</styleUrl><Point><coordinates>2.78456211090088,42.116185426712,0</coordinates></Point></Placemark>
<Placemark><name>BANY56</name><description>220356 PORT.COM BANY (Girona)
posicio de les: 05/08/2018 23:58:18</description><styleUrl>#w_verdP</styleUrl><Point><coordinates>2.78550624847412,42.1177089214325,0</coordinates></Point></Placemark>
<Placemark><name>PERA03</name><description>220403 PORT PERA (Girona)
posicio de les: 05/08/2018 23:58:02</description><styleUrl>#w_grocP</styleUrl><Point><coordinates>2.97441959381104,42.0296466350555,0</coordinates></Point></Placemark>
<Placemark><name>PERA04</name><description>220404 PORT PERA (Girona)
posicio de les: 05/08/2018 23:56:35</description><styleUrl>#w_verdP</styleUrl><Point><coordinates>2.97456979751587,42.0296466350555,0</coordinates></Point></Placemark>
<Placemark><name>20430</name><description>220430 BRP PERA (Girona)
posicio de les: 05/08/2018 23:57:54</description><styleUrl>#w_grocC</styleUrl><Point><coordinates>2.76843667030334,41.9416058063507,0</coordinates></Point></Placemark>
<Placemark><name>20434</name><description>220434 BFP PERA (Girona)
posicio de les: 05/08/2018 23:56:11</description><styleUrl>#w_verdC</styleUrl><Point><coordinates>2.97489166259766,42.0298612117767,0</coordinates></Point></Placemark>
<Placemark><name>20830</name><description>220830 BRP CASS (Girona)
posicio de les: 05/08/2018 23:57:28</description><styleUrl>#w_grocC</styleUrl><Point><coordinates>2.76813626289368,41.9416165351868,0</coordinates></Point></Placemark>
<Placemark><name>CASS56</name><description>220856 PORT.COM CASS (Girona)
posicio de les: 05/08/2018 23:59:11</description><styleUrl>#w_verdP</styleUrl><Point><coordinates>2.76756763458252,41.9416916370392,0</coordinates></Point></Placemark>
<Placemark><name>FIGU56</name><description>221056 PORT.COM FIGU (Girona)
posicio de les: 05/08/2018 23:56:11</description><styleUrl>#w_verdP</styleUrl><Point><coordinates>2.97060012817383,42.2721719741821,0</coordinates></Point></Placemark>
<Placemark><name>21130</name><description>221130 BRP GIRO (Girona)
posicio de les: 05/08/2018 23:57:39</description><styleUrl>#w_verdC</styleUrl><Point><coordinates>2.76896238327026,41.9409942626953,0</coordinates></Point></Placemark>
<Placemark><name>21131</name><description>221131 BRP GIRO (Girona)
posicio de les: 05/08/2018 23:54:48</description><styleUrl>#w_grocC</styleUrl><Point><coordinates>2.76845812797546,41.9417023658752,0</coordinates></Point></Placemark>
<Placemark><name>HOST05</name><description>221205 PORT HOST (Girona)
posicio de les: 05/08/2018 23:57:38</description><styleUrl>#w_verdP</styleUrl><Point><coordinates>2.62464880943298,41.7482078075409,0</coordinates></Point></Placemark>
<Placemark><name>221244</name><description>221244 BNP HOST (Girona)
posicio de les: 05/08/2018 23:57:38</description><styleUrl>#w_grocC</styleUrl><Point><coordinates>2.76821136474609,41.9417023658752,0</coordinates></Point></Placemark>
<Placemark><name>HOST57</name><description>221257 PORT.COM HOST (Girona)
posicio de les: 05/08/2018 23:59:20</description><styleUrl>#w_verdP</styleUrl><Point><coordinates>2.6242733001709,41.7482614517212,0</coordinates></Point></Placemark>
<Placemark><name>21330</name><description>221330 BRP JONQ (Girona)
posicio de les: 05/08/2018 23:59:17</description><styleUrl>#w_verdC</styleUrl><Point><coordinates>2.9314398765564,42.3176836967468,0</coordinates></Point></Placemark>
<Placemark><name>JONQ56</name><description>221356 PORT.COM JONQ (Girona)
posicio de les: 05/08/2018 23:59:17</description><styleUrl>#w_verdP</styleUrl><Point><coordinates>2.93136477470398,42.3178553581238,0</coordinates></Point></Placemark>
<Placemark><name>LLAN57</name><description>221457 PORT.COM LLAN (Girona)
posicio de les: 05/08/2018 23:56:36</description><styleUrl>#w_verdP</styleUrl><Point><coordinates>3.15355896949768,42.3576700687408,0</coordinates></Point></Placemark>
<Placemark><name>LLOR56</name><description>221556 PORT.COM LLOR (Girona)
posicio de les: 05/08/2018 23:58:00</description><styleUrl>#w_verdP</styleUrl><Point><coordinates>2.83617854118347,41.6994559764862,0</coordinates></Point></Placemark>
<Placemark><name>MAÇA57</name><description>221657 PORT.COM MACA (Girona)
posicio de les: 05/08/2018 23:55:43</description><styleUrl>#w_verdP</styleUrl><Point><coordinates>2.75290131568909,41.7793428897858,0</coordinates></Point></Placemark>
<Placemark><name>OLOT56</name><description>221756 PORT.COM OLOT (Girona)
posicio de les: 05/08/2018 23:57:40</description><styleUrl>#w_verdP</styleUrl><Point><coordinates>2.47512102127075,42.1892273426056,0</coordinates></Point></Placemark>
<Placemark><name>OLOT57</name><description>221757 PORT.COM OLOT (Girona)
posicio de les: 05/08/2018 23:57:53</description><styleUrl>#w_verdP</styleUrl><Point><coordinates>2.47475624084473,42.1902251243591,0</coordinates></Point></Placemark>
<Placemark><name>PALA06</name><description>221806 PORT PALA (Girona)
posicio de les: 05/08/2018 23:59:13</description><styleUrl>#w_verdP</styleUrl><Point><coordinates>3.15561890602112,41.9258666038513,0</coordinates></Point></Placemark>
<Placemark><name>PALA56</name><description>221856 PORT.COM PALA (Girona)
posicio de les: 05/08/2018 23:57:49</description><styleUrl>#w_verdP</styleUrl><Point><coordinates>3.15574765205383,41.9254910945892,0</coordinates></Point></Placemark>
<Placemark><name>PALA57</name><description>221857 PORT.COM PALA (Girona)
posicio de les: 05/08/2018 23:56:50</description><styleUrl>#w_grocP</styleUrl><Point><coordinates>3.15582275390625,41.9257271289825,0</coordinates></Point></Placemark>
<Placemark><name>RIPO56</name><description>222156 PORT.COM RIPO (Girona)
posicio de les: 05/08/2018 23:58:24</description><styleUrl>#w_grocP</styleUrl><Point><coordinates>2.16793298721313,42.214686870575,0</coordinates></Point></Placemark>
<Placemark><name>RIPO57</name><description>222157 PORT.COM RIPO (Girona)
posicio de les: 05/08/2018 23:58:21</description><styleUrl>#w_verdP</styleUrl><Point><coordinates>2.16864109039307,42.214343547821,0</coordinates></Point></Placemark>
<Placemark><name>ROSE01</name><description>222201 PORT ROSE (Girona)
posicio de les: 05/08/2018 23:59:18</description><styleUrl>#w_grocP</styleUrl><Point><coordinates>3.16081166267395,42.276474237442,0</coordinates></Point></Placemark>
<Placemark><name>ROSE56</name><description>222256 PORT.COM ROSE (Girona)
posicio de les: 05/08/2018 23:55:51</description><styleUrl>#w_verdP</styleUrl><Point><coordinates>3.16079020500183,42.2766673564911,0</coordinates></Point></Placemark>
<Placemark><name>TORR56</name><description>222656 PORT.COM TORR (Girona)
posicio de les: 05/08/2018 23:58:32</description><styleUrl>#w_verdP</styleUrl><Point><coordinates>3.16724896430969,42.0482075214386,0</coordinates></Point></Placemark>
<Placemark><name>VALL56</name><description>222856 PORT.COM VALL (Girona)
posicio de les: 05/08/2018 23:58:44</description><styleUrl>#w_verdP</styleUrl><Point><coordinates>3.03195834159851,41.8086433410645,0</coordinates></Point></Placemark>
<Placemark><name>D7REG</name><description>228047  SERVEIS REGIÓ
posicio de les: 05/08/2018 23:58:39</description><styleUrl>#w_groc</styleUrl><Point><coordinates>2.76772856712341,41.9415414333344,0</coordinates></Point></Placemark>
<Placemark><name>C30RELL</name><description>230018 P.Tec REGIÓ
posicio de les: 05/08/2018 23:58:45</description><styleUrl>#w_verdP</styleUrl><Point><coordinates>0.604687929153442,41.6234529018402,0</coordinates></Point></Placemark>
<Placemark><name>FTREMP1</name><description>230073  REGIÓ
posicio de les: 05/08/2018 23:59:07</description><styleUrl>#w_verd</styleUrl><Point><coordinates>0.63196063041687,41.6161787509918,0</coordinates></Point></Placemark>
<Placemark><name>30083</name><description>230083  REGIÓ
posicio de les: 05/08/2018 23:56:00</description><styleUrl>#w_groc</styleUrl><Point><coordinates>0.630651712417603,41.6162109375,0</coordinates></Point></Placemark>
<Placemark><name>30091</name><description>230091  REGIÓ
posicio de les: 05/08/2018 23:57:04</description><styleUrl>#w_groc</styleUrl><Point><coordinates>0.631499290466309,41.6164791584015,0</coordinates></Point></Placemark>
<Placemark><name>30092</name><description>230092  REGIÓ
posicio de les: 05/08/2018 23:58:05</description><styleUrl>#w_groc</styleUrl><Point><coordinates>0.630877017974854,41.6168010234833,0</coordinates></Point></Placemark>
<Placemark><name>30095</name><description>230095  REGIÓ
posicio de les: 05/08/2018 23:56:19</description><styleUrl>#w_groc</styleUrl><Point><coordinates>0.604870319366455,41.6235709190369,0</coordinates></Point></Placemark>
<Placemark><name>30098</name><description>230098  REGIÓ
posicio de les: 05/08/2018 23:55:55</description><styleUrl>#w_groc</styleUrl><Point><coordinates>0.6307053565979,41.6162538528442,0</coordinates></Point></Placemark>
<Placemark><name>30330</name><description>230330 BRP ALMA (Lleida)
posicio de les: 05/08/2018 23:58:40</description><styleUrl>#w_grocC</styleUrl><Point><coordinates>0.631434917449951,41.6168653964996,0</coordinates></Point></Placemark>
<Placemark><name>BORG01</name><description>230701 PORT BORG (Lleida)
posicio de les: 05/08/2018 23:58:40</description><styleUrl>#w_verdP</styleUrl><Point><coordinates>0.845110416412354,41.5069484710693,0</coordinates></Point></Placemark>
<Placemark><name>BORG03</name><description>230703 PORT BORG (Lleida)
posicio de les: 05/08/2018 23:55:44</description><styleUrl>#w_grocP</styleUrl><Point><coordinates>0.845142602920532,41.5075707435608,0</coordinates></Point></Placemark>
<Placemark><name>BORG06</name><description>230706 PORT BORG (Lleida)
posicio de les: 05/08/2018 23:57:49</description><styleUrl>#w_grocP</styleUrl><Point><coordinates>0.845067501068115,41.5075278282166,0</coordinates></Point></Placemark>
<Placemark><name>BORG56</name><description>230756 PORT.COM BORG (Lleida)
posicio de les: 05/08/2018 23:58:19</description><styleUrl>#w_verdP</styleUrl><Point><coordinates>0.844713449478149,41.5071308612823,0</coordinates></Point></Placemark>
<Placemark><name>LLEI04</name><description>231904 PORT LLEI (Lleida)
posicio de les: 05/08/2018 23:58:12</description><styleUrl>#w_grocP</styleUrl><Point><coordinates>0.630501508712769,41.6165006160736,0</coordinates></Point></Placemark>
<Placemark><name>LLEI05</name><description>231905 PORT LLEI (Lleida)
posicio de les: 05/08/2018 23:57:46</description><styleUrl>#w_grocP</styleUrl><Point><coordinates>0.631392002105713,41.616575717926,0</coordinates></Point></Placemark>
<Placemark><name>31940</name><description>231940 BUP LLEI (Lleida)
posicio de les: 05/08/2018 23:56:56</description><styleUrl>#w_grocC</styleUrl><Point><coordinates>0.630608797073364,41.6162860393524,0</coordinates></Point></Placemark>
<Placemark><name>31948</name><description>231948 BUL LLEI (Lleida)
posicio de les: 05/08/2018 23:56:37</description><styleUrl>#w_grocC</styleUrl><Point><coordinates>0.631241798400879,41.6168224811554,0</coordinates></Point></Placemark>
<Placemark><name>31960</name><description>231960 AEA/AES/ABA LLEI (Lleida)
posicio de les: 05/08/2018 23:56:57</description><styleUrl>#w_grocC</styleUrl><Point><coordinates>0.630308389663696,41.6163074970245,0</coordinates></Point></Placemark>
<Placemark><name>32031</name><description>232031 BRP MOLL (Lleida)
posicio de les: 05/08/2018 23:57:01</description><styleUrl>#w_grocC</styleUrl><Point><coordinates>0.631617307662964,41.6165328025818,0</coordinates></Point></Placemark>
<Placemark><name>MOLL56</name><description>232056 PORT.COM MOLL (Lleida)
posicio de les: 05/08/2018 23:58:59</description><styleUrl>#w_grocP</styleUrl><Point><coordinates>0.630919933319092,41.6165542602539,0</coordinates></Point></Placemark>
<Placemark><name>32090</name><description>232090 UPC MOLL (Lleida)
posicio de les: 05/08/2018 23:57:06</description><styleUrl>#w_groc</styleUrl><Point><coordinates>0.630995035171509,41.616393327713,0</coordinates></Point></Placemark>
<Placemark><name>OLIA01</name><description>232201 PORT OLIA (Lleida)
posicio de les: 05/08/2018 23:59:16</description><styleUrl>#w_grocP</styleUrl><Point><coordinates>0.630544424057007,41.6165435314178,0</coordinates></Point></Placemark>
<Placemark><name>OLIA56</name><description>232256 PORT.COM OLIA (Lleida)
posicio de les: 05/08/2018 23:59:05</description><styleUrl>#w_grocP</styleUrl><Point><coordinates>0.630673170089722,41.6163074970245,0</coordinates></Point></Placemark>
<Placemark><name>32290</name><description>232290 UPC OLIA (Lleida)
posicio de les: 05/08/2018 23:58:01</description><styleUrl>#w_groc</styleUrl><Point><coordinates>0.630748271942139,41.6163074970245,0</coordinates></Point></Placemark>
<Placemark><name>POBL01</name><description>232401 PORT POBL (Lleida)
posicio de les: 05/08/2018 23:59:03</description><styleUrl>#w_grocP</styleUrl><Point><coordinates>0.964189767837524,42.2391486167908,0</coordinates></Point></Placemark>
<Placemark><name>PONT05</name><description>232505 PORT PONT (Lleida)
posicio de les: 05/08/2018 23:56:58</description><styleUrl>#w_grocP</styleUrl><Point><coordinates>0.739742517471313,42.4106919765472,0</coordinates></Point></Placemark>
<Placemark><name>33131</name><description>233131 BRP TAR (Lleida)
posicio de les: 05/08/2018 23:56:25</description><styleUrl>#w_grocC</styleUrl><Point><coordinates>0.631746053695679,41.6166400909424,0</coordinates></Point></Placemark>
<Placemark><name>TREM05</name><description>233305 PORT TREM (Lleida)
posicio de les: 05/08/2018 23:58:14</description><styleUrl>#w_grocP</styleUrl><Point><coordinates>0.889356136322021,42.1647012233734,0</coordinates></Point></Placemark>
<Placemark><name>TREM07</name><description>233307 PORT TREM (Lleida)
posicio de les: 05/08/2018 23:57:39</description><styleUrl>#w_grocP</styleUrl><Point><coordinates>0.889420509338379,42.1647441387177,0</coordinates></Point></Placemark>
<Placemark><name>TREM56</name><description>233356 PORT.COM TREM (Lleida)
posicio de les: 05/08/2018 23:57:34</description><styleUrl>#w_verdP</styleUrl><Point><coordinates>0.889205932617188,42.1645188331604,0</coordinates></Point></Placemark>
<Placemark><name>FMOLL2</name><description>234508 PORT Parc X
posicio de les: 05/08/2018 23:55:34</description><styleUrl>#w_verdP</styleUrl><Point><coordinates>0.898057222366333,41.6364991664886,0</coordinates></Point></Placemark>
<Placemark><name>FTAR1</name><description>234513 PORT Parc X
posicio de les: 05/08/2018 23:58:14</description><styleUrl>#w_verdP</styleUrl><Point><coordinates>1.1496376991272,41.650607585907,0</coordinates></Point></Placemark>
<Placemark><name>FTREM59</name><description>234559 BSAL Parc X
posicio de les: 05/08/2018 23:58:51</description><styleUrl>#w_verdB</styleUrl><Point><coordinates>0.59675931930542,41.6301047801971,0</coordinates></Point></Placemark>
<Placemark><name>I407</name><description>237407 P.GUAITA GUAITA
posicio de les: 05/08/2018 23:59:14</description><styleUrl>#w_verdP</styleUrl><Point><coordinates>0.965992212295532,42.2527742385864,0</coordinates></Point></Placemark>
<Placemark><name>REMN11</name><description>240011 P.Tec REGIÓ
posicio de les: 05/08/2018 23:58:27</description><styleUrl>#w_verdP</styleUrl><Point><coordinates>2.11201429367065,41.5020346641541,0</coordinates></Point></Placemark>
<Placemark><name>E0REMN</name><description>240012 P.Tec REGIÓ
posicio de les: 05/08/2018 23:59:06</description><styleUrl>#w_verdP</styleUrl><Point><coordinates>2.27395534515381,41.5910947322845,0</coordinates></Point></Placemark>
<Placemark><name>REMN14</name><description>240014 P.Tec REGIÓ
posicio de les: 05/08/2018 23:58:00</description><styleUrl>#w_verdP</styleUrl><Point><coordinates>2.02588319778442,41.5680813789368,0</coordinates></Point></Placemark>
<Placemark><name>40091</name><description>240091  REGIÓ
posicio de les: 05/08/2018 23:55:52</description><styleUrl>#w_groc</styleUrl><Point><coordinates>2.11159586906433,41.5022492408752,0</coordinates></Point></Placemark>
<Placemark><name>BAD02</name><description>240202 PORT BAD (Metro. Nord)
posicio de les: 05/08/2018 23:59:01</description><styleUrl>#w_verdP</styleUrl><Point><coordinates>2.23746657371521,41.4653527736664,0</coordinates></Point></Placemark>
<Placemark><name>40290</name><description>240290 UPC BAD (Metro. Nord)
posicio de les: 05/08/2018 23:55:13</description><styleUrl>#w_groc</styleUrl><Point><coordinates>2.0260226726532,41.5679740905762,0</coordinates></Point></Placemark>
<Placemark><name>CER03</name><description>240503 PORT CER (Metro. Nord)
posicio de les: 05/08/2018 23:57:52</description><styleUrl>#w_verdP</styleUrl><Point><coordinates>2.11192846298218,41.5027213096619,0</coordinates></Point></Placemark>
<Placemark><name>GRA01</name><description>240601 PORT GRA (Metro. Nord)
posicio de les: 05/08/2018 23:58:52</description><styleUrl>#w_grocP</styleUrl><Point><coordinates>2.27482438087463,41.5903651714325,0</coordinates></Point></Placemark>
<Placemark><name>GRA13</name><description>240613 PORT GRA (Metro. Nord)
posicio de les: 05/08/2018 23:58:18</description><styleUrl>#w_verdP</styleUrl><Point><coordinates>2.27497458457947,41.590461730957,0</coordinates></Point></Placemark>
<Placemark><name>MAT01</name><description>240901 PORT MAT (Metro. Nord)
posicio de les: 05/08/2018 23:53:55</description><styleUrl>#w_verdP</styleUrl><Point><coordinates>2.42277503013611,41.5320646762848,0</coordinates></Point></Placemark>
<Placemark><name>MAT14</name><description>240914 PORT MAT (Metro. Nord)
posicio de les: 05/08/2018 23:57:34</description><styleUrl>#w_verdP</styleUrl><Point><coordinates>2.42407321929932,41.541109085083,0</coordinates></Point></Placemark>
<Placemark><name>240948</name><description>240948 BUL MAT (Metro. Nord)
posicio de les: 05/08/2018 23:56:40</description><styleUrl>#w_verdC</styleUrl><Point><coordinates>2.42395520210266,41.5405404567719,0</coordinates></Point></Placemark>
<Placemark><name>40960</name><description>240960 AEA/AES/ABA MAT (Metro. Nord)
posicio de les: 05/08/2018 23:56:38</description><styleUrl>#w_verdC</styleUrl><Point><coordinates>2.42420196533203,41.5404331684113,0</coordinates></Point></Placemark>
<Placemark><name>MOL03</name><description>241003 PORT MOL (Metro. Nord)
posicio de les: 05/08/2018 23:57:07</description><styleUrl>#w_verdP</styleUrl><Point><coordinates>2.20114946365356,41.537150144577,0</coordinates></Point></Placemark>
<Placemark><name>MFI01</name><description>241101 PORT MFI (Metro. Nord)
posicio de les: 05/08/2018 23:56:33</description><styleUrl>#w_grocP</styleUrl><Point><coordinates>2.29032754898071,41.6854870319366,0</coordinates></Point></Placemark>
<Placemark><name>MFI05</name><description>241105 PORT MFI (Metro. Nord)
posicio de les: 05/08/2018 23:57:32</description><styleUrl>#w_verdP</styleUrl><Point><coordinates>2.29040265083313,41.6854655742645,0</coordinates></Point></Placemark>
<Placemark><name>41130</name><description>241130 BRP MFI (Metro. Nord)
posicio de les: 05/08/2018 23:59:17</description><styleUrl>#w_grocC</styleUrl><Point><coordinates>2.29050993919373,41.6853260993958,0</coordinates></Point></Placemark>
<Placemark><name>SAB06</name><description>241406 PORT SAB (Metro. Nord)
posicio de les: 05/08/2018 23:57:42</description><styleUrl>#w_verdP</styleUrl><Point><coordinates>2.10413932800293,41.5421068668365,0</coordinates></Point></Placemark>
<Placemark><name>CMSAB20</name><description>241420 PORT SAB (Metro. Nord)
posicio de les: 05/08/2018 23:59:15</description><styleUrl>#w_verdP</styleUrl><Point><coordinates>2.10407495498657,41.5425789356232,0</coordinates></Point></Placemark>
<Placemark><name>241440</name><description>241440 BUP SAB (Metro. Nord)
posicio de les: 05/08/2018 23:56:39</description><styleUrl>#w_grocC</styleUrl><Point><coordinates>2.10428953170776,41.5421068668365,0</coordinates></Point></Placemark>
<Placemark><name>SCG09</name><description>241809 PORT SCG (Metro. Nord)
posicio de les: 05/08/2018 23:58:32</description><styleUrl>#w_verdP</styleUrl><Point><coordinates>2.2093677520752,41.463121175766,0</coordinates></Point></Placemark>
<Placemark><name>241858</name><description>241858 BSAL SCG (Metro. Nord)
posicio de les: 05/08/2018 23:58:32</description><styleUrl>#w_grocB</styleUrl><Point><coordinates>2.20935702323914,41.4631533622742,0</coordinates></Point></Placemark>
<Placemark><name>TER07</name><description>242007 PORT TER (Metro. Nord)
posicio de les: 05/08/2018 23:56:05</description><styleUrl>#w_verdP</styleUrl><Point><coordinates>2.02868342399597,41.5670728683472,0</coordinates></Point></Placemark>
<Placemark><name>TOD56</name><description>242156 PORT.COM TOD (Metro. Nord)
posicio de les: 05/08/2018 23:58:39</description><styleUrl>#w_grocP</styleUrl><Point><coordinates>2.71589756011963,41.6912484169006,0</coordinates></Point></Placemark>
<Placemark><name>D9REMN</name><description>248049  SERVEIS REGIÓ
posicio de les: 05/08/2018 23:57:23</description><styleUrl>#w_verd</styleUrl><Point><coordinates>2.11202502250671,41.5023243427277,0</coordinates></Point></Placemark>
<Placemark><name>50092</name><description>250092  REGIÓ
posicio de les: 05/08/2018 23:56:15</description><styleUrl>#w_verd</styleUrl><Point><coordinates>1.70457601547241,41.3546741008759,0</coordinates></Point></Placemark>
<Placemark><name>COR05</name><description>250405 PORT COR (Metro. Sud)
posicio de les: 05/08/2018 23:59:13</description><styleUrl>#w_verdP</styleUrl><Point><coordinates>2.07109451293945,41.3586974143982,0</coordinates></Point></Placemark>
<Placemark><name>COR10</name><description>250410 PORT COR (Metro. Sud)
posicio de les: 05/08/2018 23:56:29</description><styleUrl>#w_verdP</styleUrl><Point><coordinates>2.07039713859558,41.3611221313477,0</coordinates></Point></Placemark>
<Placemark><name>COR56</name><description>250456 PORT.COM COR (Metro. Sud)
posicio de les: 05/08/2018 23:58:10</description><styleUrl>#w_grocP</styleUrl><Point><coordinates>2.07057952880859,41.3606822490692,0</coordinates></Point></Placemark>
<Placemark><name>GAV01</name><description>250501 PORT GAV (Metro. Sud)
posicio de les: 05/08/2018 23:59:14</description><styleUrl>#w_verdP</styleUrl><Point><coordinates>1.99013471603394,41.2999677658081,0</coordinates></Point></Placemark>
<Placemark><name>GAV56</name><description>250556 PORT.COM GAV (Metro. Sud)
posicio de les: 05/08/2018 23:57:34</description><styleUrl>#w_verdP</styleUrl><Point><coordinates>1.98878288269043,41.3010406494141,0</coordinates></Point></Placemark>
<Placemark><name>HOS02</name><description>250702 PORT HOS (Metro. Sud)
posicio de les: 05/08/2018 23:58:30</description><styleUrl>#w_verdP</styleUrl><Point><coordinates>2.1052873134613,41.3702201843262,0</coordinates></Point></Placemark>
<Placemark><name>LLA03</name><description>250903 PORT LLA (Metro. Sud)
posicio de les: 05/08/2018 23:57:19</description><styleUrl>#w_grocP</styleUrl><Point><coordinates>1.53032898902893,41.4733242988586,0</coordinates></Point></Placemark>
<Placemark><name>MAR11</name><description>251011 PORT MAR (Metro. Sud)
posicio de les: 05/08/2018 23:58:39</description><styleUrl>#w_verdP</styleUrl><Point><coordinates>1.90574169158936,41.4975821971893,0</coordinates></Point></Placemark>
<Placemark><name>MAR57</name><description>251057 PORT.COM MAR (Metro. Sud)
posicio de les: 05/08/2018 23:59:17</description><styleUrl>#w_grocP</styleUrl><Point><coordinates>1.90796256065369,41.4988696575165,0</coordinates></Point></Placemark>
<Placemark><name>251230</name><description>251230 BRP PLL (Metro. Sud)
posicio de les: 05/08/2018 23:55:50</description><styleUrl>#w_verdC</styleUrl><Point><coordinates>2.0810079574585,41.31760597229,0</coordinates></Point></Placemark>
<Placemark><name>PLL57</name><description>251257 PORT.COM PLL (Metro. Sud)
posicio de les: 05/08/2018 23:57:16</description><styleUrl>#w_grocP</styleUrl><Point><coordinates>2.08174824714661,41.3173592090607,0</coordinates></Point></Placemark>
<Placemark><name>SBOI57</name><description>251357 PORT.COM SBOI (Metro. Sud)
posicio de les: 05/08/2018 23:57:17</description><styleUrl>#w_verdP</styleUrl><Point><coordinates>2.03381180763245,41.3225197792053,0</coordinates></Point></Placemark>
<Placemark><name>SFE57</name><description>251557 PORT.COM SFE (Metro. Sud)
posicio de les: 05/08/2018 23:59:21</description><styleUrl>#w_verdP</styleUrl><Point><coordinates>2.04345703125,41.3885772228241,0</coordinates></Point></Placemark>
<Placemark><name>CMS15</name><description>254515 PORT Parc X
posicio de les: 05/08/2018 23:58:22</description><styleUrl>#w_verdP</styleUrl><Point><coordinates>1.70415759086609,41.354888677597,0</coordinates></Point></Placemark>
<Placemark><name>I215</name><description>257215 P.GUAITA GUAITA
posicio de les: 05/08/2018 23:56:57</description><styleUrl>#w_grocP</styleUrl><Point><coordinates>1.66410684585571,41.4995241165161,0</coordinates></Point></Placemark>
<Placemark><name>D1REMS</name><description>258041  SERVEIS REGIÓ
posicio de les: 05/08/2018 23:58:07</description><styleUrl>#w_verd</styleUrl><Point><coordinates>2.03361868858337,41.3225412368774,0</coordinates></Point></Placemark>
<Placemark><name>RET11</name><description>260011 P.Tec REGIÓ
posicio de les: 05/08/2018 23:56:44</description><styleUrl>#w_verdP</styleUrl><Point><coordinates>1.185622215271,41.1347222328186,0</coordinates></Point></Placemark>
<Placemark><name>FALS06</name><description>260406 PORT FALS (Tarragona)
posicio de les: 05/08/2018 23:57:51</description><styleUrl>#w_verdP</styleUrl><Point><coordinates>0.823212862014771,41.1473393440247,0</coordinates></Point></Placemark>
<Placemark><name>260508</name><description>260508 PORT HOSP (Tarragona)
posicio de les: 05/08/2018 23:59:00</description><styleUrl>#w_grocP</styleUrl><Point><coordinates>0.919826030731201,40.9936380386353,0</coordinates></Point></Placemark>
<Placemark><name>MONT02</name><description>260602 PORT MONT (Tarragona)
posicio de les: 05/08/2018 23:58:12</description><styleUrl>#w_grocP</styleUrl><Point><coordinates>0.630608797073364,41.6165006160736,0</coordinates></Point></Placemark>
<Placemark><name>60844</name><description>260844 BNP REUS (Tarragona)
posicio de les: 05/08/2018 23:56:39</description><styleUrl>#w_grocC</styleUrl><Point><coordinates>1.11810564994812,41.1509335041046,0</coordinates></Point></Placemark>
<Placemark><name>60890</name><description>260890 UPC REUS (Tarragona)
posicio de les: 05/08/2018 23:54:59</description><styleUrl>#w_verd</styleUrl><Point><coordinates>1.11796617507935,41.1506330966949,0</coordinates></Point></Placemark>
<Placemark><name>61234</name><description>261234 BFP TARR (Tarragona)
posicio de les: 05/08/2018 23:57:24</description><styleUrl>#w_verdC</styleUrl><Point><coordinates>1.22074842453003,41.1148846149445,0</coordinates></Point></Placemark>
<Placemark><name>VALS56</name><description>261356 PORT.COM VALS (Tarragona)
posicio de les: 05/08/2018 23:55:35</description><styleUrl>#w_verdP</styleUrl><Point><coordinates>1.26074552536011,41.3069522380829,0</coordinates></Point></Placemark>
<Placemark><name>61390</name><description>261390 UPC VALS (Tarragona)
posicio de les: 05/08/2018 23:55:02</description><styleUrl>#w_verd</styleUrl><Point><coordinates>1.25971555709839,41.3068878650665,0</coordinates></Point></Placemark>
<Placemark><name>E00RETE</name><description>270014 P.Tec REGIÓ
posicio de les: 05/08/2018 23:57:34</description><styleUrl>#w_verdP</styleUrl><Point><coordinates>0.513299703598022,40.8194017410278,0</coordinates></Point></Placemark>
<Placemark><name>AMET05</name><description>272005 PORT AMET (Terres de l'Ebre)
posicio de les: 05/08/2018 23:57:46</description><styleUrl>#w_verdP</styleUrl><Point><coordinates>0.797806978225708,40.8901476860046,0</coordinates></Point></Placemark>
<Placemark><name>GAND56</name><description>272656 PORT.COM GAND (Terres de l'Ebre)
posicio de les: 05/08/2018 23:57:14</description><styleUrl>#w_verdP</styleUrl><Point><coordinates>0.439141988754272,41.0585582256317,0</coordinates></Point></Placemark>
<Placemark><name>MORA56</name><description>272856 PORT.COM MORA (Terres de l'Ebre)
posicio de les: 05/08/2018 23:58:57</description><styleUrl>#w_verdP</styleUrl><Point><coordinates>0.629600286483765,41.0860455036163,0</coordinates></Point></Placemark>
<Placemark><name>ULLD04</name><description>273104 PORT ULLD (Terres de l'Ebre)
posicio de les: 05/08/2018 23:58:20</description><styleUrl>#w_verdP</styleUrl><Point><coordinates>0.358525514602661,40.6086552143097,0</coordinates></Point></Placemark>
<Placemark><name>ULLD08</name><description>273108 PORT ULLD (Terres de l'Ebre)
posicio de les: 05/08/2018 23:58:21</description><styleUrl>#w_grocP</styleUrl><Point><coordinates>0.358718633651733,40.6084942817688,0</coordinates></Point></Placemark>
<Placemark><name>E_93</name><description>278031  SERVEIS REGIÓ
posicio de les: 05/08/2018 23:58:57</description><styleUrl>#w_verd</styleUrl><Point><coordinates>0.512924194335938,40.8191120624542,0</coordinates></Point></Placemark>
</Folder>
<Folder>
<name>Descarregues</name>
</Folder>
<Style id="w_verdP_n"><IconStyle><color>ff00ff00</color><scale>1.0</scale><Icon><href>http://maps.google.com/mapfiles/kml/shapes/man.png</href></Icon><hotSpot x="0.5" y="0" xunits="fraction" yunits="fraction"/></IconStyle><LabelStyle><scale>0.7</scale></LabelStyle></Style>
<Style id="w_verdP_s"><IconStyle><color>ff00ff00</color><scale>1.4</scale><Icon><href>http://maps.google.com/mapfiles/kml/shapes/man.png</href></Icon><hotSpot x="0.5" y="0" xunits="fraction" yunits="fraction"/></IconStyle><LabelStyle><scale>0.7</scale></LabelStyle></Style>
<StyleMap id="w_verdP"><Pair><key>normal</key><styleUrl>#w_verdP_n</styleUrl></Pair><Pair><key>highlight</key><styleUrl>#w_verdP_s</styleUrl></Pair></StyleMap>
<Style id="w_verd_n"><IconStyle><color>ff00ff00</color><scale>0.7</scale><Icon><href>http://maps.google.com/mapfiles/kml/shapes/cabs.png</href></Icon><hotSpot x="0.5" y="0" xunits="fraction" yunits="fraction"/></IconStyle><LabelStyle><scale>0.7</scale></LabelStyle></Style>
<Style id="w_verd_s"><IconStyle><color>ff00ff00</color><scale>1.0</scale><Icon><href>http://maps.google.com/mapfiles/kml/shapes/cabs.png</href></Icon><hotSpot x="0.5" y="0" xunits="fraction" yunits="fraction"/></IconStyle><LabelStyle><scale>0.7</scale></LabelStyle></Style>
<StyleMap id="w_verd"><Pair><key>normal</key><styleUrl>#w_verd_n</styleUrl></Pair><Pair><key>highlight</key><styleUrl>#w_verd_s</styleUrl></Pair></StyleMap>
<Style id="w_verdC_n"><IconStyle><color>ff00ff00</color><scale>1.0</scale><Icon><href>http://maps.google.com/mapfiles/kml/shapes/truck.png</href></Icon><hotSpot x="0.5" y="0" xunits="fraction" yunits="fraction"/></IconStyle><LabelStyle><scale>0.7</scale></LabelStyle></Style>
<Style id="w_verdC_s"><IconStyle><color>ff00ff00</color><scale>1.4</scale><Icon><href>http://maps.google.com/mapfiles/kml/shapes/truck.png</href></Icon><hotSpot x="0.5" y="0" xunits="fraction" yunits="fraction"/></IconStyle><LabelStyle><scale>0.7</scale></LabelStyle></Style>
<StyleMap id="w_verdC"><Pair><key>normal</key><styleUrl>#w_verdC_n</styleUrl></Pair><Pair><key>highlight</key><styleUrl>#w_verdC_s</styleUrl></Pair></StyleMap>
<Style id="w_verdH_n"><IconStyle><color>ff0000ff</color><scale>1.2</scale><Icon><href>http://maps.google.com/mapfiles/kml/shapes/heliport.png</href></Icon><hotSpot x="0.5" y="0" xunits="fraction" yunits="fraction"/></IconStyle><LabelStyle><scale>0.7</scale></LabelStyle></Style>
<Style id="w_verdH_s"><IconStyle><color>ff0000ff</color><scale>1.4</scale><Icon><href>http://maps.google.com/mapfiles/kml/shapes/heliport.png</href></Icon><hotSpot x="0.5" y="0" xunits="fraction" yunits="fraction"/></IconStyle><LabelStyle><scale>0.7</scale></LabelStyle></Style>
<StyleMap id="w_verdH"><Pair><key>normal</key><styleUrl>#w_verdH_n</styleUrl></Pair><Pair><key>highlight</key><styleUrl>#w_verdH_s</styleUrl></Pair></StyleMap>
<Style id="w_verdA_n"><IconStyle><color>ff0000ff</color><scale>1.2</scale><Icon><href>http://maps.google.com/mapfiles/kml/shapes/airports.png</href></Icon><hotSpot x="0.5" y="0" xunits="fraction" yunits="fraction"/></IconStyle><LabelStyle><scale>0.7</scale></LabelStyle></Style>
<Style id="w_verdA_s"><IconStyle><color>ff0000ff</color><scale>1.4</scale><Icon><href>http://maps.google.com/mapfiles/kml/shapes/airports.png</href></Icon><hotSpot x="0.5" y="0" xunits="fraction" yunits="fraction"/></IconStyle><LabelStyle><scale>0.7</scale></LabelStyle></Style>
<StyleMap id="w_verdA"><Pair><key>normal</key><styleUrl>#w_verdA_n</styleUrl></Pair><Pair><key>highlight</key><styleUrl>#w_verdA_s</styleUrl></Pair></StyleMap>
<Style id="w_verdB_n"><IconStyle><color>ff00ff00</color><scale>1.0</scale><Icon><href>http://maps.google.com/mapfiles/kml/shapes/sailing.png</href></Icon><hotSpot x="0.5" y="0" xunits="fraction" yunits="fraction"/></IconStyle><LabelStyle><scale>0.7</scale></LabelStyle></Style>
<Style id="w_verdB_s"><IconStyle><color>ff00ff00</color><scale>1.4</scale><Icon><href>http://maps.google.com/mapfiles/kml/shapes/sailing.png</href></Icon><hotSpot x="0.5" y="0" xunits="fraction" yunits="fraction"/></IconStyle><LabelStyle><scale>0.7</scale></LabelStyle></Style>
<StyleMap id="w_verdB"><Pair><key>normal</key><styleUrl>#w_verdBAR_n</styleUrl></Pair><Pair><key>highlight</key><styleUrl>#w_verdBAR_s</styleUrl></Pair></StyleMap>
<Style id="w_grocP_n"><IconStyle><color>ff00ffff</color><scale>1.0</scale><Icon><href>http://maps.google.com/mapfiles/kml/shapes/man.png</href></Icon><hotSpot x="0.5" y="0" xunits="fraction" yunits="fraction"/></IconStyle><LabelStyle><scale>0.7</scale></LabelStyle></Style>
<Style id="w_grocP_s"><IconStyle><color>ff00ffff</color><scale>1.4</scale><Icon><href>http://maps.google.com/mapfiles/kml/shapes/man.png</href></Icon><hotSpot x="0.5" y="0" xunits="fraction" yunits="fraction"/></IconStyle><LabelStyle><scale>0.7</scale></LabelStyle></Style>
<StyleMap id="w_grocP"><Pair><key>normal</key><styleUrl>#w_grocP_n</styleUrl></Pair><Pair><key>highlight</key><styleUrl>#w_grocP_s</styleUrl></Pair></StyleMap>
<Style id="w_groc_n"><IconStyle><color>ff00ffff</color><scale>0.7</scale><Icon><href>http://maps.google.com/mapfiles/kml/shapes/cabs.png</href></Icon><hotSpot x="0.5" y="0" xunits="fraction" yunits="fraction"/></IconStyle><LabelStyle><scale>0.7</scale></LabelStyle></Style>
<Style id="w_groc_s"><IconStyle><color>ff00ffff</color><scale>1.0</scale><Icon><href>http://maps.google.com/mapfiles/kml/shapes/cabs.png</href></Icon><hotSpot x="0.5" y="0" xunits="fraction" yunits="fraction"/></IconStyle><LabelStyle><scale>0.7</scale></LabelStyle></Style>
<StyleMap id="w_groc"><Pair><key>normal</key><styleUrl>#w_groc_n</styleUrl></Pair><Pair><key>highlight</key><styleUrl>#w_groc_s</styleUrl></Pair></StyleMap>
<Style id="w_grocC_n"><IconStyle><color>ff00ffff</color><scale>1.0</scale><Icon><href>http://maps.google.com/mapfiles/kml/shapes/truck.png</href></Icon><hotSpot x="0.5" y="0" xunits="fraction" yunits="fraction"/></IconStyle><LabelStyle><scale>0.7</scale></LabelStyle></Style>
<Style id="w_grocC_s"><IconStyle><color>ff00ffff</color><scale>1.4</scale><Icon><href>http://maps.google.com/mapfiles/kml/shapes/truck.png</href></Icon><hotSpot x="0.5" y="0" xunits="fraction" yunits="fraction"/></IconStyle><LabelStyle><scale>0.7</scale></LabelStyle></Style>
<StyleMap id="w_grocC"><Pair><key>normal</key><styleUrl>#w_grocC_n</styleUrl></Pair><Pair><key>highlight</key><styleUrl>#w_grocC_s</styleUrl></Pair></StyleMap>
<Style id="w_grocH_n"><IconStyle><color>ff0000ff</color><scale>1.2</scale><Icon><href>http://maps.google.com/mapfiles/kml/shapes/heliport.png</href></Icon><hotSpot x="0.5" y="0" xunits="fraction" yunits="fraction"/></IconStyle><LabelStyle><scale>0.7</scale></LabelStyle></Style>
<Style id="w_grocH_s"><IconStyle><color>ff0000ff</color><scale>1.4</scale><Icon><href>http://maps.google.com/mapfiles/kml/shapes/heliport.png</href></Icon><hotSpot x="0.5" y="0" xunits="fraction" yunits="fraction"/></IconStyle><LabelStyle><scale>0.7</scale></LabelStyle></Style>
<StyleMap id="w_grocH"><Pair><key>normal</key><styleUrl>#w_grocH_n</styleUrl></Pair><Pair><key>highlight</key><styleUrl>#w_grocH_s</styleUrl></Pair></StyleMap>
<Style id="w_grocA_n"><IconStyle><color>ff0000ff</color><scale>1.2</scale><Icon><href>http://maps.google.com/mapfiles/kml/shapes/airports.png</href></Icon><hotSpot x="0.5" y="0" xunits="fraction" yunits="fraction"/></IconStyle><LabelStyle><scale>0.7</scale></LabelStyle></Style>
<Style id="w_grocA_s"><IconStyle><color>ff0000ff</color><scale>1.4</scale><Icon><href>http://maps.google.com/mapfiles/kml/shapes/airports.png</href></Icon><hotSpot x="0.5" y="0" xunits="fraction" yunits="fraction"/></IconStyle><LabelStyle><scale>0.7</scale></LabelStyle></Style>
<StyleMap id="w_grocA"><Pair><key>normal</key><styleUrl>#w_grocA_n</styleUrl></Pair><Pair><key>highlight</key><styleUrl>#w_grocA_s</styleUrl></Pair></StyleMap>
<Style id="w_grocB_n"><IconStyle><color>ff00ffff</color><scale>1.0</scale><Icon><href>http://maps.google.com/mapfiles/kml/shapes/sailing.png</href></Icon><hotSpot x="0.5" y="0" xunits="fraction" yunits="fraction"/></IconStyle><LabelStyle><scale>0.7</scale></LabelStyle></Style>
<Style id="w_grocB_s"><IconStyle><color>ff00ffff</color><scale>1.4</scale><Icon><href>http://maps.google.com/mapfiles/kml/shapes/sailing.png</href></Icon><hotSpot x="0.5" y="0" xunits="fraction" yunits="fraction"/></IconStyle><LabelStyle><scale>0.7</scale></LabelStyle></Style>
<StyleMap id="w_grocB"><Pair><key>normal</key><styleUrl>#w_grocBAR_n</styleUrl></Pair><Pair><key>highlight</key><styleUrl>#w_grocBAR_s</styleUrl></Pair></StyleMap>
<Style id="w_vermellP_n"><IconStyle><color>ff0000ff</color><scale>1.0</scale><Icon><href>http://maps.google.com/mapfiles/kml/shapes/man.png</href></Icon><hotSpot x="0.5" y="0" xunits="fraction" yunits="fraction"/></IconStyle><LabelStyle><scale>0.7</scale></LabelStyle></Style>
<Style id="w_vermellP_s"><IconStyle><color>ff0000ff</color><scale>1.4</scale><Icon><href>http://maps.google.com/mapfiles/kml/shapes/man.png</href></Icon><hotSpot x="0.5" y="0" xunits="fraction" yunits="fraction"/></IconStyle><LabelStyle><scale>0.7</scale></LabelStyle></Style>
<StyleMap id="w_vermellP"><Pair><key>normal</key><styleUrl>#w_vermellP_n</styleUrl></Pair><Pair><key>highlight</key><styleUrl>#w_vermellP_s</styleUrl></Pair></StyleMap>
<Style id="w_vermell_n"><IconStyle><color>ff0000ff</color><scale>0.7</scale><Icon><href>http://maps.google.com/mapfiles/kml/shapes/cabs.png</href></Icon><hotSpot x="0.5" y="0" xunits="fraction" yunits="fraction"/></IconStyle><LabelStyle><scale>0.7</scale></LabelStyle></Style>
<Style id="w_vermell_s"><IconStyle><color>ff0000ff</color><scale>1.0</scale><Icon><href>http://maps.google.com/mapfiles/kml/shapes/cabs.png</href></Icon><hotSpot x="0.5" y="0" xunits="fraction" yunits="fraction"/></IconStyle><LabelStyle><scale>0.7</scale></LabelStyle></Style>
<StyleMap id="w_vermell"><Pair><key>normal</key><styleUrl>#w_vermell_n</styleUrl></Pair><Pair><key>highlight</key><styleUrl>#w_vermell_s</styleUrl></Pair></StyleMap>
<Style id="w_vermellC_n"><IconStyle><color>ff0000ff</color><scale>1.0</scale><Icon><href>http://maps.google.com/mapfiles/kml/shapes/truck.png</href></Icon><hotSpot x="0.5" y="0" xunits="fraction" yunits="fraction"/></IconStyle><LabelStyle><scale>0.7</scale></LabelStyle></Style>
<Style id="w_vermellC_s"><IconStyle><color>ff0000ff</color><scale>1.4</scale><Icon><href>http://maps.google.com/mapfiles/kml/shapes/truck.png</href></Icon><hotSpot x="0.5" y="0" xunits="fraction" yunits="fraction"/></IconStyle><LabelStyle><scale>0.7</scale></LabelStyle></Style>
<StyleMap id="w_vermellC"><Pair><key>normal</key><styleUrl>#w_vermellC_n</styleUrl></Pair><Pair><key>highlight</key><styleUrl>#w_vermellC_s</styleUrl></Pair></StyleMap>
<Style id="w_vermellH_n"><IconStyle><color>ff0000ff</color><scale>1.2</scale><Icon><href>http://maps.google.com/mapfiles/kml/shapes/heliport.png</href></Icon><hotSpot x="0.5" y="0" xunits="fraction" yunits="fraction"/></IconStyle><LabelStyle><scale>0.7</scale></LabelStyle></Style>
<Style id="w_vermellH_s"><IconStyle><color>ff0000ff</color><scale>1.4</scale><Icon><href>http://maps.google.com/mapfiles/kml/shapes/heliport.png</href></Icon><hotSpot x="0.5" y="0" xunits="fraction" yunits="fraction"/></IconStyle><LabelStyle><scale>0.7</scale></LabelStyle></Style>
<StyleMap id="w_vermellH"><Pair><key>normal</key><styleUrl>#w_vermellH_n</styleUrl></Pair><Pair><key>highlight</key><styleUrl>#w_vermellH_s</styleUrl></Pair></StyleMap>
<Style id="w_vermellA_n"><IconStyle><color>ff0000ff</color><scale>1.2</scale><Icon><href>http://maps.google.com/mapfiles/kml/shapes/airports.png</href></Icon><hotSpot x="0.5" y="0" xunits="fraction" yunits="fraction"/></IconStyle><LabelStyle><scale>0.7</scale></LabelStyle></Style>
<Style id="w_vermellA_s"><IconStyle><color>ff0000ff</color><scale>1.4</scale><Icon><href>http://maps.google.com/mapfiles/kml/shapes/airports.png</href></Icon><hotSpot x="0.5" y="0" xunits="fraction" yunits="fraction"/></IconStyle><LabelStyle><scale>0.7</scale></LabelStyle></Style>
<StyleMap id="w_vermellA"><Pair><key>normal</key><styleUrl>#w_vermellA_n</styleUrl></Pair><Pair><key>highlight</key><styleUrl>#w_vermellA_s</styleUrl></Pair></StyleMap>
<Style id="w_vermellB_n"><IconStyle><color>ff0000ff</color><scale>1.0</scale><Icon><href>http://maps.google.com/mapfiles/kml/shapes/sailing.png</href></Icon><hotSpot x="0.5" y="0" xunits="fraction" yunits="fraction"/></IconStyle><LabelStyle><scale>0.7</scale></LabelStyle></Style>
<Style id="w_vermellB_s"><IconStyle><color>ff0000ff</color><scale>1.4</scale><Icon><href>http://maps.google.com/mapfiles/kml/shapes/sailing.png</href></Icon><hotSpot x="0.5" y="0" xunits="fraction" yunits="fraction"/></IconStyle><LabelStyle><scale>0.7</scale></LabelStyle></Style>
<StyleMap id="w_vermellB"><Pair><key>normal</key><styleUrl>#w_vermellBAR_n</styleUrl></Pair><Pair><key>highlight</key><styleUrl>#w_vermellBAR_s</styleUrl></Pair></StyleMap>
<Style id="w_descarrega"><IconStyle><color>ff00ffff</color><scale>0.5</scale><Icon><href>http://maps.google.com/mapfiles/kml/shapes/road_shield3.png</href></Icon></IconStyle><LabelStyle><scale>0.7</scale></LabelStyle></Style><Style id="actuacio"><IconStyle><color>ff00ffff</color><scale>0.8</scale><Icon><href>http://maps.google.com/mapfiles/kml/shapes/caution.png</href></Icon></IconStyle><LabelStyle><scale>0.7</scale></LabelStyle></Style></Document></kml>