<?xml version="1.0" encoding="UTF-8"?>
<kml xmlns="http://www.opengis.net/kml/2.2" xmlns:gx="http://www.google.com/kml/ext/2.2" xmlns:kml="http://www.opengis.net/kml/2.2" xmlns:atom="http://www.w3.org/2005/Atom">
<Document>
<name>Terminals</name>
<Snippet maxLines="2">Created 06/08/2018 00:06:20</Snippet>
<Folder>
<name>Terminals</name>
<Placemark><name>02063</name><description>202063 GEM
posicio de les: 06/08/2018 00:04:07</description><styleUrl>#w_groc</styleUrl><Point><coordinates>2.11151003837585,41.5022706985474,0</coordinates></Point></Placemark>
<Placemark><name>GGRAF08</name><description>204208 P.UT
posicio de les: 06/08/2018 00:06:21</description><styleUrl>#w_grocP</styleUrl><Point><coordinates>2.97428011894226,42.0293784141541,0</coordinates></Point></Placemark>
<Placemark><name>GGRAF10</name><description>204210 P.UT
posicio de les: 06/08/2018 00:05:55</description><styleUrl>#w_verdP</styleUrl><Point><coordinates>2.97463417053223,42.0295286178589,0</coordinates></Point></Placemark>
<Placemark><name>LGRAF02</name><description>204302 P.UT
posicio de les: 06/08/2018 00:04:21</description><styleUrl>#w_grocP</styleUrl><Point><coordinates>0.889281034469604,42.1648192405701,0</coordinates></Point></Placemark>
<Placemark><name>BGRAF08</name><description>204408 P.UT
posicio de les: 06/08/2018 00:06:01</description><styleUrl>#w_verdP</styleUrl><Point><coordinates>1.8526017665863,41.7414271831512,0</coordinates></Point></Placemark>
<Placemark><name>OP05087</name><description>205287 OP.AAV
posicio de les: 06/08/2018 00:05:54</description><styleUrl>#w_verdP</styleUrl><Point><coordinates>1.15771651268005,41.1482620239258,0</coordinates></Point></Placemark>
<Placemark><name>VIEL17</name><description>208017 BASE CCA VARAN
posicio de les: 06/08/2018 00:05:18</description><styleUrl>#w_groc</styleUrl><Point><coordinates>0.796669721603394,42.7080738544464,0</coordinates></Point></Placemark>
<Placemark><name>BER57</name><description>210357 PORT.COM BER (Centre)
posicio de les: 06/08/2018 00:05:45</description><styleUrl>#w_verdP</styleUrl><Point><coordinates>1.85750484466553,42.103933095932,0</coordinates></Point></Placemark>
<Placemark><name>CAF04</name><description>210404 PORT CAF (Centre)
posicio de les: 06/08/2018 00:05:28</description><styleUrl>#w_verdP</styleUrl><Point><coordinates>0.673105716705322,41.6072309017181,0</coordinates></Point></Placemark>
<Placemark><name>10430</name><description>210430 BRP CAF (Centre)
posicio de les: 06/08/2018 00:06:12</description><styleUrl>#w_verdC</styleUrl><Point><coordinates>0.674103498458862,41.6080677509308,0</coordinates></Point></Placemark>
<Placemark><name>CAB56</name><description>210656 PORT.COM CAB (Centre)
posicio de les: 06/08/2018 00:06:02</description><styleUrl>#w_grocP</styleUrl><Point><coordinates>1.68514609336853,41.6657996177673,0</coordinates></Point></Placemark>
<Placemark><name>MAN01</name><description>211001 PORT MAN (Centre)
posicio de les: 06/08/2018 00:06:19</description><styleUrl>#w_grocP</styleUrl><Point><coordinates>1.82190656661987,41.7211067676544,0</coordinates></Point></Placemark>
<Placemark><name>11040</name><description>211040 BUP MAN (Centre)
posicio de les: 06/08/2018 00:03:22</description><styleUrl>#w_grocC</styleUrl><Point><coordinates>1.82201385498047,41.721214056015,0</coordinates></Point></Placemark>
<Placemark><name>11060</name><description>211060 AEA/AES/ABA MAN (Centre)
posicio de les: 06/08/2018 00:03:29</description><styleUrl>#w_grocC</styleUrl><Point><coordinates>1.82178854942322,41.721203327179,0</coordinates></Point></Placemark>
<Placemark><name>PRA07</name><description>211407 PORT PRA (Centre)
posicio de les: 06/08/2018 00:04:14</description><styleUrl>#w_grocP</styleUrl><Point><coordinates>2.03602194786072,42.00812458992,0</coordinates></Point></Placemark>
<Placemark><name>TOR02</name><description>212002 PORT TOR (Centre)
posicio de les: 06/08/2018 00:05:44</description><styleUrl>#w_verdP</styleUrl><Point><coordinates>2.26717472076416,42.0487010478973,0</coordinates></Point></Placemark>
<Placemark><name>12130</name><description>212130 BRP VIC (Centre)
posicio de les: 06/08/2018 00:06:10</description><styleUrl>#w_verdC</styleUrl><Point><coordinates>2.21625566482544,41.9720435142517,0</coordinates></Point></Placemark>
<Placemark><name>20091</name><description>220091  REGIÓ
posicio de les: 06/08/2018 00:02:11</description><styleUrl>#w_groc</styleUrl><Point><coordinates>2.76790022850037,41.9415307044983,0</coordinates></Point></Placemark>
<Placemark><name>20093</name><description>220093  REGIÓ
posicio de les: 06/08/2018 00:03:59</description><styleUrl>#w_groc</styleUrl><Point><coordinates>2.76778221130371,41.9416379928589,0</coordinates></Point></Placemark>
<Placemark><name>20130</name><description>220130 BRP AMER (Girona)
posicio de les: 06/08/2018 00:05:54</description><styleUrl>#w_verdC</styleUrl><Point><coordinates>2.80211448669434,41.969393491745,0</coordinates></Point></Placemark>
<Placemark><name>AMER56</name><description>220156 PORT.COM AMER (Girona)
posicio de les: 06/08/2018 00:05:19</description><styleUrl>#w_verdP</styleUrl><Point><coordinates>2.80288696289063,41.9709062576294,0</coordinates></Point></Placemark>
<Placemark><name>AMER57</name><description>220157 PORT.COM AMER (Girona)
posicio de les: 06/08/2018 00:03:27</description><styleUrl>#w_verdP</styleUrl><Point><coordinates>2.59621739387512,42.0120191574097,0</coordinates></Point></Placemark>
<Placemark><name>20330</name><description>220330 BRP BANY (Girona)
posicio de les: 06/08/2018 00:03:11</description><styleUrl>#w_verdC</styleUrl><Point><coordinates>2.78456211090088,42.116185426712,0</coordinates></Point></Placemark>
<Placemark><name>BANY56</name><description>220356 PORT.COM BANY (Girona)
posicio de les: 06/08/2018 00:06:18</description><styleUrl>#w_verdP</styleUrl><Point><coordinates>2.78546333312988,42.1175801753998,0</coordinates></Point></Placemark>
<Placemark><name>PERA03</name><description>220403 PORT PERA (Girona)
posicio de les: 06/08/2018 00:06:02</description><styleUrl>#w_verdP</styleUrl><Point><coordinates>2.97349691390991,42.0292067527771,0</coordinates></Point></Placemark>
<Placemark><name>PERA04</name><description>220404 PORT PERA (Girona)
posicio de les: 06/08/2018 00:03:58</description><styleUrl>#w_verdP</styleUrl><Point><coordinates>2.97458052635193,42.0301508903503,0</coordinates></Point></Placemark>
<Placemark><name>20430</name><description>220430 BRP PERA (Girona)
posicio de les: 06/08/2018 00:02:54</description><styleUrl>#w_grocC</styleUrl><Point><coordinates>2.76851177215576,41.9416058063507,0</coordinates></Point></Placemark>
<Placemark><name>20434</name><description>220434 BFP PERA (Girona)
posicio de les: 06/08/2018 00:06:11</description><styleUrl>#w_verdC</styleUrl><Point><coordinates>2.97489166259766,42.0298612117767,0</coordinates></Point></Placemark>
<Placemark><name>20830</name><description>220830 BRP CASS (Girona)
posicio de les: 06/08/2018 00:02:27</description><styleUrl>#w_grocC</styleUrl><Point><coordinates>2.76802897453308,41.9415307044983,0</coordinates></Point></Placemark>
<Placemark><name>CASS56</name><description>220856 PORT.COM CASS (Girona)
posicio de les: 06/08/2018 00:05:09</description><styleUrl>#w_verdP</styleUrl><Point><coordinates>2.76793241500854,41.9416379928589,0</coordinates></Point></Placemark>
<Placemark><name>FIGU56</name><description>221056 PORT.COM FIGU (Girona)
posicio de les: 06/08/2018 00:05:18</description><styleUrl>#w_verdP</styleUrl><Point><coordinates>2.97053575515747,42.2720432281494,0</coordinates></Point></Placemark>
<Placemark><name>21130</name><description>221130 BRP GIRO (Girona)
posicio de les: 06/08/2018 00:02:38</description><styleUrl>#w_grocC</styleUrl><Point><coordinates>2.76858687400818,41.9416487216949,0</coordinates></Point></Placemark>
<Placemark><name>21131</name><description>221131 BRP GIRO (Girona)
posicio de les: 06/08/2018 00:04:48</description><styleUrl>#w_grocC</styleUrl><Point><coordinates>2.76839375495911,41.9415843486786,0</coordinates></Point></Placemark>
<Placemark><name>221244</name><description>221244 BNP HOST (Girona)
posicio de les: 06/08/2018 00:02:38</description><styleUrl>#w_grocC</styleUrl><Point><coordinates>2.76818990707397,41.9416379928589,0</coordinates></Point></Placemark>
<Placemark><name>HOST57</name><description>221257 PORT.COM HOST (Girona)
posicio de les: 06/08/2018 00:05:18</description><styleUrl>#w_verdP</styleUrl><Point><coordinates>2.62447714805603,41.7480790615082,0</coordinates></Point></Placemark>
<Placemark><name>21330</name><description>221330 BRP JONQ (Girona)
posicio de les: 06/08/2018 00:06:13</description><styleUrl>#w_verdC</styleUrl><Point><coordinates>2.88993000984192,42.3809409141541,0</coordinates></Point></Placemark>
<Placemark><name>JONQ56</name><description>221356 PORT.COM JONQ (Girona)
posicio de les: 06/08/2018 00:06:17</description><styleUrl>#w_verdP</styleUrl><Point><coordinates>2.88931846618652,42.3817777633667,0</coordinates></Point></Placemark>
<Placemark><name>LLAN57</name><description>221457 PORT.COM LLAN (Girona)
posicio de les: 06/08/2018 00:05:16</description><styleUrl>#w_grocP</styleUrl><Point><coordinates>3.15263628959656,42.3574447631836,0</coordinates></Point></Placemark>
<Placemark><name>LLOR56</name><description>221556 PORT.COM LLOR (Girona)
posicio de les: 06/08/2018 00:04:05</description><styleUrl>#w_grocP</styleUrl><Point><coordinates>2.83632874488831,41.6999173164368,0</coordinates></Point></Placemark>
<Placemark><name>MAÇA57</name><description>221657 PORT.COM MACA (Girona)
posicio de les: 06/08/2018 00:03:43</description><styleUrl>#w_verdP</styleUrl><Point><coordinates>2.75290131568909,41.7793428897858,0</coordinates></Point></Placemark>
<Placemark><name>OLOT56</name><description>221756 PORT.COM OLOT (Girona)
posicio de les: 06/08/2018 00:06:15</description><styleUrl>#w_verdP</styleUrl><Point><coordinates>2.47508883476257,42.1896886825562,0</coordinates></Point></Placemark>
<Placemark><name>OLOT57</name><description>221757 PORT.COM OLOT (Girona)
posicio de les: 06/08/2018 00:05:53</description><styleUrl>#w_verdP</styleUrl><Point><coordinates>2.47475624084473,42.1902251243591,0</coordinates></Point></Placemark>
<Placemark><name>PALA06</name><description>221806 PORT PALA (Girona)
posicio de les: 06/08/2018 00:05:31</description><styleUrl>#w_verdP</styleUrl><Point><coordinates>3.15564036369324,41.9258666038513,0</coordinates></Point></Placemark>
<Placemark><name>PALA57</name><description>221857 PORT.COM PALA (Girona)
posicio de les: 06/08/2018 00:04:49</description><styleUrl>#w_grocP</styleUrl><Point><coordinates>3.15603733062744,41.9256842136383,0</coordinates></Point></Placemark>
<Placemark><name>RIPO56</name><description>222156 PORT.COM RIPO (Girona)
posicio de les: 06/08/2018 00:04:24</description><styleUrl>#w_verdP</styleUrl><Point><coordinates>2.16837286949158,42.2147941589355,0</coordinates></Point></Placemark>
<Placemark><name>RIPO57</name><description>222157 PORT.COM RIPO (Girona)
posicio de les: 06/08/2018 00:06:00</description><styleUrl>#w_verdP</styleUrl><Point><coordinates>2.1681797504425,42.2148048877716,0</coordinates></Point></Placemark>
<Placemark><name>ROSE01</name><description>222201 PORT ROSE (Girona)
posicio de les: 06/08/2018 00:05:06</description><styleUrl>#w_verdP</styleUrl><Point><coordinates>3.16079020500183,42.2764205932617,0</coordinates></Point></Placemark>
<Placemark><name>ROSE56</name><description>222256 PORT.COM ROSE (Girona)
posicio de les: 06/08/2018 00:05:28</description><styleUrl>#w_verdP</styleUrl><Point><coordinates>3.16082239151001,42.2766673564911,0</coordinates></Point></Placemark>
<Placemark><name>TORR56</name><description>222656 PORT.COM TORR (Girona)
posicio de les: 06/08/2018 00:04:38</description><styleUrl>#w_grocP</styleUrl><Point><coordinates>3.16739916801453,42.0478963851929,0</coordinates></Point></Placemark>
<Placemark><name>VALL56</name><description>222856 PORT.COM VALL (Girona)
posicio de les: 06/08/2018 00:04:16</description><styleUrl>#w_verdP</styleUrl><Point><coordinates>3.0317223072052,41.8086862564087,0</coordinates></Point></Placemark>
<Placemark><name>D7REG</name><description>228047  SERVEIS REGIÓ
posicio de les: 06/08/2018 00:04:33</description><styleUrl>#w_groc</styleUrl><Point><coordinates>2.76797533035278,41.9417130947113,0</coordinates></Point></Placemark>
<Placemark><name>C30RELL</name><description>230018 P.Tec REGIÓ
posicio de les: 06/08/2018 00:04:35</description><styleUrl>#w_verdP</styleUrl><Point><coordinates>0.605192184448242,41.6234636306763,0</coordinates></Point></Placemark>
<Placemark><name>FTREMP1</name><description>230073  REGIÓ
posicio de les: 06/08/2018 00:02:38</description><styleUrl>#w_verd</styleUrl><Point><coordinates>0.630801916122437,41.6164255142212,0</coordinates></Point></Placemark>
<Placemark><name>30083</name><description>230083  REGIÓ
posicio de les: 06/08/2018 00:06:00</description><styleUrl>#w_groc</styleUrl><Point><coordinates>0.630651712417603,41.6162109375,0</coordinates></Point></Placemark>
<Placemark><name>30091</name><description>230091  REGIÓ
posicio de les: 06/08/2018 00:02:05</description><styleUrl>#w_groc</styleUrl><Point><coordinates>0.631499290466309,41.6164791584015,0</coordinates></Point></Placemark>
<Placemark><name>30092</name><description>230092  REGIÓ
posicio de les: 06/08/2018 00:02:59</description><styleUrl>#w_verd</styleUrl><Point><coordinates>0.631359815597534,41.6165220737457,0</coordinates></Point></Placemark>
<Placemark><name>30095</name><description>230095  REGIÓ
posicio de les: 06/08/2018 00:06:19</description><styleUrl>#w_groc</styleUrl><Point><coordinates>0.604859590530396,41.6235387325287,0</coordinates></Point></Placemark>
<Placemark><name>30098</name><description>230098  REGIÓ
posicio de les: 06/08/2018 00:05:55</description><styleUrl>#w_groc</styleUrl><Point><coordinates>0.630748271942139,41.6161787509918,0</coordinates></Point></Placemark>
<Placemark><name>30330</name><description>230330 BRP ALMA (Lleida)
posicio de les: 06/08/2018 00:05:41</description><styleUrl>#w_verdC</styleUrl><Point><coordinates>0.623248815536499,41.6112434864044,0</coordinates></Point></Placemark>
<Placemark><name>BORG01</name><description>230701 PORT BORG (Lleida)
posicio de les: 06/08/2018 00:02:50</description><styleUrl>#w_verdP</styleUrl><Point><coordinates>0.845292806625366,41.5070450305939,0</coordinates></Point></Placemark>
<Placemark><name>BORG03</name><description>230703 PORT BORG (Lleida)
posicio de les: 06/08/2018 00:03:36</description><styleUrl>#w_verdP</styleUrl><Point><coordinates>0.845185518264771,41.5074634552002,0</coordinates></Point></Placemark>
<Placemark><name>BORG06</name><description>230706 PORT BORG (Lleida)
posicio de les: 06/08/2018 00:01:21</description><styleUrl>#w_verdP</styleUrl><Point><coordinates>0.844734907150269,41.5073883533478,0</coordinates></Point></Placemark>
<Placemark><name>BORG56</name><description>230756 PORT.COM BORG (Lleida)
posicio de les: 06/08/2018 00:04:05</description><styleUrl>#w_verdP</styleUrl><Point><coordinates>0.844541788101196,41.5070879459381,0</coordinates></Point></Placemark>
<Placemark><name>LLEI04</name><description>231904 PORT LLEI (Lleida)
posicio de les: 06/08/2018 00:06:10</description><styleUrl>#w_grocP</styleUrl><Point><coordinates>0.630447864532471,41.6163074970245,0</coordinates></Point></Placemark>
<Placemark><name>LLEI05</name><description>231905 PORT LLEI (Lleida)
posicio de les: 06/08/2018 00:05:46</description><styleUrl>#w_verdP</styleUrl><Point><coordinates>0.631145238876343,41.6169619560242,0</coordinates></Point></Placemark>
<Placemark><name>LLEI13</name><description>231913 PORT LLEI (Lleida)
posicio de les: 06/08/2018 00:04:51</description><styleUrl>#w_verdP</styleUrl><Point><coordinates>0.604827404022217,41.6242575645447,0</coordinates></Point></Placemark>
<Placemark><name>31940</name><description>231940 BUP LLEI (Lleida)
posicio de les: 06/08/2018 00:01:56</description><styleUrl>#w_grocC</styleUrl><Point><coordinates>0.630598068237305,41.6162431240082,0</coordinates></Point></Placemark>
<Placemark><name>31948</name><description>231948 BUL LLEI (Lleida)
posicio de les: 06/08/2018 00:01:37</description><styleUrl>#w_grocC</styleUrl><Point><coordinates>0.631349086761475,41.6169512271881,0</coordinates></Point></Placemark>
<Placemark><name>31960</name><description>231960 AEA/AES/ABA LLEI (Lleida)
posicio de les: 06/08/2018 00:01:58</description><styleUrl>#w_grocC</styleUrl><Point><coordinates>0.630244016647339,41.6163718700409,0</coordinates></Point></Placemark>
<Placemark><name>32031</name><description>232031 BRP MOLL (Lleida)
posicio de les: 06/08/2018 00:02:01</description><styleUrl>#w_grocC</styleUrl><Point><coordinates>0.631617307662964,41.6165328025818,0</coordinates></Point></Placemark>
<Placemark><name>MOLL56</name><description>232056 PORT.COM MOLL (Lleida)
posicio de les: 06/08/2018 00:05:05</description><styleUrl>#w_grocP</styleUrl><Point><coordinates>0.631102323532104,41.6164362430573,0</coordinates></Point></Placemark>
<Placemark><name>32090</name><description>232090 UPC MOLL (Lleida)
posicio de les: 06/08/2018 00:02:06</description><styleUrl>#w_groc</styleUrl><Point><coordinates>0.630995035171509,41.616393327713,0</coordinates></Point></Placemark>
<Placemark><name>OLIA01</name><description>232201 PORT OLIA (Lleida)
posicio de les: 06/08/2018 00:05:20</description><styleUrl>#w_verdP</styleUrl><Point><coordinates>0.630673170089722,41.6165220737457,0</coordinates></Point></Placemark>
<Placemark><name>OLIA56</name><description>232256 PORT.COM OLIA (Lleida)
posicio de les: 06/08/2018 00:05:02</description><styleUrl>#w_grocP</styleUrl><Point><coordinates>0.630555152893066,41.6160607337952,0</coordinates></Point></Placemark>
<Placemark><name>32290</name><description>232290 UPC OLIA (Lleida)
posicio de les: 06/08/2018 00:02:32</description><styleUrl>#w_groc</styleUrl><Point><coordinates>0.630640983581543,41.6164255142212,0</coordinates></Point></Placemark>
<Placemark><name>POBL01</name><description>232401 PORT POBL (Lleida)
posicio de les: 06/08/2018 00:04:59</description><styleUrl>#w_grocP</styleUrl><Point><coordinates>0.964372158050537,42.2390627861023,0</coordinates></Point></Placemark>
<Placemark><name>PONT05</name><description>232505 PORT PONT (Lleida)
posicio de les: 06/08/2018 00:04:44</description><styleUrl>#w_grocP</styleUrl><Point><coordinates>0.739699602127075,42.4106276035309,0</coordinates></Point></Placemark>
<Placemark><name>33131</name><description>233131 BRP TAR (Lleida)
posicio de les: 06/08/2018 00:01:25</description><styleUrl>#w_grocC</styleUrl><Point><coordinates>0.631788969039917,41.61656498909,0</coordinates></Point></Placemark>
<Placemark><name>TREM05</name><description>233305 PORT TREM (Lleida)
posicio de les: 06/08/2018 00:06:11</description><styleUrl>#w_verdP</styleUrl><Point><coordinates>0.888862609863281,42.1644759178162,0</coordinates></Point></Placemark>
<Placemark><name>TREM07</name><description>233307 PORT TREM (Lleida)
posicio de les: 06/08/2018 00:02:43</description><styleUrl>#w_verdP</styleUrl><Point><coordinates>0.889034271240234,42.1640360355377,0</coordinates></Point></Placemark>
<Placemark><name>TREM56</name><description>233356 PORT.COM TREM (Lleida)
posicio de les: 06/08/2018 00:04:38</description><styleUrl>#w_grocP</styleUrl><Point><coordinates>0.889109373092651,42.1648299694061,0</coordinates></Point></Placemark>
<Placemark><name>FMOLL2</name><description>234508 PORT Parc X
posicio de les: 06/08/2018 00:01:59</description><styleUrl>#w_verdP</styleUrl><Point><coordinates>0.89813232421875,41.636209487915,0</coordinates></Point></Placemark>
<Placemark><name>FTAR1</name><description>234513 PORT Parc X
posicio de les: 06/08/2018 00:04:19</description><styleUrl>#w_verdP</styleUrl><Point><coordinates>1.14980936050415,41.6515624523163,0</coordinates></Point></Placemark>
<Placemark><name>FTREM59</name><description>234559 BSAL Parc X
posicio de les: 06/08/2018 00:04:50</description><styleUrl>#w_verdB</styleUrl><Point><coordinates>0.59675931930542,41.6301047801971,0</coordinates></Point></Placemark>
<Placemark><name>I407</name><description>237407 P.GUAITA GUAITA
posicio de les: 06/08/2018 00:05:09</description><styleUrl>#w_verdP</styleUrl><Point><coordinates>0.965938568115234,42.2524738311768,0</coordinates></Point></Placemark>
<Placemark><name>REMN11</name><description>240011 P.Tec REGIÓ
posicio de les: 06/08/2018 00:04:40</description><styleUrl>#w_verdP</styleUrl><Point><coordinates>2.11221814155579,41.5020346641541,0</coordinates></Point></Placemark>
<Placemark><name>E0REMN</name><description>240012 P.Tec REGIÓ
posicio de les: 06/08/2018 00:03:06</description><styleUrl>#w_verdP</styleUrl><Point><coordinates>2.27395534515381,41.5910947322845,0</coordinates></Point></Placemark>
<Placemark><name>REMN14</name><description>240014 P.Tec REGIÓ
posicio de les: 06/08/2018 00:05:52</description><styleUrl>#w_grocP</styleUrl><Point><coordinates>2.02576518058777,41.5678668022156,0</coordinates></Point></Placemark>
<Placemark><name>40091</name><description>240091  REGIÓ
posicio de les: 06/08/2018 00:05:52</description><styleUrl>#w_groc</styleUrl><Point><coordinates>2.11159586906433,41.5022492408752,0</coordinates></Point></Placemark>
<Placemark><name>BAD02</name><description>240202 PORT BAD (Metro. Nord)
posicio de les: 06/08/2018 00:03:01</description><styleUrl>#w_verdP</styleUrl><Point><coordinates>2.23746657371521,41.4653527736664,0</coordinates></Point></Placemark>
<Placemark><name>40290</name><description>240290 UPC BAD (Metro. Nord)
posicio de les: 06/08/2018 00:05:13</description><styleUrl>#w_groc</styleUrl><Point><coordinates>2.0260226726532,41.5679740905762,0</coordinates></Point></Placemark>
<Placemark><name>CER03</name><description>240503 PORT CER (Metro. Nord)
posicio de les: 06/08/2018 00:05:45</description><styleUrl>#w_verdP</styleUrl><Point><coordinates>2.11127400398254,41.5022492408752,0</coordinates></Point></Placemark>
<Placemark><name>240556</name><description>240556 PORT.COM CER (Metro. Nord)
posicio de les: 06/08/2018 00:04:52</description><styleUrl>#w_verdP</styleUrl><Point><coordinates>2.11131691932678,41.5027964115143,0</coordinates></Point></Placemark>
<Placemark><name>GRA01</name><description>240601 PORT GRA (Metro. Nord)
posicio de les: 06/08/2018 00:04:53</description><styleUrl>#w_grocP</styleUrl><Point><coordinates>2.27488875389099,41.5904295444489,0</coordinates></Point></Placemark>
<Placemark><name>GRA13</name><description>240613 PORT GRA (Metro. Nord)
posicio de les: 06/08/2018 00:06:08</description><styleUrl>#w_verdP</styleUrl><Point><coordinates>2.27482438087463,41.590461730957,0</coordinates></Point></Placemark>
<Placemark><name>MAT14</name><description>240914 PORT MAT (Metro. Nord)
posicio de les: 06/08/2018 00:05:47</description><styleUrl>#w_verdP</styleUrl><Point><coordinates>2.42082238197327,41.5413451194763,0</coordinates></Point></Placemark>
<Placemark><name>240948</name><description>240948 BUL MAT (Metro. Nord)
posicio de les: 06/08/2018 00:06:20</description><styleUrl>#w_verdC</styleUrl><Point><coordinates>2.41870880126953,41.5426862239838,0</coordinates></Point></Placemark>
<Placemark><name>40960</name><description>240960 AEA/AES/ABA MAT (Metro. Nord)
posicio de les: 06/08/2018 00:06:18</description><styleUrl>#w_verdC</styleUrl><Point><coordinates>2.42111206054688,41.5400147438049,0</coordinates></Point></Placemark>
<Placemark><name>MOL03</name><description>241003 PORT MOL (Metro. Nord)
posicio de les: 06/08/2018 00:01:07</description><styleUrl>#w_verdP</styleUrl><Point><coordinates>2.20125675201416,41.5370857715607,0</coordinates></Point></Placemark>
<Placemark><name>MFI05</name><description>241105 PORT MFI (Metro. Nord)
posicio de les: 06/08/2018 00:03:32</description><styleUrl>#w_verdP</styleUrl><Point><coordinates>2.28990912437439,41.6849291324615,0</coordinates></Point></Placemark>
<Placemark><name>41130</name><description>241130 BRP MFI (Metro. Nord)
posicio de les: 06/08/2018 00:06:02</description><styleUrl>#w_verdC</styleUrl><Point><coordinates>2.28846073150635,41.6837918758392,0</coordinates></Point></Placemark>
<Placemark><name>SAB06</name><description>241406 PORT SAB (Metro. Nord)
posicio de les: 06/08/2018 00:05:42</description><styleUrl>#w_verdP</styleUrl><Point><coordinates>2.10413932800293,41.5421068668365,0</coordinates></Point></Placemark>
<Placemark><name>CMSAB20</name><description>241420 PORT SAB (Metro. Nord)
posicio de les: 06/08/2018 00:04:49</description><styleUrl>#w_grocP</styleUrl><Point><coordinates>2.10404276847839,41.5425038337708,0</coordinates></Point></Placemark>
<Placemark><name>241440</name><description>241440 BUP SAB (Metro. Nord)
posicio de les: 06/08/2018 00:01:39</description><styleUrl>#w_grocC</styleUrl><Point><coordinates>2.10392475128174,41.5424072742462,0</coordinates></Point></Placemark>
<Placemark><name>SCG09</name><description>241809 PORT SCG (Metro. Nord)
posicio de les: 06/08/2018 00:04:30</description><styleUrl>#w_verdP</styleUrl><Point><coordinates>2.20942139625549,41.4631748199463,0</coordinates></Point></Placemark>
<Placemark><name>241858</name><description>241858 BSAL SCG (Metro. Nord)
posicio de les: 06/08/2018 00:04:32</description><styleUrl>#w_grocB</styleUrl><Point><coordinates>2.20918536186218,41.4632177352905,0</coordinates></Point></Placemark>
<Placemark><name>TER01</name><description>242001 PORT TER (Metro. Nord)
posicio de les: 06/08/2018 00:05:02</description><styleUrl>#w_verdP</styleUrl><Point><coordinates>2.0260226726532,41.5683925151825,0</coordinates></Point></Placemark>
<Placemark><name>TER07</name><description>242007 PORT TER (Metro. Nord)
posicio de les: 06/08/2018 00:05:14</description><styleUrl>#w_verdP</styleUrl><Point><coordinates>2.04280257225037,41.5343499183655,0</coordinates></Point></Placemark>
<Placemark><name>TOD56</name><description>242156 PORT.COM TOD (Metro. Nord)
posicio de les: 06/08/2018 00:04:29</description><styleUrl>#w_grocP</styleUrl><Point><coordinates>2.71620869636536,41.6916882991791,0</coordinates></Point></Placemark>
<Placemark><name>D9REMN</name><description>248049  SERVEIS REGIÓ
posicio de les: 06/08/2018 00:04:11</description><styleUrl>#w_verd</styleUrl><Point><coordinates>2.11218595504761,41.5018737316132,0</coordinates></Point></Placemark>
<Placemark><name>50092</name><description>250092  REGIÓ
posicio de les: 06/08/2018 00:06:15</description><styleUrl>#w_verd</styleUrl><Point><coordinates>1.70457601547241,41.3546741008759,0</coordinates></Point></Placemark>
<Placemark><name>COR05</name><description>250405 PORT COR (Metro. Sud)
posicio de les: 06/08/2018 00:02:56</description><styleUrl>#w_verdP</styleUrl><Point><coordinates>2.07060098648071,41.3605642318726,0</coordinates></Point></Placemark>
<Placemark><name>COR10</name><description>250410 PORT COR (Metro. Sud)
posicio de les: 06/08/2018 00:06:01</description><styleUrl>#w_grocP</styleUrl><Point><coordinates>2.07083702087402,41.3607466220856,0</coordinates></Point></Placemark>
<Placemark><name>COR56</name><description>250456 PORT.COM COR (Metro. Sud)
posicio de les: 06/08/2018 00:04:47</description><styleUrl>#w_verdP</styleUrl><Point><coordinates>2.07068681716919,41.3607466220856,0</coordinates></Point></Placemark>
<Placemark><name>GAV01</name><description>250501 PORT GAV (Metro. Sud)
posicio de les: 06/08/2018 00:05:01</description><styleUrl>#w_grocP</styleUrl><Point><coordinates>1.99029564857483,41.3004183769226,0</coordinates></Point></Placemark>
<Placemark><name>GAV56</name><description>250556 PORT.COM GAV (Metro. Sud)
posicio de les: 06/08/2018 00:04:57</description><styleUrl>#w_verdP</styleUrl><Point><coordinates>1.98878288269043,41.3010406494141,0</coordinates></Point></Placemark>
<Placemark><name>50560</name><description>250560 AEA/AES/ABA GAV (Metro. Sud)
posicio de les: 06/08/2018 00:06:05</description><styleUrl>#w_verdC</styleUrl><Point><coordinates>2.08922624588013,41.3773655891418,0</coordinates></Point></Placemark>
<Placemark><name>HOS02</name><description>250702 PORT HOS (Metro. Sud)
posicio de les: 06/08/2018 00:02:21</description><styleUrl>#w_verdP</styleUrl><Point><coordinates>2.1055018901825,41.3701450824738,0</coordinates></Point></Placemark>
<Placemark><name>LLA03</name><description>250903 PORT LLA (Metro. Sud)
posicio de les: 06/08/2018 00:05:24</description><styleUrl>#w_verdP</styleUrl><Point><coordinates>1.53044700622559,41.4733457565308,0</coordinates></Point></Placemark>
<Placemark><name>MAR11</name><description>251011 PORT MAR (Metro. Sud)
posicio de les: 06/08/2018 00:01:16</description><styleUrl>#w_verdP</styleUrl><Point><coordinates>1.90584897994995,41.4976894855499,0</coordinates></Point></Placemark>
<Placemark><name>MAR57</name><description>251057 PORT.COM MAR (Metro. Sud)
posicio de les: 06/08/2018 00:05:16</description><styleUrl>#w_verdP</styleUrl><Point><coordinates>1.90797328948975,41.498955488205,0</coordinates></Point></Placemark>
<Placemark><name>SFE57</name><description>251557 PORT.COM SFE (Metro. Sud)
posicio de les: 06/08/2018 00:05:22</description><styleUrl>#w_verdP</styleUrl><Point><coordinates>2.0430600643158,41.3886308670044,0</coordinates></Point></Placemark>
<Placemark><name>CMS15</name><description>254515 PORT Parc X
posicio de les: 06/08/2018 00:02:56</description><styleUrl>#w_verdP</styleUrl><Point><coordinates>1.70483350753784,41.3540625572205,0</coordinates></Point></Placemark>
<Placemark><name>I215</name><description>257215 P.GUAITA GUAITA
posicio de les: 06/08/2018 00:04:57</description><styleUrl>#w_grocP</styleUrl><Point><coordinates>1.663978099823,41.4992451667786,0</coordinates></Point></Placemark>
<Placemark><name>D1REMS</name><description>258041  SERVEIS REGIÓ
posicio de les: 06/08/2018 00:04:24</description><styleUrl>#w_verd</styleUrl><Point><coordinates>2.03355431556702,41.3222515583038,0</coordinates></Point></Placemark>
<Placemark><name>RET11</name><description>260011 P.Tec REGIÓ
posicio de les: 06/08/2018 00:04:44</description><styleUrl>#w_verdP</styleUrl><Point><coordinates>1.185622215271,41.1347222328186,0</coordinates></Point></Placemark>
<Placemark><name>FALS06</name><description>260406 PORT FALS (Tarragona)
posicio de les: 06/08/2018 00:05:51</description><styleUrl>#w_verdP</styleUrl><Point><coordinates>0.823212862014771,41.1473393440247,0</coordinates></Point></Placemark>
<Placemark><name>260508</name><description>260508 PORT HOSP (Tarragona)
posicio de les: 06/08/2018 00:04:59</description><styleUrl>#w_grocP</styleUrl><Point><coordinates>0.919944047927856,40.9936487674713,0</coordinates></Point></Placemark>
<Placemark><name>MONT02</name><description>260602 PORT MONT (Tarragona)
posicio de les: 06/08/2018 00:04:04</description><styleUrl>#w_grocP</styleUrl><Point><coordinates>0.6307053565979,41.6163074970245,0</coordinates></Point></Placemark>
<Placemark><name>60630</name><description>260630 BRP MONT (Tarragona)
posicio de les: 06/08/2018 00:03:34</description><styleUrl>#w_grocC</styleUrl><Point><coordinates>0.630769729614258,41.6162860393524,0</coordinates></Point></Placemark>
<Placemark><name>60844</name><description>260844 BNP REUS (Tarragona)
posicio de les: 06/08/2018 00:01:39</description><styleUrl>#w_grocC</styleUrl><Point><coordinates>1.11810564994812,41.1509335041046,0</coordinates></Point></Placemark>
<Placemark><name>60890</name><description>260890 UPC REUS (Tarragona)
posicio de les: 06/08/2018 00:04:59</description><styleUrl>#w_verd</styleUrl><Point><coordinates>1.11796617507935,41.1506330966949,0</coordinates></Point></Placemark>
<Placemark><name>61234</name><description>261234 BFP TARR (Tarragona)
posicio de les: 06/08/2018 00:03:23</description><styleUrl>#w_grocC</styleUrl><Point><coordinates>1.22053384780884,41.1149060726166,0</coordinates></Point></Placemark>
<Placemark><name>VALS56</name><description>261356 PORT.COM VALS (Tarragona)
posicio de les: 06/08/2018 00:03:35</description><styleUrl>#w_verdP</styleUrl><Point><coordinates>1.26074552536011,41.3069522380829,0</coordinates></Point></Placemark>
<Placemark><name>61390</name><description>261390 UPC VALS (Tarragona)
posicio de les: 06/08/2018 00:05:02</description><styleUrl>#w_groc</styleUrl><Point><coordinates>1.25921130180359,41.3072848320007,0</coordinates></Point></Placemark>
<Placemark><name>VEND05</name><description>261405 PORT VEND (Tarragona)
posicio de les: 06/08/2018 00:05:43</description><styleUrl>#w_verdP</styleUrl><Point><coordinates>1.54125094413757,41.2225592136383,0</coordinates></Point></Placemark>
<Placemark><name>E00RETE</name><description>270014 P.Tec REGIÓ
posicio de les: 06/08/2018 00:05:38</description><styleUrl>#w_grocP</styleUrl><Point><coordinates>0.513535737991333,40.8194661140442,0</coordinates></Point></Placemark>
<Placemark><name>AMET05</name><description>272005 PORT AMET (Terres de l'Ebre)
posicio de les: 06/08/2018 00:05:46</description><styleUrl>#w_grocP</styleUrl><Point><coordinates>0.797742605209351,40.890212059021,0</coordinates></Point></Placemark>
<Placemark><name>GAND56</name><description>272656 PORT.COM GAND (Terres de l'Ebre)
posicio de les: 06/08/2018 00:03:31</description><styleUrl>#w_verdP</styleUrl><Point><coordinates>0.439388751983643,41.0585260391235,0</coordinates></Point></Placemark>
<Placemark><name>MORA56</name><description>272856 PORT.COM MORA (Terres de l'Ebre)
posicio de les: 06/08/2018 00:05:08</description><styleUrl>#w_verdP</styleUrl><Point><coordinates>0.629611015319824,41.0860991477966,0</coordinates></Point></Placemark>
<Placemark><name>ULLD04</name><description>273104 PORT ULLD (Terres de l'Ebre)
posicio de les: 06/08/2018 00:00:21</description><styleUrl>#w_verdP</styleUrl><Point><coordinates>0.358407497406006,40.6086552143097,0</coordinates></Point></Placemark>
<Placemark><name>E_93</name><description>278031  SERVEIS REGIÓ
posicio de les: 06/08/2018 00:02:44</description><styleUrl>#w_verd</styleUrl><Point><coordinates>0.513310432434082,40.8192837238312,0</coordinates></Point></Placemark>
</Folder>
<Folder>
<name>Descarregues</name>
</Folder>
<Style id="w_verdP_n"><IconStyle><color>ff00ff00</color><scale>1.0</scale><Icon><href>http://maps.google.com/mapfiles/kml/shapes/man.png</href></Icon><hotSpot x="0.5" y="0" xunits="fraction" yunits="fraction"/></IconStyle><LabelStyle><scale>0.7</scale></LabelStyle></Style>
<Style id="w_verdP_s"><IconStyle><color>ff00ff00</color><scale>1.4</scale><Icon><href>http://maps.google.com/mapfiles/kml/shapes/man.png</href></Icon><hotSpot x="0.5" y="0" xunits="fraction" yunits="fraction"/></IconStyle><LabelStyle><scale>0.7</scale></LabelStyle></Style>
<StyleMap id="w_verdP"><Pair><key>normal</key><styleUrl>#w_verdP_n</styleUrl></Pair><Pair><key>highlight</key><styleUrl>#w_verdP_s</styleUrl></Pair></StyleMap>
<Style id="w_verd_n"><IconStyle><color>ff00ff00</color><scale>0.7</scale><Icon><href>http://maps.google.com/mapfiles/kml/shapes/cabs.png</href></Icon><hotSpot x="0.5" y="0" xunits="fraction" yunits="fraction"/></IconStyle><LabelStyle><scale>0.7</scale></LabelStyle></Style>
<Style id="w_verd_s"><IconStyle><color>ff00ff00</color><scale>1.0</scale><Icon><href>http://maps.google.com/mapfiles/kml/shapes/cabs.png</href></Icon><hotSpot x="0.5" y="0" xunits="fraction" yunits="fraction"/></IconStyle><LabelStyle><scale>0.7</scale></LabelStyle></Style>
<StyleMap id="w_verd"><Pair><key>normal</key><styleUrl>#w_verd_n</styleUrl></Pair><Pair><key>highlight</key><styleUrl>#w_verd_s</styleUrl></Pair></StyleMap>
<Style id="w_verdC_n"><IconStyle><color>ff00ff00</color><scale>1.0</scale><Icon><href>http://maps.google.com/mapfiles/kml/shapes/truck.png</href></Icon><hotSpot x="0.5" y="0" xunits="fraction" yunits="fraction"/></IconStyle><LabelStyle><scale>0.7</scale></LabelStyle></Style>
<Style id="w_verdC_s"><IconStyle><color>ff00ff00</color><scale>1.4</scale><Icon><href>http://maps.google.com/mapfiles/kml/shapes/truck.png</href></Icon><hotSpot x="0.5" y="0" xunits="fraction" yunits="fraction"/></IconStyle><LabelStyle><scale>0.7</scale></LabelStyle></Style>
<StyleMap id="w_verdC"><Pair><key>normal</key><styleUrl>#w_verdC_n</styleUrl></Pair><Pair><key>highlight</key><styleUrl>#w_verdC_s</styleUrl></Pair></StyleMap>
<Style id="w_verdH_n"><IconStyle><color>ff0000ff</color><scale>1.2</scale><Icon><href>http://maps.google.com/mapfiles/kml/shapes/heliport.png</href></Icon><hotSpot x="0.5" y="0" xunits="fraction" yunits="fraction"/></IconStyle><LabelStyle><scale>0.7</scale></LabelStyle></Style>
<Style id="w_verdH_s"><IconStyle><color>ff0000ff</color><scale>1.4</scale><Icon><href>http://maps.google.com/mapfiles/kml/shapes/heliport.png</href></Icon><hotSpot x="0.5" y="0" xunits="fraction" yunits="fraction"/></IconStyle><LabelStyle><scale>0.7</scale></LabelStyle></Style>
<StyleMap id="w_verdH"><Pair><key>normal</key><styleUrl>#w_verdH_n</styleUrl></Pair><Pair><key>highlight</key><styleUrl>#w_verdH_s</styleUrl></Pair></StyleMap>
<Style id="w_verdA_n"><IconStyle><color>ff0000ff</color><scale>1.2</scale><Icon><href>http://maps.google.com/mapfiles/kml/shapes/airports.png</href></Icon><hotSpot x="0.5" y="0" xunits="fraction" yunits="fraction"/></IconStyle><LabelStyle><scale>0.7</scale></LabelStyle></Style>
<Style id="w_verdA_s"><IconStyle><color>ff0000ff</color><scale>1.4</scale><Icon><href>http://maps.google.com/mapfiles/kml/shapes/airports.png</href></Icon><hotSpot x="0.5" y="0" xunits="fraction" yunits="fraction"/></IconStyle><LabelStyle><scale>0.7</scale></LabelStyle></Style>
<StyleMap id="w_verdA"><Pair><key>normal</key><styleUrl>#w_verdA_n</styleUrl></Pair><Pair><key>highlight</key><styleUrl>#w_verdA_s</styleUrl></Pair></StyleMap>
<Style id="w_verdB_n"><IconStyle><color>ff00ff00</color><scale>1.0</scale><Icon><href>http://maps.google.com/mapfiles/kml/shapes/sailing.png</href></Icon><hotSpot x="0.5" y="0" xunits="fraction" yunits="fraction"/></IconStyle><LabelStyle><scale>0.7</scale></LabelStyle></Style>
<Style id="w_verdB_s"><IconStyle><color>ff00ff00</color><scale>1.4</scale><Icon><href>http://maps.google.com/mapfiles/kml/shapes/sailing.png</href></Icon><hotSpot x="0.5" y="0" xunits="fraction" yunits="fraction"/></IconStyle><LabelStyle><scale>0.7</scale></LabelStyle></Style>
<StyleMap id="w_verdB"><Pair><key>normal</key><styleUrl>#w_verdBAR_n</styleUrl></Pair><Pair><key>highlight</key><styleUrl>#w_verdBAR_s</styleUrl></Pair></StyleMap>
<Style id="w_grocP_n"><IconStyle><color>ff00ffff</color><scale>1.0</scale><Icon><href>http://maps.google.com/mapfiles/kml/shapes/man.png</href></Icon><hotSpot x="0.5" y="0" xunits="fraction" yunits="fraction"/></IconStyle><LabelStyle><scale>0.7</scale></LabelStyle></Style>
<Style id="w_grocP_s"><IconStyle><color>ff00ffff</color><scale>1.4</scale><Icon><href>http://maps.google.com/mapfiles/kml/shapes/man.png</href></Icon><hotSpot x="0.5" y="0" xunits="fraction" yunits="fraction"/></IconStyle><LabelStyle><scale>0.7</scale></LabelStyle></Style>
<StyleMap id="w_grocP"><Pair><key>normal</key><styleUrl>#w_grocP_n</styleUrl></Pair><Pair><key>highlight</key><styleUrl>#w_grocP_s</styleUrl></Pair></StyleMap>
<Style id="w_groc_n"><IconStyle><color>ff00ffff</color><scale>0.7</scale><Icon><href>http://maps.google.com/mapfiles/kml/shapes/cabs.png</href></Icon><hotSpot x="0.5" y="0" xunits="fraction" yunits="fraction"/></IconStyle><LabelStyle><scale>0.7</scale></LabelStyle></Style>
<Style id="w_groc_s"><IconStyle><color>ff00ffff</color><scale>1.0</scale><Icon><href>http://maps.google.com/mapfiles/kml/shapes/cabs.png</href></Icon><hotSpot x="0.5" y="0" xunits="fraction" yunits="fraction"/></IconStyle><LabelStyle><scale>0.7</scale></LabelStyle></Style>
<StyleMap id="w_groc"><Pair><key>normal</key><styleUrl>#w_groc_n</styleUrl></Pair><Pair><key>highlight</key><styleUrl>#w_groc_s</styleUrl></Pair></StyleMap>
<Style id="w_grocC_n"><IconStyle><color>ff00ffff</color><scale>1.0</scale><Icon><href>http://maps.google.com/mapfiles/kml/shapes/truck.png</href></Icon><hotSpot x="0.5" y="0" xunits="fraction" yunits="fraction"/></IconStyle><LabelStyle><scale>0.7</scale></LabelStyle></Style>
<Style id="w_grocC_s"><IconStyle><color>ff00ffff</color><scale>1.4</scale><Icon><href>http://maps.google.com/mapfiles/kml/shapes/truck.png</href></Icon><hotSpot x="0.5" y="0" xunits="fraction" yunits="fraction"/></IconStyle><LabelStyle><scale>0.7</scale></LabelStyle></Style>
<StyleMap id="w_grocC"><Pair><key>normal</key><styleUrl>#w_grocC_n</styleUrl></Pair><Pair><key>highlight</key><styleUrl>#w_grocC_s</styleUrl></Pair></StyleMap>
<Style id="w_grocH_n"><IconStyle><color>ff0000ff</color><scale>1.2</scale><Icon><href>http://maps.google.com/mapfiles/kml/shapes/heliport.png</href></Icon><hotSpot x="0.5" y="0" xunits="fraction" yunits="fraction"/></IconStyle><LabelStyle><scale>0.7</scale></LabelStyle></Style>
<Style id="w_grocH_s"><IconStyle><color>ff0000ff</color><scale>1.4</scale><Icon><href>http://maps.google.com/mapfiles/kml/shapes/heliport.png</href></Icon><hotSpot x="0.5" y="0" xunits="fraction" yunits="fraction"/></IconStyle><LabelStyle><scale>0.7</scale></LabelStyle></Style>
<StyleMap id="w_grocH"><Pair><key>normal</key><styleUrl>#w_grocH_n</styleUrl></Pair><Pair><key>highlight</key><styleUrl>#w_grocH_s</styleUrl></Pair></StyleMap>
<Style id="w_grocA_n"><IconStyle><color>ff0000ff</color><scale>1.2</scale><Icon><href>http://maps.google.com/mapfiles/kml/shapes/airports.png</href></Icon><hotSpot x="0.5" y="0" xunits="fraction" yunits="fraction"/></IconStyle><LabelStyle><scale>0.7</scale></LabelStyle></Style>
<Style id="w_grocA_s"><IconStyle><color>ff0000ff</color><scale>1.4</scale><Icon><href>http://maps.google.com/mapfiles/kml/shapes/airports.png</href></Icon><hotSpot x="0.5" y="0" xunits="fraction" yunits="fraction"/></IconStyle><LabelStyle><scale>0.7</scale></LabelStyle></Style>
<StyleMap id="w_grocA"><Pair><key>normal</key><styleUrl>#w_grocA_n</styleUrl></Pair><Pair><key>highlight</key><styleUrl>#w_grocA_s</styleUrl></Pair></StyleMap>
<Style id="w_grocB_n"><IconStyle><color>ff00ffff</color><scale>1.0</scale><Icon><href>http://maps.google.com/mapfiles/kml/shapes/sailing.png</href></Icon><hotSpot x="0.5" y="0" xunits="fraction" yunits="fraction"/></IconStyle><LabelStyle><scale>0.7</scale></LabelStyle></Style>
<Style id="w_grocB_s"><IconStyle><color>ff00ffff</color><scale>1.4</scale><Icon><href>http://maps.google.com/mapfiles/kml/shapes/sailing.png</href></Icon><hotSpot x="0.5" y="0" xunits="fraction" yunits="fraction"/></IconStyle><LabelStyle><scale>0.7</scale></LabelStyle></Style>
<StyleMap id="w_grocB"><Pair><key>normal</key><styleUrl>#w_grocBAR_n</styleUrl></Pair><Pair><key>highlight</key><styleUrl>#w_grocBAR_s</styleUrl></Pair></StyleMap>
<Style id="w_vermellP_n"><IconStyle><color>ff0000ff</color><scale>1.0</scale><Icon><href>http://maps.google.com/mapfiles/kml/shapes/man.png</href></Icon><hotSpot x="0.5" y="0" xunits="fraction" yunits="fraction"/></IconStyle><LabelStyle><scale>0.7</scale></LabelStyle></Style>
<Style id="w_vermellP_s"><IconStyle><color>ff0000ff</color><scale>1.4</scale><Icon><href>http://maps.google.com/mapfiles/kml/shapes/man.png</href></Icon><hotSpot x="0.5" y="0" xunits="fraction" yunits="fraction"/></IconStyle><LabelStyle><scale>0.7</scale></LabelStyle></Style>
<StyleMap id="w_vermellP"><Pair><key>normal</key><styleUrl>#w_vermellP_n</styleUrl></Pair><Pair><key>highlight</key><styleUrl>#w_vermellP_s</styleUrl></Pair></StyleMap>
<Style id="w_vermell_n"><IconStyle><color>ff0000ff</color><scale>0.7</scale><Icon><href>http://maps.google.com/mapfiles/kml/shapes/cabs.png</href></Icon><hotSpot x="0.5" y="0" xunits="fraction" yunits="fraction"/></IconStyle><LabelStyle><scale>0.7</scale></LabelStyle></Style>
<Style id="w_vermell_s"><IconStyle><color>ff0000ff</color><scale>1.0</scale><Icon><href>http://maps.google.com/mapfiles/kml/shapes/cabs.png</href></Icon><hotSpot x="0.5" y="0" xunits="fraction" yunits="fraction"/></IconStyle><LabelStyle><scale>0.7</scale></LabelStyle></Style>
<StyleMap id="w_vermell"><Pair><key>normal</key><styleUrl>#w_vermell_n</styleUrl></Pair><Pair><key>highlight</key><styleUrl>#w_vermell_s</styleUrl></Pair></StyleMap>
<Style id="w_vermellC_n"><IconStyle><color>ff0000ff</color><scale>1.0</scale><Icon><href>http://maps.google.com/mapfiles/kml/shapes/truck.png</href></Icon><hotSpot x="0.5" y="0" xunits="fraction" yunits="fraction"/></IconStyle><LabelStyle><scale>0.7</scale></LabelStyle></Style>
<Style id="w_vermellC_s"><IconStyle><color>ff0000ff</color><scale>1.4</scale><Icon><href>http://maps.google.com/mapfiles/kml/shapes/truck.png</href></Icon><hotSpot x="0.5" y="0" xunits="fraction" yunits="fraction"/></IconStyle><LabelStyle><scale>0.7</scale></LabelStyle></Style>
<StyleMap id="w_vermellC"><Pair><key>normal</key><styleUrl>#w_vermellC_n</styleUrl></Pair><Pair><key>highlight</key><styleUrl>#w_vermellC_s</styleUrl></Pair></StyleMap>
<Style id="w_vermellH_n"><IconStyle><color>ff0000ff</color><scale>1.2</scale><Icon><href>http://maps.google.com/mapfiles/kml/shapes/heliport.png</href></Icon><hotSpot x="0.5" y="0" xunits="fraction" yunits="fraction"/></IconStyle><LabelStyle><scale>0.7</scale></LabelStyle></Style>
<Style id="w_vermellH_s"><IconStyle><color>ff0000ff</color><scale>1.4</scale><Icon><href>http://maps.google.com/mapfiles/kml/shapes/heliport.png</href></Icon><hotSpot x="0.5" y="0" xunits="fraction" yunits="fraction"/></IconStyle><LabelStyle><scale>0.7</scale></LabelStyle></Style>
<StyleMap id="w_vermellH"><Pair><key>normal</key><styleUrl>#w_vermellH_n</styleUrl></Pair><Pair><key>highlight</key><styleUrl>#w_vermellH_s</styleUrl></Pair></StyleMap>
<Style id="w_vermellA_n"><IconStyle><color>ff0000ff</color><scale>1.2</scale><Icon><href>http://maps.google.com/mapfiles/kml/shapes/airports.png</href></Icon><hotSpot x="0.5" y="0" xunits="fraction" yunits="fraction"/></IconStyle><LabelStyle><scale>0.7</scale></LabelStyle></Style>
<Style id="w_vermellA_s"><IconStyle><color>ff0000ff</color><scale>1.4</scale><Icon><href>http://maps.google.com/mapfiles/kml/shapes/airports.png</href></Icon><hotSpot x="0.5" y="0" xunits="fraction" yunits="fraction"/></IconStyle><LabelStyle><scale>0.7</scale></LabelStyle></Style>
<StyleMap id="w_vermellA"><Pair><key>normal</key><styleUrl>#w_vermellA_n</styleUrl></Pair><Pair><key>highlight</key><styleUrl>#w_vermellA_s</styleUrl></Pair></StyleMap>
<Style id="w_vermellB_n"><IconStyle><color>ff0000ff</color><scale>1.0</scale><Icon><href>http://maps.google.com/mapfiles/kml/shapes/sailing.png</href></Icon><hotSpot x="0.5" y="0" xunits="fraction" yunits="fraction"/></IconStyle><LabelStyle><scale>0.7</scale></LabelStyle></Style>
<Style id="w_vermellB_s"><IconStyle><color>ff0000ff</color><scale>1.4</scale><Icon><href>http://maps.google.com/mapfiles/kml/shapes/sailing.png</href></Icon><hotSpot x="0.5" y="0" xunits="fraction" yunits="fraction"/></IconStyle><LabelStyle><scale>0.7</scale></LabelStyle></Style>
<StyleMap id="w_vermellB"><Pair><key>normal</key><styleUrl>#w_vermellBAR_n</styleUrl></Pair><Pair><key>highlight</key><styleUrl>#w_vermellBAR_s</styleUrl></Pair></StyleMap>
<Style id="w_descarrega"><IconStyle><color>ff00ffff</color><scale>0.5</scale><Icon><href>http://maps.google.com/mapfiles/kml/shapes/road_shield3.png</href></Icon></IconStyle><LabelStyle><scale>0.7</scale></LabelStyle></Style><Style id="actuacio"><IconStyle><color>ff00ffff</color><scale>0.8</scale><Icon><href>http://maps.google.com/mapfiles/kml/shapes/caution.png</href></Icon></IconStyle><LabelStyle><scale>0.7</scale></LabelStyle></Style></Document></kml>