<?xml version="1.0" encoding="UTF-8"?>
<kml xmlns="http://www.opengis.net/kml/2.2" xmlns:gx="http://www.google.com/kml/ext/2.2" xmlns:kml="http://www.opengis.net/kml/2.2" xmlns:atom="http://www.w3.org/2005/Atom">
<Document>
<name>Terminals</name>
<Snippet maxLines="2">Created 05/08/2018 00:35:51</Snippet>
<Folder>
<name>Terminals</name>
<Placemark><name>03373</name><description>203373 GRAE
posicio de les: 05/08/2018 00:32:46</description><styleUrl>#w_verd</styleUrl><Point><coordinates>1.47515058517456,42.544641494751,0</coordinates></Point></Placemark>
<Placemark><name>GGRAF12</name><description>204212 P.REC
posicio de les: 05/08/2018 00:34:56</description><styleUrl>#w_verdP</styleUrl><Point><coordinates>2.97475218772888,42.0297110080719,0</coordinates></Point></Placemark>
<Placemark><name>OP05087</name><description>205287 OP.AAV
posicio de les: 05/08/2018 00:33:53</description><styleUrl>#w_verdP</styleUrl><Point><coordinates>1.1581027507782,41.1479187011719,0</coordinates></Point></Placemark>
<Placemark><name>VIEL12</name><description>208012 P.PT VARAN
posicio de les: 05/08/2018 00:35:35</description><styleUrl>#w_grocP</styleUrl><Point><coordinates>0.801208019256592,42.6994693279266,0</coordinates></Point></Placemark>
<Placemark><name>VIEL17</name><description>208017 BASE CCA VARAN
posicio de les: 05/08/2018 00:33:51</description><styleUrl>#w_verd</styleUrl><Point><coordinates>0.796819925308228,42.7080094814301,0</coordinates></Point></Placemark>
<Placemark><name>E0REC</name><description>210012 P.Tec REGIÓ
posicio de les: 05/08/2018 00:35:01</description><styleUrl>#w_verdP</styleUrl><Point><coordinates>1.85121774673462,41.7417168617249,0</coordinates></Point></Placemark>
<Placemark><name>CAF56</name><description>210456 PORT.COM CAF (Centre)
posicio de les: 05/08/2018 00:35:49</description><styleUrl>#w_verdP</styleUrl><Point><coordinates>1.52757167816162,41.7306554317474,0</coordinates></Point></Placemark>
<Placemark><name>GUA56</name><description>210856 PORT.COM GUA (Centre)
posicio de les: 05/08/2018 00:34:26</description><styleUrl>#w_verdP</styleUrl><Point><coordinates>1.86937093734741,42.2189784049988,0</coordinates></Point></Placemark>
<Placemark><name>PRA07</name><description>211407 PORT PRA (Centre)
posicio de les: 05/08/2018 00:35:03</description><styleUrl>#w_verdP</styleUrl><Point><coordinates>2.03596830368042,42.0079636573792,0</coordinates></Point></Placemark>
<Placemark><name>PUIG01</name><description>211501 PORT PUIG (Centre)
posicio de les: 05/08/2018 00:32:52</description><styleUrl>#w_verdP</styleUrl><Point><coordinates>1.92152380943298,42.4205732345581,0</coordinates></Point></Placemark>
<Placemark><name>20134</name><description>220134 BFP AMER (Girona)
posicio de les: 05/08/2018 00:35:07</description><styleUrl>#w_grocC</styleUrl><Point><coordinates>3.15348386764526,42.3574554920197,0</coordinates></Point></Placemark>
<Placemark><name>20330</name><description>220330 BRP BANY (Girona)
posicio de les: 05/08/2018 00:31:19</description><styleUrl>#w_grocC</styleUrl><Point><coordinates>2.78493762016296,42.1176767349243,0</coordinates></Point></Placemark>
<Placemark><name>CASS56</name><description>220856 PORT.COM CASS (Girona)
posicio de les: 05/08/2018 00:34:43</description><styleUrl>#w_grocP</styleUrl><Point><coordinates>2.88412570953369,41.8796682357788,0</coordinates></Point></Placemark>
<Placemark><name>FIGU56</name><description>221056 PORT.COM FIGU (Girona)
posicio de les: 05/08/2018 00:35:17</description><styleUrl>#w_verdP</styleUrl><Point><coordinates>2.97053575515747,42.2727513313293,0</coordinates></Point></Placemark>
<Placemark><name>GIRO56</name><description>221156 PORT.COM GIRO (Girona)
posicio de les: 05/08/2018 00:35:28</description><styleUrl>#w_verdP</styleUrl><Point><coordinates>2.80586957931519,41.9613575935364,0</coordinates></Point></Placemark>
<Placemark><name>HOST05</name><description>221205 PORT HOST (Girona)
posicio de les: 05/08/2018 00:35:26</description><styleUrl>#w_grocP</styleUrl><Point><coordinates>2.62434840202332,41.748229265213,0</coordinates></Point></Placemark>
<Placemark><name>HOST57</name><description>221257 PORT.COM HOST (Girona)
posicio de les: 05/08/2018 00:34:32</description><styleUrl>#w_verdP</styleUrl><Point><coordinates>2.62439131736755,41.748046875,0</coordinates></Point></Placemark>
<Placemark><name>JONQ56</name><description>221356 PORT.COM JONQ (Girona)
posicio de les: 05/08/2018 00:35:16</description><styleUrl>#w_verdP</styleUrl><Point><coordinates>2.87615418434143,42.4118828773499,0</coordinates></Point></Placemark>
<Placemark><name>LLAN57</name><description>221457 PORT.COM LLAN (Girona)
posicio de les: 05/08/2018 00:34:47</description><styleUrl>#w_verdP</styleUrl><Point><coordinates>3.15343022346497,42.3573696613312,0</coordinates></Point></Placemark>
<Placemark><name>LLOR56</name><description>221556 PORT.COM LLOR (Girona)
posicio de les: 05/08/2018 00:31:45</description><styleUrl>#w_verdP</styleUrl><Point><coordinates>2.83642530441284,41.6991984844208,0</coordinates></Point></Placemark>
<Placemark><name>21630</name><description>221630 BRP MACA (Girona)
posicio de les: 05/08/2018 00:33:45</description><styleUrl>#w_grocC</styleUrl><Point><coordinates>2.75307297706604,41.7795467376709,0</coordinates></Point></Placemark>
<Placemark><name>MAÇA57</name><description>221657 PORT.COM MACA (Girona)
posicio de les: 05/08/2018 00:33:50</description><styleUrl>#w_verdP</styleUrl><Point><coordinates>2.75296568870544,41.7788279056549,0</coordinates></Point></Placemark>
<Placemark><name>OLOT56</name><description>221756 PORT.COM OLOT (Girona)
posicio de les: 05/08/2018 00:34:20</description><styleUrl>#w_verdP</styleUrl><Point><coordinates>2.47477769851685,42.1900105476379,0</coordinates></Point></Placemark>
<Placemark><name>PALA56</name><description>221856 PORT.COM PALA (Girona)
posicio de les: 05/08/2018 00:35:43</description><styleUrl>#w_grocP</styleUrl><Point><coordinates>3.15629482269287,41.9256627559662,0</coordinates></Point></Placemark>
<Placemark><name>PALA57</name><description>221857 PORT.COM PALA (Girona)
posicio de les: 05/08/2018 00:35:05</description><styleUrl>#w_verdP</styleUrl><Point><coordinates>3.15608024597168,41.9258236885071,0</coordinates></Point></Placemark>
<Placemark><name>RIPO03</name><description>222103 PORT RIPO (Girona)
posicio de les: 05/08/2018 00:35:09</description><styleUrl>#w_grocP</styleUrl><Point><coordinates>2.16811537742615,42.2151803970337,0</coordinates></Point></Placemark>
<Placemark><name>22130</name><description>222130 BRP RIPO (Girona)
posicio de les: 05/08/2018 00:32:32</description><styleUrl>#w_grocC</styleUrl><Point><coordinates>2.1677827835083,42.2153091430664,0</coordinates></Point></Placemark>
<Placemark><name>ROSE56</name><description>222256 PORT.COM ROSE (Girona)
posicio de les: 05/08/2018 00:34:27</description><styleUrl>#w_verdP</styleUrl><Point><coordinates>3.16041469573975,42.2763562202454,0</coordinates></Point></Placemark>
<Placemark><name>TORR56</name><description>222656 PORT.COM TORR (Girona)
posicio de les: 05/08/2018 00:35:51</description><styleUrl>#w_grocP</styleUrl><Point><coordinates>3.1671416759491,42.0483469963074,0</coordinates></Point></Placemark>
<Placemark><name>VALL57</name><description>222857 PORT.COM VALL (Girona)
posicio de les: 05/08/2018 00:35:12</description><styleUrl>#w_verdP</styleUrl><Point><coordinates>3.03165793418884,41.8087720870972,0</coordinates></Point></Placemark>
<Placemark><name>I308</name><description>227308 P.GUAITA GUAITA
posicio de les: 05/08/2018 00:35:39</description><styleUrl>#w_verdP</styleUrl><Point><coordinates>3.15575838088989,41.9255554676056,0</coordinates></Point></Placemark>
<Placemark><name>D0REL</name><description>230010 P.CG REGIÓ
posicio de les: 05/08/2018 00:32:00</description><styleUrl>#w_verdP</styleUrl><Point><coordinates>0.605063438415527,41.6237103939056,0</coordinates></Point></Placemark>
<Placemark><name>30091</name><description>230091  REGIÓ
posicio de les: 05/08/2018 00:31:12</description><styleUrl>#w_groc</styleUrl><Point><coordinates>0.605438947677612,41.6241180896759,0</coordinates></Point></Placemark>
<Placemark><name>30092</name><description>230092  REGIÓ
posicio de les: 05/08/2018 00:34:34</description><styleUrl>#w_verd</styleUrl><Point><coordinates>0.605342388153076,41.6233777999878,0</coordinates></Point></Placemark>
<Placemark><name>ALMA01</name><description>230301 PORT ALMA (Lleida)
posicio de les: 05/08/2018 00:34:56</description><styleUrl>#w_grocP</styleUrl><Point><coordinates>0.433788299560547,41.7319750785828,0</coordinates></Point></Placemark>
<Placemark><name>ALMA02</name><description>230302 PORT ALMA (Lleida)
posicio de les: 05/08/2018 00:34:29</description><styleUrl>#w_verdP</styleUrl><Point><coordinates>0.433777570724487,41.7321038246155,0</coordinates></Point></Placemark>
<Placemark><name>BORG05</name><description>230705 PORT BORG (Lleida)
posicio de les: 05/08/2018 00:34:25</description><styleUrl>#w_grocP</styleUrl><Point><coordinates>0.844509601593018,41.5070772171021,0</coordinates></Point></Placemark>
<Placemark><name>BORG06</name><description>230706 PORT BORG (Lleida)
posicio de les: 05/08/2018 00:33:57</description><styleUrl>#w_grocP</styleUrl><Point><coordinates>0.844606161117554,41.5072274208069,0</coordinates></Point></Placemark>
<Placemark><name>BORG56</name><description>230756 PORT.COM BORG (Lleida)
posicio de les: 05/08/2018 00:34:52</description><styleUrl>#w_verdP</styleUrl><Point><coordinates>0.843790769577026,41.5073454380035,0</coordinates></Point></Placemark>
<Placemark><name>MOLL07</name><description>232007 PORT MOLL (Lleida)
posicio de les: 05/08/2018 00:34:01</description><styleUrl>#w_verdP</styleUrl><Point><coordinates>0.898346900939941,41.6370141506195,0</coordinates></Point></Placemark>
<Placemark><name>MOLL56</name><description>232056 PORT.COM MOLL (Lleida)
posicio de les: 05/08/2018 00:34:20</description><styleUrl>#w_verdP</styleUrl><Point><coordinates>0.898593664169312,41.636381149292,0</coordinates></Point></Placemark>
<Placemark><name>32090</name><description>232090 UPC MOLL (Lleida)
posicio de les: 05/08/2018 00:33:18</description><styleUrl>#w_groc</styleUrl><Point><coordinates>0.898100137710571,41.6366064548492,0</coordinates></Point></Placemark>
<Placemark><name>32230</name><description>232230 BRP OLIA (Lleida)
posicio de les: 05/08/2018 00:32:26</description><styleUrl>#w_grocC</styleUrl><Point><coordinates>1.31197571754456,42.0663177967072,0</coordinates></Point></Placemark>
<Placemark><name>32234</name><description>232234 BFP OLIA (Lleida)
posicio de les: 05/08/2018 00:34:17</description><styleUrl>#w_grocC</styleUrl><Point><coordinates>1.31181478500366,42.0663499832153,0</coordinates></Point></Placemark>
<Placemark><name>POBL01</name><description>232401 PORT POBL (Lleida)
posicio de les: 05/08/2018 00:35:15</description><styleUrl>#w_verdP</styleUrl><Point><coordinates>0.964457988739014,42.2391164302826,0</coordinates></Point></Placemark>
<Placemark><name>PONT56</name><description>232556 PORT.COM PONT (Lleida)
posicio de les: 05/08/2018 00:34:23</description><styleUrl>#w_grocP</styleUrl><Point><coordinates>0.739645957946777,42.4105203151703,0</coordinates></Point></Placemark>
<Placemark><name>PONS01</name><description>232601 PORT PONS (Lleida)
posicio de les: 05/08/2018 00:33:59</description><styleUrl>#w_verdP</styleUrl><Point><coordinates>1.18614792823792,41.9166612625122,0</coordinates></Point></Placemark>
<Placemark><name>32630</name><description>232630 BRP PONS (Lleida)
posicio de les: 05/08/2018 00:31:46</description><styleUrl>#w_grocC</styleUrl><Point><coordinates>1.18609428405762,41.9168543815613,0</coordinates></Point></Placemark>
<Placemark><name>PONS56</name><description>232656 PORT.COM PONS (Lleida)
posicio de les: 05/08/2018 00:34:30</description><styleUrl>#w_verdP</styleUrl><Point><coordinates>1.18606209754944,41.9169509410858,0</coordinates></Point></Placemark>
<Placemark><name>SEU09</name><description>232909 PORT SEU (Lleida)
posicio de les: 05/08/2018 00:34:17</description><styleUrl>#w_verdP</styleUrl><Point><coordinates>1.47181391716003,42.3604810237885,0</coordinates></Point></Placemark>
<Placemark><name>33390</name><description>233390 UPC TREM (Lleida)
posicio de les: 05/08/2018 00:35:06</description><styleUrl>#w_groc</styleUrl><Point><coordinates>0.968513488769531,42.2505104541779,0</coordinates></Point></Placemark>
<Placemark><name>40081</name><description>240081  REGIÓ
posicio de les: 05/08/2018 00:31:53</description><styleUrl>#w_groc</styleUrl><Point><coordinates>2.11263656616211,41.5023994445801,0</coordinates></Point></Placemark>
<Placemark><name>40091</name><description>240091  REGIÓ
posicio de les: 05/08/2018 00:32:28</description><styleUrl>#w_groc</styleUrl><Point><coordinates>2.11289405822754,41.5040624141693,0</coordinates></Point></Placemark>
<Placemark><name>40290</name><description>240290 UPC BAD (Metro. Nord)
posicio de les: 05/08/2018 00:32:43</description><styleUrl>#w_groc</styleUrl><Point><coordinates>2.03417658805847,41.473742723465,0</coordinates></Point></Placemark>
<Placemark><name>CER03</name><description>240503 PORT CER (Metro. Nord)
posicio de les: 05/08/2018 00:35:17</description><styleUrl>#w_verdP</styleUrl><Point><coordinates>2.11129546165466,41.5026783943176,0</coordinates></Point></Placemark>
<Placemark><name>GRA05</name><description>240605 PORT GRA (Metro. Nord)
posicio de les: 05/08/2018 00:34:10</description><styleUrl>#w_verdP</styleUrl><Point><coordinates>2.27495312690735,41.5909659862518,0</coordinates></Point></Placemark>
<Placemark><name>GRA07</name><description>240607 PORT GRA (Metro. Nord)
posicio de les: 05/08/2018 00:33:00</description><styleUrl>#w_verdP</styleUrl><Point><coordinates>2.27524280548096,41.5900111198425,0</coordinates></Point></Placemark>
<Placemark><name>41034</name><description>241034 BFP MOL (Metro. Nord)
posicio de les: 05/08/2018 00:35:48</description><styleUrl>#w_verdC</styleUrl><Point><coordinates>2.20241546630859,41.5370321273804,0</coordinates></Point></Placemark>
<Placemark><name>MFI01</name><description>241101 PORT MFI (Metro. Nord)
posicio de les: 05/08/2018 00:34:17</description><styleUrl>#w_grocP</styleUrl><Point><coordinates>2.27176666259766,41.7162036895752,0</coordinates></Point></Placemark>
<Placemark><name>SAB01</name><description>241401 PORT SAB (Metro. Nord)
posicio de les: 05/08/2018 00:33:55</description><styleUrl>#w_grocP</styleUrl><Point><coordinates>2.10421442985535,41.542181968689,0</coordinates></Point></Placemark>
<Placemark><name>SAB06</name><description>241406 PORT SAB (Metro. Nord)
posicio de les: 05/08/2018 00:31:52</description><styleUrl>#w_verdP</styleUrl><Point><coordinates>2.10391402244568,41.5429759025574,0</coordinates></Point></Placemark>
<Placemark><name>SAB56</name><description>241456 PORT.COM SAB (Metro. Nord)
posicio de les: 05/08/2018 00:34:40</description><styleUrl>#w_verdP</styleUrl><Point><coordinates>2.1044397354126,41.5423965454102,0</coordinates></Point></Placemark>
<Placemark><name>SCE08</name><description>241608 PORT SCE (Metro. Nord)
posicio de les: 05/08/2018 00:34:03</description><styleUrl>#w_verdP</styleUrl><Point><coordinates>2.50692129135132,41.6948962211609,0</coordinates></Point></Placemark>
<Placemark><name>TER11</name><description>242011 PORT TER (Metro. Nord)
posicio de les: 05/08/2018 00:29:54</description><styleUrl>#w_verdP</styleUrl><Point><coordinates>2.02618360519409,41.568306684494,0</coordinates></Point></Placemark>
<Placemark><name>TER56</name><description>242056 PORT.COM TER (Metro. Nord)
posicio de les: 05/08/2018 00:34:08</description><styleUrl>#w_verdP</styleUrl><Point><coordinates>2.0263659954071,41.5679633617401,0</coordinates></Point></Placemark>
<Placemark><name>50093</name><description>250093  REGIÓ
posicio de les: 05/08/2018 00:35:20</description><styleUrl>#w_verd</styleUrl><Point><coordinates>2.10003018379211,41.38028383255,0</coordinates></Point></Placemark>
<Placemark><name>50490</name><description>250490 UPC COR (Metro. Sud)
posicio de les: 05/08/2018 00:32:40</description><styleUrl>#w_groc</styleUrl><Point><coordinates>2.07025766372681,41.3625812530518,0</coordinates></Point></Placemark>
<Placemark><name>GAV02</name><description>250502 PORT GAV (Metro. Sud)
posicio de les: 05/08/2018 00:31:51</description><styleUrl>#w_verdP</styleUrl><Point><coordinates>1.99057459831238,41.299763917923,0</coordinates></Point></Placemark>
<Placemark><name>GAV56</name><description>250556 PORT.COM GAV (Metro. Sud)
posicio de les: 05/08/2018 00:35:08</description><styleUrl>#w_verdP</styleUrl><Point><coordinates>1.99064970016479,41.2992060184479,0</coordinates></Point></Placemark>
<Placemark><name>HOS06</name><description>250706 PORT HOS (Metro. Sud)
posicio de les: 05/08/2018 00:35:16</description><styleUrl>#w_grocP</styleUrl><Point><coordinates>2.1053946018219,41.369823217392,0</coordinates></Point></Placemark>
<Placemark><name>50790</name><description>250790 UPC HOS (Metro. Sud)
posicio de les: 05/08/2018 00:34:42</description><styleUrl>#w_groc</styleUrl><Point><coordinates>2.10535168647766,41.3698661327362,0</coordinates></Point></Placemark>
<Placemark><name>MAR57</name><description>251057 PORT.COM MAR (Metro. Sud)
posicio de les: 05/08/2018 00:34:16</description><styleUrl>#w_verdP</styleUrl><Point><coordinates>1.90791964530945,41.4987623691559,0</coordinates></Point></Placemark>
<Placemark><name>SBOI57</name><description>251357 PORT.COM SBOI (Metro. Sud)
posicio de les: 05/08/2018 00:34:10</description><styleUrl>#w_verdP</styleUrl><Point><coordinates>2.03477740287781,41.3224768638611,0</coordinates></Point></Placemark>
<Placemark><name>SFE02</name><description>251502 PORT SFE (Metro. Sud)
posicio de les: 05/08/2018 00:32:32</description><styleUrl>#w_verdP</styleUrl><Point><coordinates>2.04260945320129,41.3892424106598,0</coordinates></Point></Placemark>
<Placemark><name>SFE03</name><description>251503 PORT SFE (Metro. Sud)
posicio de les: 05/08/2018 00:34:02</description><styleUrl>#w_verdP</styleUrl><Point><coordinates>2.04277038574219,41.3888990879059,0</coordinates></Point></Placemark>
<Placemark><name>SFE57</name><description>251557 PORT.COM SFE (Metro. Sud)
posicio de les: 05/08/2018 00:35:49</description><styleUrl>#w_verdP</styleUrl><Point><coordinates>2.04374670982361,41.3867747783661,0</coordinates></Point></Placemark>
<Placemark><name>RET12</name><description>260012 P.Tec REGIÓ
posicio de les: 05/08/2018 00:34:53</description><styleUrl>#w_grocP</styleUrl><Point><coordinates>1.1851179599762,41.1350011825562,0</coordinates></Point></Placemark>
<Placemark><name>GE600</name><description>260017 P.Tec REGIÓ
posicio de les: 05/08/2018 00:32:09</description><styleUrl>#w_verdP</styleUrl><Point><coordinates>1.18498921394348,41.1343574523926,0</coordinates></Point></Placemark>
<Placemark><name>FALS06</name><description>260406 PORT FALS (Tarragona)
posicio de les: 05/08/2018 00:34:12</description><styleUrl>#w_verdP</styleUrl><Point><coordinates>0.823212862014771,41.1471784114838,0</coordinates></Point></Placemark>
<Placemark><name>260508</name><description>260508 PORT HOSP (Tarragona)
posicio de les: 05/08/2018 00:34:50</description><styleUrl>#w_grocP</styleUrl><Point><coordinates>0.919718742370605,40.9937024116516,0</coordinates></Point></Placemark>
<Placemark><name>REUS03</name><description>260803 PORT REUS (Tarragona)
posicio de les: 05/08/2018 00:35:28</description><styleUrl>#w_grocP</styleUrl><Point><coordinates>1.11849188804626,41.1507725715637,0</coordinates></Point></Placemark>
<Placemark><name>REUS06</name><description>260806 PORT REUS (Tarragona)
posicio de les: 05/08/2018 00:35:47</description><styleUrl>#w_verdP</styleUrl><Point><coordinates>1.11742973327637,41.1510515213013,0</coordinates></Point></Placemark>
<Placemark><name>REUS12</name><description>260812 PORT REUS (Tarragona)
posicio de les: 05/08/2018 00:34:16</description><styleUrl>#w_grocP</styleUrl><Point><coordinates>1.13824367523193,41.1319649219513,0</coordinates></Point></Placemark>
<Placemark><name>REUS56</name><description>260856 PORT.COM REUS (Tarragona)
posicio de les: 05/08/2018 00:32:00</description><styleUrl>#w_grocP</styleUrl><Point><coordinates>1.11814856529236,41.1511158943176,0</coordinates></Point></Placemark>
<Placemark><name>E00RETE</name><description>270014 P.Tec REGIÓ
posicio de les: 05/08/2018 00:34:48</description><styleUrl>#w_verdP</styleUrl><Point><coordinates>0.513396263122559,40.819251537323,0</coordinates></Point></Placemark>
<Placemark><name>AMET06</name><description>272006 PORT AMET (Terres de l'Ebre)
posicio de les: 05/08/2018 00:35:38</description><styleUrl>#w_verdP</styleUrl><Point><coordinates>0.797710418701172,40.8905231952667,0</coordinates></Point></Placemark>
<Placemark><name>GAND56</name><description>272656 PORT.COM GAND (Terres de l'Ebre)
posicio de les: 05/08/2018 00:35:16</description><styleUrl>#w_grocP</styleUrl><Point><coordinates>0.439313650131226,41.0586333274841,0</coordinates></Point></Placemark>
</Folder>
<Folder>
<name>Descarregues</name>
</Folder>
<Style id="w_verdP_n"><IconStyle><color>ff00ff00</color><scale>1.0</scale><Icon><href>http://maps.google.com/mapfiles/kml/shapes/man.png</href></Icon><hotSpot x="0.5" y="0" xunits="fraction" yunits="fraction"/></IconStyle><LabelStyle><scale>0.7</scale></LabelStyle></Style>
<Style id="w_verdP_s"><IconStyle><color>ff00ff00</color><scale>1.4</scale><Icon><href>http://maps.google.com/mapfiles/kml/shapes/man.png</href></Icon><hotSpot x="0.5" y="0" xunits="fraction" yunits="fraction"/></IconStyle><LabelStyle><scale>0.7</scale></LabelStyle></Style>
<StyleMap id="w_verdP"><Pair><key>normal</key><styleUrl>#w_verdP_n</styleUrl></Pair><Pair><key>highlight</key><styleUrl>#w_verdP_s</styleUrl></Pair></StyleMap>
<Style id="w_verd_n"><IconStyle><color>ff00ff00</color><scale>0.7</scale><Icon><href>http://maps.google.com/mapfiles/kml/shapes/cabs.png</href></Icon><hotSpot x="0.5" y="0" xunits="fraction" yunits="fraction"/></IconStyle><LabelStyle><scale>0.7</scale></LabelStyle></Style>
<Style id="w_verd_s"><IconStyle><color>ff00ff00</color><scale>1.0</scale><Icon><href>http://maps.google.com/mapfiles/kml/shapes/cabs.png</href></Icon><hotSpot x="0.5" y="0" xunits="fraction" yunits="fraction"/></IconStyle><LabelStyle><scale>0.7</scale></LabelStyle></Style>
<StyleMap id="w_verd"><Pair><key>normal</key><styleUrl>#w_verd_n</styleUrl></Pair><Pair><key>highlight</key><styleUrl>#w_verd_s</styleUrl></Pair></StyleMap>
<Style id="w_verdC_n"><IconStyle><color>ff00ff00</color><scale>1.0</scale><Icon><href>http://maps.google.com/mapfiles/kml/shapes/truck.png</href></Icon><hotSpot x="0.5" y="0" xunits="fraction" yunits="fraction"/></IconStyle><LabelStyle><scale>0.7</scale></LabelStyle></Style>
<Style id="w_verdC_s"><IconStyle><color>ff00ff00</color><scale>1.4</scale><Icon><href>http://maps.google.com/mapfiles/kml/shapes/truck.png</href></Icon><hotSpot x="0.5" y="0" xunits="fraction" yunits="fraction"/></IconStyle><LabelStyle><scale>0.7</scale></LabelStyle></Style>
<StyleMap id="w_verdC"><Pair><key>normal</key><styleUrl>#w_verdC_n</styleUrl></Pair><Pair><key>highlight</key><styleUrl>#w_verdC_s</styleUrl></Pair></StyleMap>
<Style id="w_verdH_n"><IconStyle><color>ff0000ff</color><scale>1.2</scale><Icon><href>http://maps.google.com/mapfiles/kml/shapes/heliport.png</href></Icon><hotSpot x="0.5" y="0" xunits="fraction" yunits="fraction"/></IconStyle><LabelStyle><scale>0.7</scale></LabelStyle></Style>
<Style id="w_verdH_s"><IconStyle><color>ff0000ff</color><scale>1.4</scale><Icon><href>http://maps.google.com/mapfiles/kml/shapes/heliport.png</href></Icon><hotSpot x="0.5" y="0" xunits="fraction" yunits="fraction"/></IconStyle><LabelStyle><scale>0.7</scale></LabelStyle></Style>
<StyleMap id="w_verdH"><Pair><key>normal</key><styleUrl>#w_verdH_n</styleUrl></Pair><Pair><key>highlight</key><styleUrl>#w_verdH_s</styleUrl></Pair></StyleMap>
<Style id="w_verdA_n"><IconStyle><color>ff0000ff</color><scale>1.2</scale><Icon><href>http://maps.google.com/mapfiles/kml/shapes/airports.png</href></Icon><hotSpot x="0.5" y="0" xunits="fraction" yunits="fraction"/></IconStyle><LabelStyle><scale>0.7</scale></LabelStyle></Style>
<Style id="w_verdA_s"><IconStyle><color>ff0000ff</color><scale>1.4</scale><Icon><href>http://maps.google.com/mapfiles/kml/shapes/airports.png</href></Icon><hotSpot x="0.5" y="0" xunits="fraction" yunits="fraction"/></IconStyle><LabelStyle><scale>0.7</scale></LabelStyle></Style>
<StyleMap id="w_verdA"><Pair><key>normal</key><styleUrl>#w_verdA_n</styleUrl></Pair><Pair><key>highlight</key><styleUrl>#w_verdA_s</styleUrl></Pair></StyleMap>
<Style id="w_verdB_n"><IconStyle><color>ff00ff00</color><scale>1.0</scale><Icon><href>http://maps.google.com/mapfiles/kml/shapes/sailing.png</href></Icon><hotSpot x="0.5" y="0" xunits="fraction" yunits="fraction"/></IconStyle><LabelStyle><scale>0.7</scale></LabelStyle></Style>
<Style id="w_verdB_s"><IconStyle><color>ff00ff00</color><scale>1.4</scale><Icon><href>http://maps.google.com/mapfiles/kml/shapes/sailing.png</href></Icon><hotSpot x="0.5" y="0" xunits="fraction" yunits="fraction"/></IconStyle><LabelStyle><scale>0.7</scale></LabelStyle></Style>
<StyleMap id="w_verdB"><Pair><key>normal</key><styleUrl>#w_verdBAR_n</styleUrl></Pair><Pair><key>highlight</key><styleUrl>#w_verdBAR_s</styleUrl></Pair></StyleMap>
<Style id="w_grocP_n"><IconStyle><color>ff00ffff</color><scale>1.0</scale><Icon><href>http://maps.google.com/mapfiles/kml/shapes/man.png</href></Icon><hotSpot x="0.5" y="0" xunits="fraction" yunits="fraction"/></IconStyle><LabelStyle><scale>0.7</scale></LabelStyle></Style>
<Style id="w_grocP_s"><IconStyle><color>ff00ffff</color><scale>1.4</scale><Icon><href>http://maps.google.com/mapfiles/kml/shapes/man.png</href></Icon><hotSpot x="0.5" y="0" xunits="fraction" yunits="fraction"/></IconStyle><LabelStyle><scale>0.7</scale></LabelStyle></Style>
<StyleMap id="w_grocP"><Pair><key>normal</key><styleUrl>#w_grocP_n</styleUrl></Pair><Pair><key>highlight</key><styleUrl>#w_grocP_s</styleUrl></Pair></StyleMap>
<Style id="w_groc_n"><IconStyle><color>ff00ffff</color><scale>0.7</scale><Icon><href>http://maps.google.com/mapfiles/kml/shapes/cabs.png</href></Icon><hotSpot x="0.5" y="0" xunits="fraction" yunits="fraction"/></IconStyle><LabelStyle><scale>0.7</scale></LabelStyle></Style>
<Style id="w_groc_s"><IconStyle><color>ff00ffff</color><scale>1.0</scale><Icon><href>http://maps.google.com/mapfiles/kml/shapes/cabs.png</href></Icon><hotSpot x="0.5" y="0" xunits="fraction" yunits="fraction"/></IconStyle><LabelStyle><scale>0.7</scale></LabelStyle></Style>
<StyleMap id="w_groc"><Pair><key>normal</key><styleUrl>#w_groc_n</styleUrl></Pair><Pair><key>highlight</key><styleUrl>#w_groc_s</styleUrl></Pair></StyleMap>
<Style id="w_grocC_n"><IconStyle><color>ff00ffff</color><scale>1.0</scale><Icon><href>http://maps.google.com/mapfiles/kml/shapes/truck.png</href></Icon><hotSpot x="0.5" y="0" xunits="fraction" yunits="fraction"/></IconStyle><LabelStyle><scale>0.7</scale></LabelStyle></Style>
<Style id="w_grocC_s"><IconStyle><color>ff00ffff</color><scale>1.4</scale><Icon><href>http://maps.google.com/mapfiles/kml/shapes/truck.png</href></Icon><hotSpot x="0.5" y="0" xunits="fraction" yunits="fraction"/></IconStyle><LabelStyle><scale>0.7</scale></LabelStyle></Style>
<StyleMap id="w_grocC"><Pair><key>normal</key><styleUrl>#w_grocC_n</styleUrl></Pair><Pair><key>highlight</key><styleUrl>#w_grocC_s</styleUrl></Pair></StyleMap>
<Style id="w_grocH_n"><IconStyle><color>ff0000ff</color><scale>1.2</scale><Icon><href>http://maps.google.com/mapfiles/kml/shapes/heliport.png</href></Icon><hotSpot x="0.5" y="0" xunits="fraction" yunits="fraction"/></IconStyle><LabelStyle><scale>0.7</scale></LabelStyle></Style>
<Style id="w_grocH_s"><IconStyle><color>ff0000ff</color><scale>1.4</scale><Icon><href>http://maps.google.com/mapfiles/kml/shapes/heliport.png</href></Icon><hotSpot x="0.5" y="0" xunits="fraction" yunits="fraction"/></IconStyle><LabelStyle><scale>0.7</scale></LabelStyle></Style>
<StyleMap id="w_grocH"><Pair><key>normal</key><styleUrl>#w_grocH_n</styleUrl></Pair><Pair><key>highlight</key><styleUrl>#w_grocH_s</styleUrl></Pair></StyleMap>
<Style id="w_grocA_n"><IconStyle><color>ff0000ff</color><scale>1.2</scale><Icon><href>http://maps.google.com/mapfiles/kml/shapes/airports.png</href></Icon><hotSpot x="0.5" y="0" xunits="fraction" yunits="fraction"/></IconStyle><LabelStyle><scale>0.7</scale></LabelStyle></Style>
<Style id="w_grocA_s"><IconStyle><color>ff0000ff</color><scale>1.4</scale><Icon><href>http://maps.google.com/mapfiles/kml/shapes/airports.png</href></Icon><hotSpot x="0.5" y="0" xunits="fraction" yunits="fraction"/></IconStyle><LabelStyle><scale>0.7</scale></LabelStyle></Style>
<StyleMap id="w_grocA"><Pair><key>normal</key><styleUrl>#w_grocA_n</styleUrl></Pair><Pair><key>highlight</key><styleUrl>#w_grocA_s</styleUrl></Pair></StyleMap>
<Style id="w_grocB_n"><IconStyle><color>ff00ffff</color><scale>1.0</scale><Icon><href>http://maps.google.com/mapfiles/kml/shapes/sailing.png</href></Icon><hotSpot x="0.5" y="0" xunits="fraction" yunits="fraction"/></IconStyle><LabelStyle><scale>0.7</scale></LabelStyle></Style>
<Style id="w_grocB_s"><IconStyle><color>ff00ffff</color><scale>1.4</scale><Icon><href>http://maps.google.com/mapfiles/kml/shapes/sailing.png</href></Icon><hotSpot x="0.5" y="0" xunits="fraction" yunits="fraction"/></IconStyle><LabelStyle><scale>0.7</scale></LabelStyle></Style>
<StyleMap id="w_grocB"><Pair><key>normal</key><styleUrl>#w_grocBAR_n</styleUrl></Pair><Pair><key>highlight</key><styleUrl>#w_grocBAR_s</styleUrl></Pair></StyleMap>
<Style id="w_vermellP_n"><IconStyle><color>ff0000ff</color><scale>1.0</scale><Icon><href>http://maps.google.com/mapfiles/kml/shapes/man.png</href></Icon><hotSpot x="0.5" y="0" xunits="fraction" yunits="fraction"/></IconStyle><LabelStyle><scale>0.7</scale></LabelStyle></Style>
<Style id="w_vermellP_s"><IconStyle><color>ff0000ff</color><scale>1.4</scale><Icon><href>http://maps.google.com/mapfiles/kml/shapes/man.png</href></Icon><hotSpot x="0.5" y="0" xunits="fraction" yunits="fraction"/></IconStyle><LabelStyle><scale>0.7</scale></LabelStyle></Style>
<StyleMap id="w_vermellP"><Pair><key>normal</key><styleUrl>#w_vermellP_n</styleUrl></Pair><Pair><key>highlight</key><styleUrl>#w_vermellP_s</styleUrl></Pair></StyleMap>
<Style id="w_vermell_n"><IconStyle><color>ff0000ff</color><scale>0.7</scale><Icon><href>http://maps.google.com/mapfiles/kml/shapes/cabs.png</href></Icon><hotSpot x="0.5" y="0" xunits="fraction" yunits="fraction"/></IconStyle><LabelStyle><scale>0.7</scale></LabelStyle></Style>
<Style id="w_vermell_s"><IconStyle><color>ff0000ff</color><scale>1.0</scale><Icon><href>http://maps.google.com/mapfiles/kml/shapes/cabs.png</href></Icon><hotSpot x="0.5" y="0" xunits="fraction" yunits="fraction"/></IconStyle><LabelStyle><scale>0.7</scale></LabelStyle></Style>
<StyleMap id="w_vermell"><Pair><key>normal</key><styleUrl>#w_vermell_n</styleUrl></Pair><Pair><key>highlight</key><styleUrl>#w_vermell_s</styleUrl></Pair></StyleMap>
<Style id="w_vermellC_n"><IconStyle><color>ff0000ff</color><scale>1.0</scale><Icon><href>http://maps.google.com/mapfiles/kml/shapes/truck.png</href></Icon><hotSpot x="0.5" y="0" xunits="fraction" yunits="fraction"/></IconStyle><LabelStyle><scale>0.7</scale></LabelStyle></Style>
<Style id="w_vermellC_s"><IconStyle><color>ff0000ff</color><scale>1.4</scale><Icon><href>http://maps.google.com/mapfiles/kml/shapes/truck.png</href></Icon><hotSpot x="0.5" y="0" xunits="fraction" yunits="fraction"/></IconStyle><LabelStyle><scale>0.7</scale></LabelStyle></Style>
<StyleMap id="w_vermellC"><Pair><key>normal</key><styleUrl>#w_vermellC_n</styleUrl></Pair><Pair><key>highlight</key><styleUrl>#w_vermellC_s</styleUrl></Pair></StyleMap>
<Style id="w_vermellH_n"><IconStyle><color>ff0000ff</color><scale>1.2</scale><Icon><href>http://maps.google.com/mapfiles/kml/shapes/heliport.png</href></Icon><hotSpot x="0.5" y="0" xunits="fraction" yunits="fraction"/></IconStyle><LabelStyle><scale>0.7</scale></LabelStyle></Style>
<Style id="w_vermellH_s"><IconStyle><color>ff0000ff</color><scale>1.4</scale><Icon><href>http://maps.google.com/mapfiles/kml/shapes/heliport.png</href></Icon><hotSpot x="0.5" y="0" xunits="fraction" yunits="fraction"/></IconStyle><LabelStyle><scale>0.7</scale></LabelStyle></Style>
<StyleMap id="w_vermellH"><Pair><key>normal</key><styleUrl>#w_vermellH_n</styleUrl></Pair><Pair><key>highlight</key><styleUrl>#w_vermellH_s</styleUrl></Pair></StyleMap>
<Style id="w_vermellA_n"><IconStyle><color>ff0000ff</color><scale>1.2</scale><Icon><href>http://maps.google.com/mapfiles/kml/shapes/airports.png</href></Icon><hotSpot x="0.5" y="0" xunits="fraction" yunits="fraction"/></IconStyle><LabelStyle><scale>0.7</scale></LabelStyle></Style>
<Style id="w_vermellA_s"><IconStyle><color>ff0000ff</color><scale>1.4</scale><Icon><href>http://maps.google.com/mapfiles/kml/shapes/airports.png</href></Icon><hotSpot x="0.5" y="0" xunits="fraction" yunits="fraction"/></IconStyle><LabelStyle><scale>0.7</scale></LabelStyle></Style>
<StyleMap id="w_vermellA"><Pair><key>normal</key><styleUrl>#w_vermellA_n</styleUrl></Pair><Pair><key>highlight</key><styleUrl>#w_vermellA_s</styleUrl></Pair></StyleMap>
<Style id="w_vermellB_n"><IconStyle><color>ff0000ff</color><scale>1.0</scale><Icon><href>http://maps.google.com/mapfiles/kml/shapes/sailing.png</href></Icon><hotSpot x="0.5" y="0" xunits="fraction" yunits="fraction"/></IconStyle><LabelStyle><scale>0.7</scale></LabelStyle></Style>
<Style id="w_vermellB_s"><IconStyle><color>ff0000ff</color><scale>1.4</scale><Icon><href>http://maps.google.com/mapfiles/kml/shapes/sailing.png</href></Icon><hotSpot x="0.5" y="0" xunits="fraction" yunits="fraction"/></IconStyle><LabelStyle><scale>0.7</scale></LabelStyle></Style>
<StyleMap id="w_vermellB"><Pair><key>normal</key><styleUrl>#w_vermellBAR_n</styleUrl></Pair><Pair><key>highlight</key><styleUrl>#w_vermellBAR_s</styleUrl></Pair></StyleMap>
<Style id="w_descarrega"><IconStyle><color>ff00ffff</color><scale>0.5</scale><Icon><href>http://maps.google.com/mapfiles/kml/shapes/road_shield3.png</href></Icon></IconStyle><LabelStyle><scale>0.7</scale></LabelStyle></Style><Style id="actuacio"><IconStyle><color>ff00ffff</color><scale>0.8</scale><Icon><href>http://maps.google.com/mapfiles/kml/shapes/caution.png</href></Icon></IconStyle><LabelStyle><scale>0.7</scale></LabelStyle></Style></Document></kml>