<?xml version="1.0" encoding="UTF-8"?>
<kml xmlns="http://www.opengis.net/kml/2.2" xmlns:gx="http://www.google.com/kml/ext/2.2" xmlns:kml="http://www.opengis.net/kml/2.2" xmlns:atom="http://www.w3.org/2005/Atom">
<Document>
<name>Terminals</name>
<Snippet maxLines="2">Created 04/08/2018 01:30:30</Snippet>
<Folder>
<name>Terminals</name>
<Placemark><name>OP05081</name><description>205281 OP.AAV
posicio de les: 04/08/2018 01:25:51</description><styleUrl>#w_verdP</styleUrl><Point><coordinates>2.1064031124115,41.5169584751129,0</coordinates></Point></Placemark>
<Placemark><name>VIEL12</name><description>208012 P.PT VARAN
posicio de les: 04/08/2018 01:28:52</description><styleUrl>#w_verdP</styleUrl><Point><coordinates>0.801143646240234,42.6995229721069,0</coordinates></Point></Placemark>
<Placemark><name>VIEL17</name><description>208017 BASE CCA VARAN
posicio de les: 04/08/2018 01:29:59</description><styleUrl>#w_verd</styleUrl><Point><coordinates>0.796605348587036,42.7085781097412,0</coordinates></Point></Placemark>
<Placemark><name>GE100</name><description>210017 P.Tec REGIÓ
posicio de les: 04/08/2018 01:27:53</description><styleUrl>#w_verdP</styleUrl><Point><coordinates>1.85136795043945,41.7415452003479,0</coordinates></Point></Placemark>
<Placemark><name>10071</name><description>210071  REGIÓ
posicio de les: 04/08/2018 01:25:37</description><styleUrl>#w_verd</styleUrl><Point><coordinates>1.85397505760193,41.7425858974457,0</coordinates></Point></Placemark>
<Placemark><name>BER57</name><description>210357 PORT.COM BER (Centre)
posicio de les: 04/08/2018 01:28:15</description><styleUrl>#w_verdP</styleUrl><Point><coordinates>1.85765504837036,42.1041369438171,0</coordinates></Point></Placemark>
<Placemark><name>10831</name><description>210831 BRP GUA (Centre)
posicio de les: 04/08/2018 01:30:23</description><styleUrl>#w_verdC</styleUrl><Point><coordinates>1.81151032447815,42.2230660915375,0</coordinates></Point></Placemark>
<Placemark><name>211130</name><description>211130 BRP MOI (Centre)
posicio de les: 04/08/2018 01:29:29</description><styleUrl>#w_verdC</styleUrl><Point><coordinates>2.08655476570129,41.8111860752106,0</coordinates></Point></Placemark>
<Placemark><name>PRA07</name><description>211407 PORT PRA (Centre)
posicio de les: 04/08/2018 01:28:53</description><styleUrl>#w_verdP</styleUrl><Point><coordinates>2.03593611717224,42.0081889629364,0</coordinates></Point></Placemark>
<Placemark><name>PUIG08</name><description>211508 PORT PUIG (Centre)
posicio de les: 04/08/2018 01:26:53</description><styleUrl>#w_verdP</styleUrl><Point><coordinates>1.90292000770569,42.4301648139954,0</coordinates></Point></Placemark>
<Placemark><name>SOLS05</name><description>211905 PORT SOLS (Centre)
posicio de les: 04/08/2018 01:28:39</description><styleUrl>#w_verdP</styleUrl><Point><coordinates>1.51244401931763,41.9897890090942,0</coordinates></Point></Placemark>
<Placemark><name>VIC04</name><description>212104 PORT VIC (Centre)
posicio de les: 04/08/2018 01:29:05</description><styleUrl>#w_verdP</styleUrl><Point><coordinates>2.26939558982849,41.9415950775146,0</coordinates></Point></Placemark>
<Placemark><name>20091</name><description>220091  REGIÓ
posicio de les: 04/08/2018 01:29:57</description><styleUrl>#w_groc</styleUrl><Point><coordinates>2.80623435974121,41.9602203369141,0</coordinates></Point></Placemark>
<Placemark><name>20134</name><description>220134 BFP AMER (Girona)
posicio de les: 04/08/2018 01:27:55</description><styleUrl>#w_grocC</styleUrl><Point><coordinates>3.15334439277649,42.3577237129211,0</coordinates></Point></Placemark>
<Placemark><name>BANY56</name><description>220356 PORT.COM BANY (Girona)
posicio de les: 04/08/2018 01:27:59</description><styleUrl>#w_verdP</styleUrl><Point><coordinates>2.78571009635925,42.1173119544983,0</coordinates></Point></Placemark>
<Placemark><name>220656</name><description>220656 PORT.COM CALO (Girona)
posicio de les: 04/08/2018 01:29:34</description><styleUrl>#w_verdP</styleUrl><Point><coordinates>3.07451963424683,41.8525886535645,0</coordinates></Point></Placemark>
<Placemark><name>CASS04</name><description>220804 PORT CASS (Girona)
posicio de les: 04/08/2018 01:29:26</description><styleUrl>#w_verdP</styleUrl><Point><coordinates>2.88320302963257,41.8797540664673,0</coordinates></Point></Placemark>
<Placemark><name>20830</name><description>220830 BRP CASS (Girona)
posicio de les: 04/08/2018 01:30:34</description><styleUrl>#w_verdC</styleUrl><Point><coordinates>2.88322448730469,41.8796360492706,0</coordinates></Point></Placemark>
<Placemark><name>CASS56</name><description>220856 PORT.COM CASS (Girona)
posicio de les: 04/08/2018 01:30:02</description><styleUrl>#w_grocP</styleUrl><Point><coordinates>2.88409352302551,41.8797433376312,0</coordinates></Point></Placemark>
<Placemark><name>GIRO06</name><description>221106 PORT GIRO (Girona)
posicio de les: 04/08/2018 01:29:01</description><styleUrl>#w_verdP</styleUrl><Point><coordinates>2.80598759651184,41.9602203369141,0</coordinates></Point></Placemark>
<Placemark><name>JONQ56</name><description>221356 PORT.COM JONQ (Girona)
posicio de les: 04/08/2018 01:29:19</description><styleUrl>#w_grocP</styleUrl><Point><coordinates>2.8764009475708,42.4118614196777,0</coordinates></Point></Placemark>
<Placemark><name>LLAN57</name><description>221457 PORT.COM LLAN (Girona)
posicio de les: 04/08/2018 01:28:03</description><styleUrl>#w_verdP</styleUrl><Point><coordinates>3.15314054489136,42.3578417301178,0</coordinates></Point></Placemark>
<Placemark><name>LLOR56</name><description>221556 PORT.COM LLOR (Girona)
posicio de les: 04/08/2018 01:29:18</description><styleUrl>#w_verdP</styleUrl><Point><coordinates>2.83619999885559,41.6995203495026,0</coordinates></Point></Placemark>
<Placemark><name>MAÇA57</name><description>221657 PORT.COM MACA (Girona)
posicio de les: 04/08/2018 01:27:26</description><styleUrl>#w_grocP</styleUrl><Point><coordinates>2.75290131568909,41.7792892456055,0</coordinates></Point></Placemark>
<Placemark><name>OLOT01</name><description>221701 PORT OLOT (Girona)
posicio de les: 04/08/2018 01:29:51</description><styleUrl>#w_verdP</styleUrl><Point><coordinates>3.16082239151001,42.2765064239502,0</coordinates></Point></Placemark>
<Placemark><name>OLOT56</name><description>221756 PORT.COM OLOT (Girona)
posicio de les: 04/08/2018 01:29:17</description><styleUrl>#w_verdP</styleUrl><Point><coordinates>2.47511029243469,42.1896350383759,0</coordinates></Point></Placemark>
<Placemark><name>OLOT57</name><description>221757 PORT.COM OLOT (Girona)
posicio de les: 04/08/2018 01:27:40</description><styleUrl>#w_verdP</styleUrl><Point><coordinates>2.47447729110718,42.1902787685394,0</coordinates></Point></Placemark>
<Placemark><name>PALA56</name><description>221856 PORT.COM PALA (Girona)
posicio de les: 04/08/2018 01:28:29</description><styleUrl>#w_grocP</styleUrl><Point><coordinates>3.15629482269287,41.9260704517365,0</coordinates></Point></Placemark>
<Placemark><name>RIPO56</name><description>222156 PORT.COM RIPO (Girona)
posicio de les: 04/08/2018 01:25:01</description><styleUrl>#w_verdP</styleUrl><Point><coordinates>2.16799736022949,42.2147834300995,0</coordinates></Point></Placemark>
<Placemark><name>ROSE57</name><description>222257 PORT.COM ROSE (Girona)
posicio de les: 04/08/2018 01:29:01</description><styleUrl>#w_verdP</styleUrl><Point><coordinates>3.16070437431335,42.2763776779175,0</coordinates></Point></Placemark>
<Placemark><name>22430</name><description>222430 BRP SHIL (Girona)
posicio de les: 04/08/2018 01:29:36</description><styleUrl>#w_grocC</styleUrl><Point><coordinates>3.03160429000854,41.809093952179,0</coordinates></Point></Placemark>
<Placemark><name>22890</name><description>222890 UPC VALL (Girona)
posicio de les: 04/08/2018 01:26:11</description><styleUrl>#w_verd</styleUrl><Point><coordinates>3.03415775299072,41.8095982074738,0</coordinates></Point></Placemark>
<Placemark><name>D6REG</name><description>228046  SERVEIS REGIÓ
posicio de les: 04/08/2018 01:29:57</description><styleUrl>#w_groc</styleUrl><Point><coordinates>2.80640602111816,41.9600701332092,0</coordinates></Point></Placemark>
<Placemark><name>D0REL</name><description>230010 P.CG REGIÓ
posicio de les: 04/08/2018 01:30:03</description><styleUrl>#w_verdP</styleUrl><Point><coordinates>0.604773759841919,41.6234529018402,0</coordinates></Point></Placemark>
<Placemark><name>30082</name><description>230082  REGIÓ
posicio de les: 04/08/2018 01:25:51</description><styleUrl>#w_groc</styleUrl><Point><coordinates>0.805606842041016,41.7992877960205,0</coordinates></Point></Placemark>
<Placemark><name>BALA57</name><description>230657 PORT.COM BALA (Lleida)
posicio de les: 04/08/2018 01:30:32</description><styleUrl>#w_verdP</styleUrl><Point><coordinates>0.805639028549194,41.7992770671844,0</coordinates></Point></Placemark>
<Placemark><name>BORG01</name><description>230701 PORT BORG (Lleida)
posicio de les: 04/08/2018 01:29:17</description><styleUrl>#w_grocP</styleUrl><Point><coordinates>0.844981670379639,41.5071952342987,0</coordinates></Point></Placemark>
<Placemark><name>BORG02</name><description>230702 PORT BORG (Lleida)
posicio de les: 04/08/2018 01:29:28</description><styleUrl>#w_grocP</styleUrl><Point><coordinates>0.879635810852051,41.6393852233887,0</coordinates></Point></Placemark>
<Placemark><name>230704</name><description>230704 PORT BORG (Lleida)
posicio de les: 04/08/2018 01:28:51</description><styleUrl>#w_verdP</styleUrl><Point><coordinates>0.879496335983276,41.6395246982574,0</coordinates></Point></Placemark>
<Placemark><name>BORG06</name><description>230706 PORT BORG (Lleida)
posicio de les: 04/08/2018 01:29:49</description><styleUrl>#w_verdP</styleUrl><Point><coordinates>0.879142284393311,41.6397392749786,0</coordinates></Point></Placemark>
<Placemark><name>BORG07</name><description>230707 PORT BORG (Lleida)
posicio de les: 04/08/2018 01:28:57</description><styleUrl>#w_verdP</styleUrl><Point><coordinates>0.879131555557251,41.6393423080444,0</coordinates></Point></Placemark>
<Placemark><name>30730</name><description>230730 BRP BORG (Lleida)
posicio de les: 04/08/2018 01:28:44</description><styleUrl>#w_grocC</styleUrl><Point><coordinates>0.879228115081787,41.6397714614868,0</coordinates></Point></Placemark>
<Placemark><name>30748</name><description>230748 BUL BORG (Lleida)
posicio de les: 04/08/2018 01:28:38</description><styleUrl>#w_grocC</styleUrl><Point><coordinates>0.879110097885132,41.6397285461426,0</coordinates></Point></Placemark>
<Placemark><name>BORG56</name><description>230756 PORT.COM BORG (Lleida)
posicio de les: 04/08/2018 01:28:46</description><styleUrl>#w_grocP</styleUrl><Point><coordinates>0.844649076461792,41.507066488266,0</coordinates></Point></Placemark>
<Placemark><name>CERV08</name><description>230908 PORT CERV (Lleida)
posicio de les: 04/08/2018 01:28:42</description><styleUrl>#w_verdP</styleUrl><Point><coordinates>1.26513361930847,41.6712605953217,0</coordinates></Point></Placemark>
<Placemark><name>ISON56</name><description>231556 PORT.COM ISON (Lleida)
posicio de les: 04/08/2018 01:28:58</description><styleUrl>#w_verdP</styleUrl><Point><coordinates>1.04798197746277,42.1187174320221,0</coordinates></Point></Placemark>
<Placemark><name>31948</name><description>231948 BUL LLEI (Lleida)
posicio de les: 04/08/2018 01:30:26</description><styleUrl>#w_verdC</styleUrl><Point><coordinates>0.607852935791016,41.6177451610565,0</coordinates></Point></Placemark>
<Placemark><name>31990</name><description>231990 UPC LLEI (Lleida)
posicio de les: 04/08/2018 01:25:41</description><styleUrl>#w_groc</styleUrl><Point><coordinates>0.607863664627075,41.6121017932892,0</coordinates></Point></Placemark>
<Placemark><name>MOLL07</name><description>232007 PORT MOLL (Lleida)
posicio de les: 04/08/2018 01:29:03</description><styleUrl>#w_verdP</styleUrl><Point><coordinates>0.898164510726929,41.636563539505,0</coordinates></Point></Placemark>
<Placemark><name>32031</name><description>232031 BRP MOLL (Lleida)
posicio de les: 04/08/2018 01:29:52</description><styleUrl>#w_grocC</styleUrl><Point><coordinates>0.898185968399048,41.6363918781281,0</coordinates></Point></Placemark>
<Placemark><name>POBL01</name><description>232401 PORT POBL (Lleida)
posicio de les: 04/08/2018 01:30:27</description><styleUrl>#w_verdP</styleUrl><Point><coordinates>0.964769124984741,42.239009141922,0</coordinates></Point></Placemark>
<Placemark><name>REMN11</name><description>240011 P.Tec REGIÓ
posicio de les: 04/08/2018 01:29:11</description><styleUrl>#w_verdP</styleUrl><Point><coordinates>2.11046934127808,41.501659154892,0</coordinates></Point></Placemark>
<Placemark><name>40081</name><description>240081  REGIÓ
posicio de les: 04/08/2018 01:26:53</description><styleUrl>#w_groc</styleUrl><Point><coordinates>2.11236834526062,41.5022492408752,0</coordinates></Point></Placemark>
<Placemark><name>40091</name><description>240091  REGIÓ
posicio de les: 04/08/2018 01:27:58</description><styleUrl>#w_groc</styleUrl><Point><coordinates>2.11191773414612,41.5023243427277,0</coordinates></Point></Placemark>
<Placemark><name>40148</name><description>240148 BUL ARE (Metro. Nord)
posicio de les: 04/08/2018 01:28:35</description><styleUrl>#w_grocC</styleUrl><Point><coordinates>2.58790254592896,41.5998923778534,0</coordinates></Point></Placemark>
<Placemark><name>40290</name><description>240290 UPC BAD (Metro. Nord)
posicio de les: 04/08/2018 01:27:26</description><styleUrl>#w_groc</styleUrl><Point><coordinates>2.20923900604248,41.4632821083069,0</coordinates></Point></Placemark>
<Placemark><name>CER06</name><description>240506 PORT CER (Metro. Nord)
posicio de les: 04/08/2018 01:27:38</description><styleUrl>#w_verdP</styleUrl><Point><coordinates>2.11175680160522,41.5023994445801,0</coordinates></Point></Placemark>
<Placemark><name>40690</name><description>240690 UPC GRA (Metro. Nord)
posicio de les: 04/08/2018 01:28:41</description><styleUrl>#w_verd</styleUrl><Point><coordinates>2.42275357246399,41.5313458442688,0</coordinates></Point></Placemark>
<Placemark><name>MAT07</name><description>240907 PORT MAT (Metro. Nord)
posicio de les: 04/08/2018 01:29:56</description><styleUrl>#w_grocP</styleUrl><Point><coordinates>2.58785963058472,41.5998387336731,0</coordinates></Point></Placemark>
<Placemark><name>240950</name><description>240950 FSV/FRQ/FER/FRM/FRA/FSA MAT (Metro. Nord)
posicio de les: 04/08/2018 01:25:46</description><styleUrl>#w_grocC</styleUrl><Point><coordinates>2.58770942687988,41.5997743606567,0</coordinates></Point></Placemark>
<Placemark><name>MOL03</name><description>241003 PORT MOL (Metro. Nord)
posicio de les: 04/08/2018 01:29:31</description><styleUrl>#w_verdP</styleUrl><Point><coordinates>2.20128893852234,41.5374398231506,0</coordinates></Point></Placemark>
<Placemark><name>241048</name><description>241048 BUL MOL (Metro. Nord)
posicio de les: 04/08/2018 01:29:01</description><styleUrl>#w_verdC</styleUrl><Point><coordinates>2.20199704170227,41.5367424488068,0</coordinates></Point></Placemark>
<Placemark><name>RUB01</name><description>241301 PORT RUB (Metro. Nord)
posicio de les: 04/08/2018 01:27:47</description><styleUrl>#w_verdP</styleUrl><Point><coordinates>2.03524947166443,41.4729058742523,0</coordinates></Point></Placemark>
<Placemark><name>241440</name><description>241440 BUP SAB (Metro. Nord)
posicio de les: 04/08/2018 01:27:36</description><styleUrl>#w_grocC</styleUrl><Point><coordinates>2.10378527641296,41.5424931049347,0</coordinates></Point></Placemark>
<Placemark><name>241858</name><description>241858 BSAL SCG (Metro. Nord)
posicio de les: 04/08/2018 01:29:06</description><styleUrl>#w_verdB</styleUrl><Point><coordinates>2.20943212509155,41.4632713794708,0</coordinates></Point></Placemark>
<Placemark><name>242040</name><description>242040 BUP TER (Metro. Nord)
posicio de les: 04/08/2018 01:27:40</description><styleUrl>#w_grocC</styleUrl><Point><coordinates>2.02615141868591,41.5682423114777,0</coordinates></Point></Placemark>
<Placemark><name>42060</name><description>242060 AEA/AES/ABA TER (Metro. Nord)
posicio de les: 04/08/2018 01:26:03</description><styleUrl>#w_grocC</styleUrl><Point><coordinates>2.03459501266479,41.5601098537445,0</coordinates></Point></Placemark>
<Placemark><name>D3REMN</name><description>248043  SERVEIS REGIÓ
posicio de les: 04/08/2018 01:28:20</description><styleUrl>#w_verd</styleUrl><Point><coordinates>2.11275458335876,41.5018200874329,0</coordinates></Point></Placemark>
<Placemark><name>50092</name><description>250092  REGIÓ
posicio de les: 04/08/2018 01:27:24</description><styleUrl>#w_verd</styleUrl><Point><coordinates>1.71384572982788,41.2196087837219,0</coordinates></Point></Placemark>
<Placemark><name>50093</name><description>250093  REGIÓ
posicio de les: 04/08/2018 01:30:25</description><styleUrl>#w_groc</styleUrl><Point><coordinates>2.03449845314026,41.3227450847626,0</coordinates></Point></Placemark>
<Placemark><name>COR03</name><description>250403 PORT COR (Metro. Sud)
posicio de les: 04/08/2018 01:26:48</description><styleUrl>#w_grocP</styleUrl><Point><coordinates>2.07046151161194,41.3600921630859,0</coordinates></Point></Placemark>
<Placemark><name>COR07</name><description>250407 PORT COR (Metro. Sud)
posicio de les: 04/08/2018 01:30:06</description><styleUrl>#w_verdP</styleUrl><Point><coordinates>2.07106232643127,41.3604784011841,0</coordinates></Point></Placemark>
<Placemark><name>COR56</name><description>250456 PORT.COM COR (Metro. Sud)
posicio de les: 04/08/2018 01:25:12</description><styleUrl>#w_verdP</styleUrl><Point><coordinates>2.07051515579224,41.3607251644135,0</coordinates></Point></Placemark>
<Placemark><name>GAV09</name><description>250509 PORT GAV (Metro. Sud)
posicio de les: 04/08/2018 01:27:57</description><styleUrl>#w_verdP</styleUrl><Point><coordinates>1.99068188667297,41.299946308136,0</coordinates></Point></Placemark>
<Placemark><name>GAV57</name><description>250557 PORT.COM GAV (Metro. Sud)
posicio de les: 04/08/2018 01:28:12</description><styleUrl>#w_verdP</styleUrl><Point><coordinates>1.99042439460754,41.3001501560211,0</coordinates></Point></Placemark>
<Placemark><name>IGU20E</name><description>250820 PORT IGU (Metro. Sud)
posicio de les: 04/08/2018 01:29:51</description><styleUrl>#w_grocP</styleUrl><Point><coordinates>1.61017298698425,41.5892708301544,0</coordinates></Point></Placemark>
<Placemark><name>MAR01</name><description>251001 PORT MAR (Metro. Sud)
posicio de les: 04/08/2018 01:29:47</description><styleUrl>#w_verdP</styleUrl><Point><coordinates>1.90793037414551,41.4986765384674,0</coordinates></Point></Placemark>
<Placemark><name>MAR10</name><description>251010 PORT MAR (Metro. Sud)
posicio de les: 04/08/2018 01:28:28</description><styleUrl>#w_verdP</styleUrl><Point><coordinates>1.90767288208008,41.4988696575165,0</coordinates></Point></Placemark>
<Placemark><name>MAR11</name><description>251011 PORT MAR (Metro. Sud)
posicio de les: 04/08/2018 01:29:30</description><styleUrl>#w_verdP</styleUrl><Point><coordinates>1.90802693367004,41.4985263347626,0</coordinates></Point></Placemark>
<Placemark><name>MAR56</name><description>251056 PORT.COM MAR (Metro. Sud)
posicio de les: 04/08/2018 01:29:46</description><styleUrl>#w_verdP</styleUrl><Point><coordinates>1.90789818763733,41.4986550807953,0</coordinates></Point></Placemark>
<Placemark><name>PLL03</name><description>251203 PORT PLL (Metro. Sud)
posicio de les: 04/08/2018 01:27:03</description><styleUrl>#w_verdP</styleUrl><Point><coordinates>2.08154439926147,41.3172519207001,0</coordinates></Point></Placemark>
<Placemark><name>SBOI02</name><description>251302 PORT SBOI (Metro. Sud)
posicio de les: 04/08/2018 01:29:30</description><styleUrl>#w_grocP</styleUrl><Point><coordinates>2.03424096107483,41.322637796402,0</coordinates></Point></Placemark>
<Placemark><name>SFE03</name><description>251503 PORT SFE (Metro. Sud)
posicio de les: 04/08/2018 01:29:56</description><styleUrl>#w_grocP</styleUrl><Point><coordinates>2.04286694526672,41.3882982730865,0</coordinates></Point></Placemark>
<Placemark><name>VIF03</name><description>251803 PORT VIF (Metro. Sud)
posicio de les: 04/08/2018 01:29:43</description><styleUrl>#w_grocP</styleUrl><Point><coordinates>1.70396447181702,41.3549101352692,0</coordinates></Point></Placemark>
<Placemark><name>51860</name><description>251860 AEA/AES/ABA VIF (Metro. Sud)
posicio de les: 04/08/2018 01:26:35</description><styleUrl>#w_grocC</styleUrl><Point><coordinates>1.70467257499695,41.3547492027283,0</coordinates></Point></Placemark>
<Placemark><name>51930</name><description>251930 BRP VIL (Metro. Sud)
posicio de les: 04/08/2018 01:25:35</description><styleUrl>#w_grocC</styleUrl><Point><coordinates>1.72910213470459,41.2346291542053,0</coordinates></Point></Placemark>
<Placemark><name>260508</name><description>260508 PORT HOSP (Tarragona)
posicio de les: 04/08/2018 01:29:14</description><styleUrl>#w_grocP</styleUrl><Point><coordinates>0.919965505599976,40.9934556484222,0</coordinates></Point></Placemark>
<Placemark><name>TARR01</name><description>261201 PORT TARR (Tarragona)
posicio de les: 04/08/2018 01:29:30</description><styleUrl>#w_verdP</styleUrl><Point><coordinates>1.18465662002563,41.1351084709167,0</coordinates></Point></Placemark>
<Placemark><name>TARR04</name><description>261204 PORT TARR (Tarragona)
posicio de les: 04/08/2018 01:28:48</description><styleUrl>#w_verdP</styleUrl><Point><coordinates>1.22160673141479,41.1140263080597,0</coordinates></Point></Placemark>
<Placemark><name>SCRET</name><description>268001 P.COMODIN SERVEIS REGIÓ
posicio de les: 04/08/2018 01:28:15</description><styleUrl>#w_verdP</styleUrl><Point><coordinates>1.18592262268066,41.1341857910156,0</coordinates></Point></Placemark>
<Placemark><name>E00RETE</name><description>270014 P.Tec REGIÓ
posicio de les: 04/08/2018 01:30:33</description><styleUrl>#w_verdP</styleUrl><Point><coordinates>0.513396263122559,40.8190262317657,0</coordinates></Point></Placemark>
<Placemark><name>ASCO56</name><description>272256 PORT.COM ASCO (Terres de l'Ebre)
posicio de les: 04/08/2018 01:28:35</description><styleUrl>#w_verdP</styleUrl><Point><coordinates>0.568746328353882,41.1877548694611,0</coordinates></Point></Placemark>
<Placemark><name>MORA06</name><description>272806 PORT MORA (Terres de l'Ebre)
posicio de les: 04/08/2018 01:30:03</description><styleUrl>#w_verdP</styleUrl><Point><coordinates>0.629439353942871,41.0863244533539,0</coordinates></Point></Placemark>
<Placemark><name>ULLD08</name><description>273108 PORT ULLD (Terres de l'Ebre)
posicio de les: 04/08/2018 01:29:41</description><styleUrl>#w_grocP</styleUrl><Point><coordinates>0.3580641746521,40.6087410449982,0</coordinates></Point></Placemark>
</Folder>
<Folder>
<name>Descarregues</name>
</Folder>
<Style id="w_verdP_n"><IconStyle><color>ff00ff00</color><scale>1.0</scale><Icon><href>http://maps.google.com/mapfiles/kml/shapes/man.png</href></Icon><hotSpot x="0.5" y="0" xunits="fraction" yunits="fraction"/></IconStyle><LabelStyle><scale>0.7</scale></LabelStyle></Style>
<Style id="w_verdP_s"><IconStyle><color>ff00ff00</color><scale>1.4</scale><Icon><href>http://maps.google.com/mapfiles/kml/shapes/man.png</href></Icon><hotSpot x="0.5" y="0" xunits="fraction" yunits="fraction"/></IconStyle><LabelStyle><scale>0.7</scale></LabelStyle></Style>
<StyleMap id="w_verdP"><Pair><key>normal</key><styleUrl>#w_verdP_n</styleUrl></Pair><Pair><key>highlight</key><styleUrl>#w_verdP_s</styleUrl></Pair></StyleMap>
<Style id="w_verd_n"><IconStyle><color>ff00ff00</color><scale>0.7</scale><Icon><href>http://maps.google.com/mapfiles/kml/shapes/cabs.png</href></Icon><hotSpot x="0.5" y="0" xunits="fraction" yunits="fraction"/></IconStyle><LabelStyle><scale>0.7</scale></LabelStyle></Style>
<Style id="w_verd_s"><IconStyle><color>ff00ff00</color><scale>1.0</scale><Icon><href>http://maps.google.com/mapfiles/kml/shapes/cabs.png</href></Icon><hotSpot x="0.5" y="0" xunits="fraction" yunits="fraction"/></IconStyle><LabelStyle><scale>0.7</scale></LabelStyle></Style>
<StyleMap id="w_verd"><Pair><key>normal</key><styleUrl>#w_verd_n</styleUrl></Pair><Pair><key>highlight</key><styleUrl>#w_verd_s</styleUrl></Pair></StyleMap>
<Style id="w_verdC_n"><IconStyle><color>ff00ff00</color><scale>1.0</scale><Icon><href>http://maps.google.com/mapfiles/kml/shapes/truck.png</href></Icon><hotSpot x="0.5" y="0" xunits="fraction" yunits="fraction"/></IconStyle><LabelStyle><scale>0.7</scale></LabelStyle></Style>
<Style id="w_verdC_s"><IconStyle><color>ff00ff00</color><scale>1.4</scale><Icon><href>http://maps.google.com/mapfiles/kml/shapes/truck.png</href></Icon><hotSpot x="0.5" y="0" xunits="fraction" yunits="fraction"/></IconStyle><LabelStyle><scale>0.7</scale></LabelStyle></Style>
<StyleMap id="w_verdC"><Pair><key>normal</key><styleUrl>#w_verdC_n</styleUrl></Pair><Pair><key>highlight</key><styleUrl>#w_verdC_s</styleUrl></Pair></StyleMap>
<Style id="w_verdH_n"><IconStyle><color>ff0000ff</color><scale>1.2</scale><Icon><href>http://maps.google.com/mapfiles/kml/shapes/heliport.png</href></Icon><hotSpot x="0.5" y="0" xunits="fraction" yunits="fraction"/></IconStyle><LabelStyle><scale>0.7</scale></LabelStyle></Style>
<Style id="w_verdH_s"><IconStyle><color>ff0000ff</color><scale>1.4</scale><Icon><href>http://maps.google.com/mapfiles/kml/shapes/heliport.png</href></Icon><hotSpot x="0.5" y="0" xunits="fraction" yunits="fraction"/></IconStyle><LabelStyle><scale>0.7</scale></LabelStyle></Style>
<StyleMap id="w_verdH"><Pair><key>normal</key><styleUrl>#w_verdH_n</styleUrl></Pair><Pair><key>highlight</key><styleUrl>#w_verdH_s</styleUrl></Pair></StyleMap>
<Style id="w_verdA_n"><IconStyle><color>ff0000ff</color><scale>1.2</scale><Icon><href>http://maps.google.com/mapfiles/kml/shapes/airports.png</href></Icon><hotSpot x="0.5" y="0" xunits="fraction" yunits="fraction"/></IconStyle><LabelStyle><scale>0.7</scale></LabelStyle></Style>
<Style id="w_verdA_s"><IconStyle><color>ff0000ff</color><scale>1.4</scale><Icon><href>http://maps.google.com/mapfiles/kml/shapes/airports.png</href></Icon><hotSpot x="0.5" y="0" xunits="fraction" yunits="fraction"/></IconStyle><LabelStyle><scale>0.7</scale></LabelStyle></Style>
<StyleMap id="w_verdA"><Pair><key>normal</key><styleUrl>#w_verdA_n</styleUrl></Pair><Pair><key>highlight</key><styleUrl>#w_verdA_s</styleUrl></Pair></StyleMap>
<Style id="w_verdB_n"><IconStyle><color>ff00ff00</color><scale>1.0</scale><Icon><href>http://maps.google.com/mapfiles/kml/shapes/sailing.png</href></Icon><hotSpot x="0.5" y="0" xunits="fraction" yunits="fraction"/></IconStyle><LabelStyle><scale>0.7</scale></LabelStyle></Style>
<Style id="w_verdB_s"><IconStyle><color>ff00ff00</color><scale>1.4</scale><Icon><href>http://maps.google.com/mapfiles/kml/shapes/sailing.png</href></Icon><hotSpot x="0.5" y="0" xunits="fraction" yunits="fraction"/></IconStyle><LabelStyle><scale>0.7</scale></LabelStyle></Style>
<StyleMap id="w_verdB"><Pair><key>normal</key><styleUrl>#w_verdBAR_n</styleUrl></Pair><Pair><key>highlight</key><styleUrl>#w_verdBAR_s</styleUrl></Pair></StyleMap>
<Style id="w_grocP_n"><IconStyle><color>ff00ffff</color><scale>1.0</scale><Icon><href>http://maps.google.com/mapfiles/kml/shapes/man.png</href></Icon><hotSpot x="0.5" y="0" xunits="fraction" yunits="fraction"/></IconStyle><LabelStyle><scale>0.7</scale></LabelStyle></Style>
<Style id="w_grocP_s"><IconStyle><color>ff00ffff</color><scale>1.4</scale><Icon><href>http://maps.google.com/mapfiles/kml/shapes/man.png</href></Icon><hotSpot x="0.5" y="0" xunits="fraction" yunits="fraction"/></IconStyle><LabelStyle><scale>0.7</scale></LabelStyle></Style>
<StyleMap id="w_grocP"><Pair><key>normal</key><styleUrl>#w_grocP_n</styleUrl></Pair><Pair><key>highlight</key><styleUrl>#w_grocP_s</styleUrl></Pair></StyleMap>
<Style id="w_groc_n"><IconStyle><color>ff00ffff</color><scale>0.7</scale><Icon><href>http://maps.google.com/mapfiles/kml/shapes/cabs.png</href></Icon><hotSpot x="0.5" y="0" xunits="fraction" yunits="fraction"/></IconStyle><LabelStyle><scale>0.7</scale></LabelStyle></Style>
<Style id="w_groc_s"><IconStyle><color>ff00ffff</color><scale>1.0</scale><Icon><href>http://maps.google.com/mapfiles/kml/shapes/cabs.png</href></Icon><hotSpot x="0.5" y="0" xunits="fraction" yunits="fraction"/></IconStyle><LabelStyle><scale>0.7</scale></LabelStyle></Style>
<StyleMap id="w_groc"><Pair><key>normal</key><styleUrl>#w_groc_n</styleUrl></Pair><Pair><key>highlight</key><styleUrl>#w_groc_s</styleUrl></Pair></StyleMap>
<Style id="w_grocC_n"><IconStyle><color>ff00ffff</color><scale>1.0</scale><Icon><href>http://maps.google.com/mapfiles/kml/shapes/truck.png</href></Icon><hotSpot x="0.5" y="0" xunits="fraction" yunits="fraction"/></IconStyle><LabelStyle><scale>0.7</scale></LabelStyle></Style>
<Style id="w_grocC_s"><IconStyle><color>ff00ffff</color><scale>1.4</scale><Icon><href>http://maps.google.com/mapfiles/kml/shapes/truck.png</href></Icon><hotSpot x="0.5" y="0" xunits="fraction" yunits="fraction"/></IconStyle><LabelStyle><scale>0.7</scale></LabelStyle></Style>
<StyleMap id="w_grocC"><Pair><key>normal</key><styleUrl>#w_grocC_n</styleUrl></Pair><Pair><key>highlight</key><styleUrl>#w_grocC_s</styleUrl></Pair></StyleMap>
<Style id="w_grocH_n"><IconStyle><color>ff0000ff</color><scale>1.2</scale><Icon><href>http://maps.google.com/mapfiles/kml/shapes/heliport.png</href></Icon><hotSpot x="0.5" y="0" xunits="fraction" yunits="fraction"/></IconStyle><LabelStyle><scale>0.7</scale></LabelStyle></Style>
<Style id="w_grocH_s"><IconStyle><color>ff0000ff</color><scale>1.4</scale><Icon><href>http://maps.google.com/mapfiles/kml/shapes/heliport.png</href></Icon><hotSpot x="0.5" y="0" xunits="fraction" yunits="fraction"/></IconStyle><LabelStyle><scale>0.7</scale></LabelStyle></Style>
<StyleMap id="w_grocH"><Pair><key>normal</key><styleUrl>#w_grocH_n</styleUrl></Pair><Pair><key>highlight</key><styleUrl>#w_grocH_s</styleUrl></Pair></StyleMap>
<Style id="w_grocA_n"><IconStyle><color>ff0000ff</color><scale>1.2</scale><Icon><href>http://maps.google.com/mapfiles/kml/shapes/airports.png</href></Icon><hotSpot x="0.5" y="0" xunits="fraction" yunits="fraction"/></IconStyle><LabelStyle><scale>0.7</scale></LabelStyle></Style>
<Style id="w_grocA_s"><IconStyle><color>ff0000ff</color><scale>1.4</scale><Icon><href>http://maps.google.com/mapfiles/kml/shapes/airports.png</href></Icon><hotSpot x="0.5" y="0" xunits="fraction" yunits="fraction"/></IconStyle><LabelStyle><scale>0.7</scale></LabelStyle></Style>
<StyleMap id="w_grocA"><Pair><key>normal</key><styleUrl>#w_grocA_n</styleUrl></Pair><Pair><key>highlight</key><styleUrl>#w_grocA_s</styleUrl></Pair></StyleMap>
<Style id="w_grocB_n"><IconStyle><color>ff00ffff</color><scale>1.0</scale><Icon><href>http://maps.google.com/mapfiles/kml/shapes/sailing.png</href></Icon><hotSpot x="0.5" y="0" xunits="fraction" yunits="fraction"/></IconStyle><LabelStyle><scale>0.7</scale></LabelStyle></Style>
<Style id="w_grocB_s"><IconStyle><color>ff00ffff</color><scale>1.4</scale><Icon><href>http://maps.google.com/mapfiles/kml/shapes/sailing.png</href></Icon><hotSpot x="0.5" y="0" xunits="fraction" yunits="fraction"/></IconStyle><LabelStyle><scale>0.7</scale></LabelStyle></Style>
<StyleMap id="w_grocB"><Pair><key>normal</key><styleUrl>#w_grocBAR_n</styleUrl></Pair><Pair><key>highlight</key><styleUrl>#w_grocBAR_s</styleUrl></Pair></StyleMap>
<Style id="w_vermellP_n"><IconStyle><color>ff0000ff</color><scale>1.0</scale><Icon><href>http://maps.google.com/mapfiles/kml/shapes/man.png</href></Icon><hotSpot x="0.5" y="0" xunits="fraction" yunits="fraction"/></IconStyle><LabelStyle><scale>0.7</scale></LabelStyle></Style>
<Style id="w_vermellP_s"><IconStyle><color>ff0000ff</color><scale>1.4</scale><Icon><href>http://maps.google.com/mapfiles/kml/shapes/man.png</href></Icon><hotSpot x="0.5" y="0" xunits="fraction" yunits="fraction"/></IconStyle><LabelStyle><scale>0.7</scale></LabelStyle></Style>
<StyleMap id="w_vermellP"><Pair><key>normal</key><styleUrl>#w_vermellP_n</styleUrl></Pair><Pair><key>highlight</key><styleUrl>#w_vermellP_s</styleUrl></Pair></StyleMap>
<Style id="w_vermell_n"><IconStyle><color>ff0000ff</color><scale>0.7</scale><Icon><href>http://maps.google.com/mapfiles/kml/shapes/cabs.png</href></Icon><hotSpot x="0.5" y="0" xunits="fraction" yunits="fraction"/></IconStyle><LabelStyle><scale>0.7</scale></LabelStyle></Style>
<Style id="w_vermell_s"><IconStyle><color>ff0000ff</color><scale>1.0</scale><Icon><href>http://maps.google.com/mapfiles/kml/shapes/cabs.png</href></Icon><hotSpot x="0.5" y="0" xunits="fraction" yunits="fraction"/></IconStyle><LabelStyle><scale>0.7</scale></LabelStyle></Style>
<StyleMap id="w_vermell"><Pair><key>normal</key><styleUrl>#w_vermell_n</styleUrl></Pair><Pair><key>highlight</key><styleUrl>#w_vermell_s</styleUrl></Pair></StyleMap>
<Style id="w_vermellC_n"><IconStyle><color>ff0000ff</color><scale>1.0</scale><Icon><href>http://maps.google.com/mapfiles/kml/shapes/truck.png</href></Icon><hotSpot x="0.5" y="0" xunits="fraction" yunits="fraction"/></IconStyle><LabelStyle><scale>0.7</scale></LabelStyle></Style>
<Style id="w_vermellC_s"><IconStyle><color>ff0000ff</color><scale>1.4</scale><Icon><href>http://maps.google.com/mapfiles/kml/shapes/truck.png</href></Icon><hotSpot x="0.5" y="0" xunits="fraction" yunits="fraction"/></IconStyle><LabelStyle><scale>0.7</scale></LabelStyle></Style>
<StyleMap id="w_vermellC"><Pair><key>normal</key><styleUrl>#w_vermellC_n</styleUrl></Pair><Pair><key>highlight</key><styleUrl>#w_vermellC_s</styleUrl></Pair></StyleMap>
<Style id="w_vermellH_n"><IconStyle><color>ff0000ff</color><scale>1.2</scale><Icon><href>http://maps.google.com/mapfiles/kml/shapes/heliport.png</href></Icon><hotSpot x="0.5" y="0" xunits="fraction" yunits="fraction"/></IconStyle><LabelStyle><scale>0.7</scale></LabelStyle></Style>
<Style id="w_vermellH_s"><IconStyle><color>ff0000ff</color><scale>1.4</scale><Icon><href>http://maps.google.com/mapfiles/kml/shapes/heliport.png</href></Icon><hotSpot x="0.5" y="0" xunits="fraction" yunits="fraction"/></IconStyle><LabelStyle><scale>0.7</scale></LabelStyle></Style>
<StyleMap id="w_vermellH"><Pair><key>normal</key><styleUrl>#w_vermellH_n</styleUrl></Pair><Pair><key>highlight</key><styleUrl>#w_vermellH_s</styleUrl></Pair></StyleMap>
<Style id="w_vermellA_n"><IconStyle><color>ff0000ff</color><scale>1.2</scale><Icon><href>http://maps.google.com/mapfiles/kml/shapes/airports.png</href></Icon><hotSpot x="0.5" y="0" xunits="fraction" yunits="fraction"/></IconStyle><LabelStyle><scale>0.7</scale></LabelStyle></Style>
<Style id="w_vermellA_s"><IconStyle><color>ff0000ff</color><scale>1.4</scale><Icon><href>http://maps.google.com/mapfiles/kml/shapes/airports.png</href></Icon><hotSpot x="0.5" y="0" xunits="fraction" yunits="fraction"/></IconStyle><LabelStyle><scale>0.7</scale></LabelStyle></Style>
<StyleMap id="w_vermellA"><Pair><key>normal</key><styleUrl>#w_vermellA_n</styleUrl></Pair><Pair><key>highlight</key><styleUrl>#w_vermellA_s</styleUrl></Pair></StyleMap>
<Style id="w_vermellB_n"><IconStyle><color>ff0000ff</color><scale>1.0</scale><Icon><href>http://maps.google.com/mapfiles/kml/shapes/sailing.png</href></Icon><hotSpot x="0.5" y="0" xunits="fraction" yunits="fraction"/></IconStyle><LabelStyle><scale>0.7</scale></LabelStyle></Style>
<Style id="w_vermellB_s"><IconStyle><color>ff0000ff</color><scale>1.4</scale><Icon><href>http://maps.google.com/mapfiles/kml/shapes/sailing.png</href></Icon><hotSpot x="0.5" y="0" xunits="fraction" yunits="fraction"/></IconStyle><LabelStyle><scale>0.7</scale></LabelStyle></Style>
<StyleMap id="w_vermellB"><Pair><key>normal</key><styleUrl>#w_vermellBAR_n</styleUrl></Pair><Pair><key>highlight</key><styleUrl>#w_vermellBAR_s</styleUrl></Pair></StyleMap>
<Style id="w_descarrega"><IconStyle><color>ff00ffff</color><scale>0.5</scale><Icon><href>http://maps.google.com/mapfiles/kml/shapes/road_shield3.png</href></Icon></IconStyle><LabelStyle><scale>0.7</scale></LabelStyle></Style><Style id="actuacio"><IconStyle><color>ff00ffff</color><scale>0.8</scale><Icon><href>http://maps.google.com/mapfiles/kml/shapes/caution.png</href></Icon></IconStyle><LabelStyle><scale>0.7</scale></LabelStyle></Style></Document></kml>