<?xml version="1.0" encoding="UTF-8"?>
<kml xmlns="http://www.opengis.net/kml/2.2" xmlns:gx="http://www.google.com/kml/ext/2.2" xmlns:kml="http://www.opengis.net/kml/2.2" xmlns:atom="http://www.w3.org/2005/Atom">
<Document>
<name>Terminals</name>
<Snippet maxLines="2">Created 06/08/2018 07:13:44</Snippet>
<Folder>
<name>Terminals</name>
<Placemark><name>00096</name><description>200096  Dept.
posicio de les: 06/08/2018 07:13:43</description><styleUrl>#w_verd</styleUrl><Point><coordinates>1.82168126106262,41.4227485656738,0</coordinates></Point></Placemark>
<Placemark><name>02063</name><description>202063 GEM
posicio de les: 06/08/2018 07:12:50</description><styleUrl>#w_verd</styleUrl><Point><coordinates>2.11041569709778,41.5022277832031,0</coordinates></Point></Placemark>
<Placemark><name>GGRAF08</name><description>204208 P.UT
posicio de les: 06/08/2018 07:12:27</description><styleUrl>#w_verdP</styleUrl><Point><coordinates>2.97438740730286,42.0297002792358,0</coordinates></Point></Placemark>
<Placemark><name>LGRAF02</name><description>204302 P.UT
posicio de les: 06/08/2018 07:12:33</description><styleUrl>#w_grocP</styleUrl><Point><coordinates>0.889678001403809,42.1645724773407,0</coordinates></Point></Placemark>
<Placemark><name>BGRAF08</name><description>204408 P.UT
posicio de les: 06/08/2018 07:07:51</description><styleUrl>#w_grocP</styleUrl><Point><coordinates>1.8526017665863,41.7414915561676,0</coordinates></Point></Placemark>
<Placemark><name>VIEL17</name><description>208017 BASE CCA VARAN
posicio de les: 06/08/2018 07:12:39</description><styleUrl>#w_groc</styleUrl><Point><coordinates>0.796701908111572,42.707998752594,0</coordinates></Point></Placemark>
<Placemark><name>BER57</name><description>210357 PORT.COM BER (Centre)
posicio de les: 06/08/2018 07:11:59</description><styleUrl>#w_grocP</styleUrl><Point><coordinates>1.85760140419006,42.1041369438171,0</coordinates></Point></Placemark>
<Placemark><name>CAF02</name><description>210402 PORT CAF (Centre)
posicio de les: 06/08/2018 07:13:17</description><styleUrl>#w_verdP</styleUrl><Point><coordinates>1.52840852737427,41.7309772968292,0</coordinates></Point></Placemark>
<Placemark><name>CAB56</name><description>210656 PORT.COM CAB (Centre)
posicio de les: 06/08/2018 07:10:12</description><styleUrl>#w_grocP</styleUrl><Point><coordinates>1.68517827987671,41.6659820079803,0</coordinates></Point></Placemark>
<Placemark><name>PRA07</name><description>211407 PORT PRA (Centre)
posicio de les: 06/08/2018 07:12:55</description><styleUrl>#w_verdP</styleUrl><Point><coordinates>2.0360004901886,42.0082426071167,0</coordinates></Point></Placemark>
<Placemark><name>TOR02</name><description>212002 PORT TOR (Centre)
posicio de les: 06/08/2018 07:08:54</description><styleUrl>#w_verdP</styleUrl><Point><coordinates>2.26709961891174,42.048636674881,0</coordinates></Point></Placemark>
<Placemark><name>D00REG</name><description>220018 P.Tec REGIÓ
posicio de les: 06/08/2018 07:13:15</description><styleUrl>#w_grocP</styleUrl><Point><coordinates>2.80641674995422,41.9602310657501,0</coordinates></Point></Placemark>
<Placemark><name>20099</name><description>220099  REGIÓ
posicio de les: 06/08/2018 07:13:45</description><styleUrl>#w_verd</styleUrl><Point><coordinates>2.74880290031433,41.8480288982391,0</coordinates></Point></Placemark>
<Placemark><name>AMER57</name><description>220157 PORT.COM AMER (Girona)
posicio de les: 06/08/2018 07:12:15</description><styleUrl>#w_verdP</styleUrl><Point><coordinates>2.59615302085876,42.0114719867706,0</coordinates></Point></Placemark>
<Placemark><name>20330</name><description>220330 BRP BANY (Girona)
posicio de les: 06/08/2018 07:10:01</description><styleUrl>#w_grocC</styleUrl><Point><coordinates>2.78597831726074,42.1179020404816,0</coordinates></Point></Placemark>
<Placemark><name>BANY56</name><description>220356 PORT.COM BANY (Girona)
posicio de les: 06/08/2018 07:12:37</description><styleUrl>#w_verdP</styleUrl><Point><coordinates>2.78577446937561,42.1175050735474,0</coordinates></Point></Placemark>
<Placemark><name>220480</name><description>220480 UPCL/USL PERA (Girona)
posicio de les: 06/08/2018 07:12:39</description><styleUrl>#w_verd</styleUrl><Point><coordinates>2.97464489936829,42.0297968387604,0</coordinates></Point></Placemark>
<Placemark><name>220656</name><description>220656 PORT.COM CALO (Girona)
posicio de les: 06/08/2018 07:12:01</description><styleUrl>#w_verdP</styleUrl><Point><coordinates>3.07449817657471,41.8525779247284,0</coordinates></Point></Placemark>
<Placemark><name>CASS56</name><description>220856 PORT.COM CASS (Girona)
posicio de les: 06/08/2018 07:13:41</description><styleUrl>#w_grocP</styleUrl><Point><coordinates>2.88362145423889,41.8796360492706,0</coordinates></Point></Placemark>
<Placemark><name>FIGU56</name><description>221056 PORT.COM FIGU (Girona)
posicio de les: 06/08/2018 07:12:49</description><styleUrl>#w_verdP</styleUrl><Point><coordinates>2.97062158584595,42.2718071937561,0</coordinates></Point></Placemark>
<Placemark><name>GIRO06</name><description>221106 PORT GIRO (Girona)
posicio de les: 06/08/2018 07:13:25</description><styleUrl>#w_verdP</styleUrl><Point><coordinates>2.80627727508545,41.9604671001434,0</coordinates></Point></Placemark>
<Placemark><name>GIRO56</name><description>221156 PORT.COM GIRO (Girona)
posicio de les: 06/08/2018 07:11:35</description><styleUrl>#w_verdP</styleUrl><Point><coordinates>2.80641674995422,41.9603168964386,0</coordinates></Point></Placemark>
<Placemark><name>HOST05</name><description>221205 PORT HOST (Girona)
posicio de les: 06/08/2018 07:09:54</description><styleUrl>#w_verdP</styleUrl><Point><coordinates>2.62414455413818,41.748046875,0</coordinates></Point></Placemark>
<Placemark><name>HOST57</name><description>221257 PORT.COM HOST (Girona)
posicio de les: 06/08/2018 07:13:13</description><styleUrl>#w_verdP</styleUrl><Point><coordinates>2.62428402900696,41.7482507228851,0</coordinates></Point></Placemark>
<Placemark><name>JONQ56</name><description>221356 PORT.COM JONQ (Girona)
posicio de les: 06/08/2018 07:08:08</description><styleUrl>#w_verdP</styleUrl><Point><coordinates>2.87663698196411,42.4113893508911,0</coordinates></Point></Placemark>
<Placemark><name>LLAN57</name><description>221457 PORT.COM LLAN (Girona)
posicio de les: 06/08/2018 07:09:14</description><styleUrl>#w_verdP</styleUrl><Point><coordinates>3.15316200256348,42.3575413227081,0</coordinates></Point></Placemark>
<Placemark><name>LLOR56</name><description>221556 PORT.COM LLOR (Girona)
posicio de les: 06/08/2018 07:11:53</description><styleUrl>#w_verdP</styleUrl><Point><coordinates>2.83631801605225,41.6994667053223,0</coordinates></Point></Placemark>
<Placemark><name>221557</name><description>221557 PORT.COM LLOR (Girona)
posicio de les: 06/08/2018 07:13:41</description><styleUrl>#w_grocP</styleUrl><Point><coordinates>2.8363823890686,41.6992735862732,0</coordinates></Point></Placemark>
<Placemark><name>21590</name><description>221590 UPC LLOR (Girona)
posicio de les: 06/08/2018 07:13:43</description><styleUrl>#w_verd</styleUrl><Point><coordinates>2.82387256622314,41.7236709594727,0</coordinates></Point></Placemark>
<Placemark><name>OLOT56</name><description>221756 PORT.COM OLOT (Girona)
posicio de les: 06/08/2018 07:10:44</description><styleUrl>#w_verdP</styleUrl><Point><coordinates>2.47428417205811,42.1904182434082,0</coordinates></Point></Placemark>
<Placemark><name>OLOT57</name><description>221757 PORT.COM OLOT (Girona)
posicio de les: 06/08/2018 07:10:42</description><styleUrl>#w_verdP</styleUrl><Point><coordinates>2.47527122497559,42.1904933452606,0</coordinates></Point></Placemark>
<Placemark><name>PALA57</name><description>221857 PORT.COM PALA (Girona)
posicio de les: 06/08/2018 07:12:00</description><styleUrl>#w_verdP</styleUrl><Point><coordinates>3.15614461898804,41.925083398819,0</coordinates></Point></Placemark>
<Placemark><name>RIPO56</name><description>222156 PORT.COM RIPO (Girona)
posicio de les: 06/08/2018 07:12:09</description><styleUrl>#w_verdP</styleUrl><Point><coordinates>2.17679500579834,42.2848534584045,0</coordinates></Point></Placemark>
<Placemark><name>RIPO57</name><description>222157 PORT.COM RIPO (Girona)
posicio de les: 06/08/2018 07:12:41</description><styleUrl>#w_verdP</styleUrl><Point><coordinates>2.16871619224548,42.2152769565582,0</coordinates></Point></Placemark>
<Placemark><name>TORR02</name><description>222602 PORT TORR (Girona)
posicio de les: 06/08/2018 07:12:52</description><styleUrl>#w_verdP</styleUrl><Point><coordinates>3.16752791404724,42.0481109619141,0</coordinates></Point></Placemark>
<Placemark><name>VALL56</name><description>222856 PORT.COM VALL (Girona)
posicio de les: 06/08/2018 07:10:50</description><styleUrl>#w_verdP</styleUrl><Point><coordinates>3.0317223072052,41.8082678318024,0</coordinates></Point></Placemark>
<Placemark><name>D9REG</name><description>228049  SERVEIS REGIÓ
posicio de les: 06/08/2018 07:12:04</description><styleUrl>#w_verd</styleUrl><Point><coordinates>2.80635237693787,41.9602417945862,0</coordinates></Point></Placemark>
<Placemark><name>OLIA01</name><description>232201 PORT OLIA (Lleida)
posicio de les: 06/08/2018 07:12:53</description><styleUrl>#w_verdP</styleUrl><Point><coordinates>1.30740523338318,42.0749223232269,0</coordinates></Point></Placemark>
<Placemark><name>OLIA56</name><description>232256 PORT.COM OLIA (Lleida)
posicio de les: 06/08/2018 07:11:41</description><styleUrl>#w_grocP</styleUrl><Point><coordinates>1.30824208259583,42.0745360851288,0</coordinates></Point></Placemark>
<Placemark><name>POBL01</name><description>232401 PORT POBL (Lleida)
posicio de les: 06/08/2018 07:13:43</description><styleUrl>#w_verdP</styleUrl><Point><coordinates>0.964350700378418,42.2391164302826,0</coordinates></Point></Placemark>
<Placemark><name>TREM05</name><description>233305 PORT TREM (Lleida)
posicio de les: 06/08/2018 07:12:23</description><styleUrl>#w_verdP</styleUrl><Point><coordinates>0.889238119125366,42.1650338172913,0</coordinates></Point></Placemark>
<Placemark><name>TREM07</name><description>233307 PORT TREM (Lleida)
posicio de les: 06/08/2018 07:13:15</description><styleUrl>#w_grocP</styleUrl><Point><coordinates>0.889366865158081,42.1647870540619,0</coordinates></Point></Placemark>
<Placemark><name>TREM56</name><description>233356 PORT.COM TREM (Lleida)
posicio de les: 06/08/2018 07:12:04</description><styleUrl>#w_verdP</styleUrl><Point><coordinates>0.888991355895996,42.1650552749634,0</coordinates></Point></Placemark>
<Placemark><name>FTAR1</name><description>234513 PORT Parc X
posicio de les: 06/08/2018 07:13:02</description><styleUrl>#w_grocP</styleUrl><Point><coordinates>1.1491334438324,41.6509401798248,0</coordinates></Point></Placemark>
<Placemark><name>I407</name><description>237407 P.GUAITA GUAITA
posicio de les: 06/08/2018 07:12:08</description><styleUrl>#w_verdP</styleUrl><Point><coordinates>0.965638160705566,42.2530102729797,0</coordinates></Point></Placemark>
<Placemark><name>REMN11</name><description>240011 P.Tec REGIÓ
posicio de les: 06/08/2018 07:13:17</description><styleUrl>#w_verdP</styleUrl><Point><coordinates>2.11196064949036,41.5024316310883,0</coordinates></Point></Placemark>
<Placemark><name>REMN14</name><description>240014 P.Tec REGIÓ
posicio de les: 06/08/2018 07:12:09</description><styleUrl>#w_verdP</styleUrl><Point><coordinates>2.0279324054718,41.5681350231171,0</coordinates></Point></Placemark>
<Placemark><name>40091</name><description>240091  REGIÓ
posicio de les: 06/08/2018 07:11:10</description><styleUrl>#w_verd</styleUrl><Point><coordinates>2.11186408996582,41.5031933784485,0</coordinates></Point></Placemark>
<Placemark><name>BAD02</name><description>240202 PORT BAD (Metro. Nord)
posicio de les: 06/08/2018 07:11:51</description><styleUrl>#w_verdP</styleUrl><Point><coordinates>2.23750948905945,41.465277671814,0</coordinates></Point></Placemark>
<Placemark><name>40290</name><description>240290 UPC BAD (Metro. Nord)
posicio de les: 06/08/2018 07:10:13</description><styleUrl>#w_groc</styleUrl><Point><coordinates>2.02527165412903,41.5680384635925,0</coordinates></Point></Placemark>
<Placemark><name>240990</name><description>240990 UPC MAT (Metro. Nord)
posicio de les: 06/08/2018 07:13:41</description><styleUrl>#w_verd</styleUrl><Point><coordinates>2.05700755119324,41.5422248840332,0</coordinates></Point></Placemark>
<Placemark><name>MOL03</name><description>241003 PORT MOL (Metro. Nord)
posicio de les: 06/08/2018 07:12:57</description><styleUrl>#w_verdP</styleUrl><Point><coordinates>2.20100998878479,41.5372252464294,0</coordinates></Point></Placemark>
<Placemark><name>PIN01</name><description>241201 PORT PIN (Metro. Nord)
posicio de les: 06/08/2018 07:09:13</description><styleUrl>#w_verdP</styleUrl><Point><coordinates>2.66968846321106,41.6272509098053,0</coordinates></Point></Placemark>
<Placemark><name>SAB02</name><description>241402 PORT SAB (Metro. Nord)
posicio de les: 06/08/2018 07:11:01</description><styleUrl>#w_grocP</styleUrl><Point><coordinates>2.10402131080627,41.542729139328,0</coordinates></Point></Placemark>
<Placemark><name>241440</name><description>241440 BUP SAB (Metro. Nord)
posicio de les: 06/08/2018 07:10:06</description><styleUrl>#w_grocC</styleUrl><Point><coordinates>2.10374236106873,41.5424931049347,0</coordinates></Point></Placemark>
<Placemark><name>SCG09</name><description>241809 PORT SCG (Metro. Nord)
posicio de les: 06/08/2018 07:12:15</description><styleUrl>#w_grocP</styleUrl><Point><coordinates>2.20938920974731,41.4631748199463,0</coordinates></Point></Placemark>
<Placemark><name>TER01</name><description>242001 PORT TER (Metro. Nord)
posicio de les: 06/08/2018 07:13:09</description><styleUrl>#w_verdP</styleUrl><Point><coordinates>2.02588319778442,41.5690684318542,0</coordinates></Point></Placemark>
<Placemark><name>TOD56</name><description>242156 PORT.COM TOD (Metro. Nord)
posicio de les: 06/08/2018 07:12:04</description><styleUrl>#w_verdP</styleUrl><Point><coordinates>2.71675586700439,41.6913557052612,0</coordinates></Point></Placemark>
<Placemark><name>50086</name><description>250086  REGIÓ
posicio de les: 06/08/2018 07:12:02</description><styleUrl>#w_groc</styleUrl><Point><coordinates>1.90773725509644,41.4989340305328,0</coordinates></Point></Placemark>
<Placemark><name>50490</name><description>250490 UPC COR (Metro. Sud)
posicio de les: 06/08/2018 07:13:29</description><styleUrl>#w_verd</styleUrl><Point><coordinates>1.83547854423523,41.2443709373474,0</coordinates></Point></Placemark>
<Placemark><name>GAV56</name><description>250556 PORT.COM GAV (Metro. Sud)
posicio de les: 06/08/2018 07:13:13</description><styleUrl>#w_grocP</styleUrl><Point><coordinates>1.99011325836182,41.3000965118408,0</coordinates></Point></Placemark>
<Placemark><name>LLA03</name><description>250903 PORT LLA (Metro. Sud)
posicio de les: 06/08/2018 07:13:37</description><styleUrl>#w_verdP</styleUrl><Point><coordinates>1.53028607368469,41.4732599258423,0</coordinates></Point></Placemark>
<Placemark><name>51030</name><description>251030 BRP MAR (Metro. Sud)
posicio de les: 06/08/2018 07:10:03</description><styleUrl>#w_grocC</styleUrl><Point><coordinates>1.90781235694885,41.4987730979919,0</coordinates></Point></Placemark>
<Placemark><name>51090</name><description>251090 UPC MAR (Metro. Sud)
posicio de les: 06/08/2018 07:13:41</description><styleUrl>#w_verd</styleUrl><Point><coordinates>1.87944531440735,41.4515018463135,0</coordinates></Point></Placemark>
<Placemark><name>SBOI57</name><description>251357 PORT.COM SBOI (Metro. Sud)
posicio de les: 06/08/2018 07:13:05</description><styleUrl>#w_grocP</styleUrl><Point><coordinates>2.03418731689453,41.3227558135986,0</coordinates></Point></Placemark>
<Placemark><name>SFE03</name><description>251503 PORT SFE (Metro. Sud)
posicio de les: 06/08/2018 07:12:31</description><styleUrl>#w_grocP</styleUrl><Point><coordinates>2.04323172569275,41.3886845111847,0</coordinates></Point></Placemark>
<Placemark><name>SFE57</name><description>251557 PORT.COM SFE (Metro. Sud)
posicio de les: 06/08/2018 07:11:35</description><styleUrl>#w_grocP</styleUrl><Point><coordinates>2.04322099685669,41.3885343074799,0</coordinates></Point></Placemark>
<Placemark><name>CMS15</name><description>254515 PORT Parc X
posicio de les: 06/08/2018 07:12:06</description><styleUrl>#w_verdP</styleUrl><Point><coordinates>1.70453310012817,41.354695558548,0</coordinates></Point></Placemark>
<Placemark><name>I215</name><description>257215 P.GUAITA GUAITA
posicio de les: 06/08/2018 07:12:54</description><styleUrl>#w_grocP</styleUrl><Point><coordinates>1.66370987892151,41.4991593360901,0</coordinates></Point></Placemark>
<Placemark><name>D1REMS</name><description>258041  SERVEIS REGIÓ
posicio de les: 06/08/2018 07:11:59</description><styleUrl>#w_verd</styleUrl><Point><coordinates>2.03400492668152,41.3224232196808,0</coordinates></Point></Placemark>
<Placemark><name>60098</name><description>260098  REGIÓ
posicio de les: 06/08/2018 07:09:39</description><styleUrl>#w_verd</styleUrl><Point><coordinates>1.11790180206299,41.1515235900879,0</coordinates></Point></Placemark>
<Placemark><name>260508</name><description>260508 PORT HOSP (Tarragona)
posicio de les: 06/08/2018 07:12:54</description><styleUrl>#w_verdP</styleUrl><Point><coordinates>0.919868946075439,40.9933912754059,0</coordinates></Point></Placemark>
<Placemark><name>60631</name><description>260631 BRP MONT (Tarragona)
posicio de les: 06/08/2018 07:13:40</description><styleUrl>#w_verdC</styleUrl><Point><coordinates>1.19932293891907,41.4181351661682,0</coordinates></Point></Placemark>
<Placemark><name>60844</name><description>260844 BNP REUS (Tarragona)
posicio de les: 06/08/2018 07:11:40</description><styleUrl>#w_verdC</styleUrl><Point><coordinates>1.11821293830872,41.150997877121,0</coordinates></Point></Placemark>
<Placemark><name>61234</name><description>261234 BFP TARR (Tarragona)
posicio de les: 06/08/2018 07:10:24</description><styleUrl>#w_grocC</styleUrl><Point><coordinates>1.22090935707092,41.1141550540924,0</coordinates></Point></Placemark>
<Placemark><name>61330</name><description>261330 BRP VALS (Tarragona)
posicio de les: 06/08/2018 07:13:34</description><styleUrl>#w_verdC</styleUrl><Point><coordinates>1.27251505851746,41.3206100463867,0</coordinates></Point></Placemark>
<Placemark><name>VALS56</name><description>261356 PORT.COM VALS (Tarragona)
posicio de les: 06/08/2018 07:13:40</description><styleUrl>#w_verdP</styleUrl><Point><coordinates>1.27192497253418,41.3196015357971,0</coordinates></Point></Placemark>
<Placemark><name>VEND09</name><description>261409 PORT VEND (Tarragona)
posicio de les: 06/08/2018 07:11:52</description><styleUrl>#w_verdP</styleUrl><Point><coordinates>1.54120802879333,41.2220656871796,0</coordinates></Point></Placemark>
<Placemark><name>VEND10</name><description>261410 PORT VEND (Tarragona)
posicio de les: 06/08/2018 07:13:35</description><styleUrl>#w_verdP</styleUrl><Point><coordinates>1.54077887535095,41.222687959671,0</coordinates></Point></Placemark>
<Placemark><name>E00RETE</name><description>270014 P.Tec REGIÓ
posicio de les: 06/08/2018 07:13:09</description><styleUrl>#w_verdP</styleUrl><Point><coordinates>0.513385534286499,40.8193588256836,0</coordinates></Point></Placemark>
<Placemark><name>ASCO05</name><description>272205 PORT ASCO (Terres de l'Ebre)
posicio de les: 06/08/2018 07:12:36</description><styleUrl>#w_grocP</styleUrl><Point><coordinates>0.568435192108154,41.1878085136414,0</coordinates></Point></Placemark>
<Placemark><name>ASCO56</name><description>272256 PORT.COM ASCO (Terres de l'Ebre)
posicio de les: 06/08/2018 07:12:28</description><styleUrl>#w_verdP</styleUrl><Point><coordinates>0.568885803222656,41.1875939369202,0</coordinates></Point></Placemark>
<Placemark><name>GAND56</name><description>272656 PORT.COM GAND (Terres de l'Ebre)
posicio de les: 06/08/2018 07:13:37</description><styleUrl>#w_verdP</styleUrl><Point><coordinates>0.438970327377319,41.0585796833038,0</coordinates></Point></Placemark>
<Placemark><name>ULLD04</name><description>273104 PORT ULLD (Terres de l'Ebre)
posicio de les: 06/08/2018 07:11:59</description><styleUrl>#w_verdP</styleUrl><Point><coordinates>0.358396768569946,40.6082475185394,0</coordinates></Point></Placemark>
<Placemark><name>E_93</name><description>278031  SERVEIS REGIÓ
posicio de les: 06/08/2018 07:10:18</description><styleUrl>#w_verd</styleUrl><Point><coordinates>0.512838363647461,40.8191549777985,0</coordinates></Point></Placemark>
</Folder>
<Folder>
<name>Descarregues</name>
</Folder>
<Style id="w_verdP_n"><IconStyle><color>ff00ff00</color><scale>1.0</scale><Icon><href>http://maps.google.com/mapfiles/kml/shapes/man.png</href></Icon><hotSpot x="0.5" y="0" xunits="fraction" yunits="fraction"/></IconStyle><LabelStyle><scale>0.7</scale></LabelStyle></Style>
<Style id="w_verdP_s"><IconStyle><color>ff00ff00</color><scale>1.4</scale><Icon><href>http://maps.google.com/mapfiles/kml/shapes/man.png</href></Icon><hotSpot x="0.5" y="0" xunits="fraction" yunits="fraction"/></IconStyle><LabelStyle><scale>0.7</scale></LabelStyle></Style>
<StyleMap id="w_verdP"><Pair><key>normal</key><styleUrl>#w_verdP_n</styleUrl></Pair><Pair><key>highlight</key><styleUrl>#w_verdP_s</styleUrl></Pair></StyleMap>
<Style id="w_verd_n"><IconStyle><color>ff00ff00</color><scale>0.7</scale><Icon><href>http://maps.google.com/mapfiles/kml/shapes/cabs.png</href></Icon><hotSpot x="0.5" y="0" xunits="fraction" yunits="fraction"/></IconStyle><LabelStyle><scale>0.7</scale></LabelStyle></Style>
<Style id="w_verd_s"><IconStyle><color>ff00ff00</color><scale>1.0</scale><Icon><href>http://maps.google.com/mapfiles/kml/shapes/cabs.png</href></Icon><hotSpot x="0.5" y="0" xunits="fraction" yunits="fraction"/></IconStyle><LabelStyle><scale>0.7</scale></LabelStyle></Style>
<StyleMap id="w_verd"><Pair><key>normal</key><styleUrl>#w_verd_n</styleUrl></Pair><Pair><key>highlight</key><styleUrl>#w_verd_s</styleUrl></Pair></StyleMap>
<Style id="w_verdC_n"><IconStyle><color>ff00ff00</color><scale>1.0</scale><Icon><href>http://maps.google.com/mapfiles/kml/shapes/truck.png</href></Icon><hotSpot x="0.5" y="0" xunits="fraction" yunits="fraction"/></IconStyle><LabelStyle><scale>0.7</scale></LabelStyle></Style>
<Style id="w_verdC_s"><IconStyle><color>ff00ff00</color><scale>1.4</scale><Icon><href>http://maps.google.com/mapfiles/kml/shapes/truck.png</href></Icon><hotSpot x="0.5" y="0" xunits="fraction" yunits="fraction"/></IconStyle><LabelStyle><scale>0.7</scale></LabelStyle></Style>
<StyleMap id="w_verdC"><Pair><key>normal</key><styleUrl>#w_verdC_n</styleUrl></Pair><Pair><key>highlight</key><styleUrl>#w_verdC_s</styleUrl></Pair></StyleMap>
<Style id="w_verdH_n"><IconStyle><color>ff0000ff</color><scale>1.2</scale><Icon><href>http://maps.google.com/mapfiles/kml/shapes/heliport.png</href></Icon><hotSpot x="0.5" y="0" xunits="fraction" yunits="fraction"/></IconStyle><LabelStyle><scale>0.7</scale></LabelStyle></Style>
<Style id="w_verdH_s"><IconStyle><color>ff0000ff</color><scale>1.4</scale><Icon><href>http://maps.google.com/mapfiles/kml/shapes/heliport.png</href></Icon><hotSpot x="0.5" y="0" xunits="fraction" yunits="fraction"/></IconStyle><LabelStyle><scale>0.7</scale></LabelStyle></Style>
<StyleMap id="w_verdH"><Pair><key>normal</key><styleUrl>#w_verdH_n</styleUrl></Pair><Pair><key>highlight</key><styleUrl>#w_verdH_s</styleUrl></Pair></StyleMap>
<Style id="w_verdA_n"><IconStyle><color>ff0000ff</color><scale>1.2</scale><Icon><href>http://maps.google.com/mapfiles/kml/shapes/airports.png</href></Icon><hotSpot x="0.5" y="0" xunits="fraction" yunits="fraction"/></IconStyle><LabelStyle><scale>0.7</scale></LabelStyle></Style>
<Style id="w_verdA_s"><IconStyle><color>ff0000ff</color><scale>1.4</scale><Icon><href>http://maps.google.com/mapfiles/kml/shapes/airports.png</href></Icon><hotSpot x="0.5" y="0" xunits="fraction" yunits="fraction"/></IconStyle><LabelStyle><scale>0.7</scale></LabelStyle></Style>
<StyleMap id="w_verdA"><Pair><key>normal</key><styleUrl>#w_verdA_n</styleUrl></Pair><Pair><key>highlight</key><styleUrl>#w_verdA_s</styleUrl></Pair></StyleMap>
<Style id="w_verdB_n"><IconStyle><color>ff00ff00</color><scale>1.0</scale><Icon><href>http://maps.google.com/mapfiles/kml/shapes/sailing.png</href></Icon><hotSpot x="0.5" y="0" xunits="fraction" yunits="fraction"/></IconStyle><LabelStyle><scale>0.7</scale></LabelStyle></Style>
<Style id="w_verdB_s"><IconStyle><color>ff00ff00</color><scale>1.4</scale><Icon><href>http://maps.google.com/mapfiles/kml/shapes/sailing.png</href></Icon><hotSpot x="0.5" y="0" xunits="fraction" yunits="fraction"/></IconStyle><LabelStyle><scale>0.7</scale></LabelStyle></Style>
<StyleMap id="w_verdB"><Pair><key>normal</key><styleUrl>#w_verdBAR_n</styleUrl></Pair><Pair><key>highlight</key><styleUrl>#w_verdBAR_s</styleUrl></Pair></StyleMap>
<Style id="w_grocP_n"><IconStyle><color>ff00ffff</color><scale>1.0</scale><Icon><href>http://maps.google.com/mapfiles/kml/shapes/man.png</href></Icon><hotSpot x="0.5" y="0" xunits="fraction" yunits="fraction"/></IconStyle><LabelStyle><scale>0.7</scale></LabelStyle></Style>
<Style id="w_grocP_s"><IconStyle><color>ff00ffff</color><scale>1.4</scale><Icon><href>http://maps.google.com/mapfiles/kml/shapes/man.png</href></Icon><hotSpot x="0.5" y="0" xunits="fraction" yunits="fraction"/></IconStyle><LabelStyle><scale>0.7</scale></LabelStyle></Style>
<StyleMap id="w_grocP"><Pair><key>normal</key><styleUrl>#w_grocP_n</styleUrl></Pair><Pair><key>highlight</key><styleUrl>#w_grocP_s</styleUrl></Pair></StyleMap>
<Style id="w_groc_n"><IconStyle><color>ff00ffff</color><scale>0.7</scale><Icon><href>http://maps.google.com/mapfiles/kml/shapes/cabs.png</href></Icon><hotSpot x="0.5" y="0" xunits="fraction" yunits="fraction"/></IconStyle><LabelStyle><scale>0.7</scale></LabelStyle></Style>
<Style id="w_groc_s"><IconStyle><color>ff00ffff</color><scale>1.0</scale><Icon><href>http://maps.google.com/mapfiles/kml/shapes/cabs.png</href></Icon><hotSpot x="0.5" y="0" xunits="fraction" yunits="fraction"/></IconStyle><LabelStyle><scale>0.7</scale></LabelStyle></Style>
<StyleMap id="w_groc"><Pair><key>normal</key><styleUrl>#w_groc_n</styleUrl></Pair><Pair><key>highlight</key><styleUrl>#w_groc_s</styleUrl></Pair></StyleMap>
<Style id="w_grocC_n"><IconStyle><color>ff00ffff</color><scale>1.0</scale><Icon><href>http://maps.google.com/mapfiles/kml/shapes/truck.png</href></Icon><hotSpot x="0.5" y="0" xunits="fraction" yunits="fraction"/></IconStyle><LabelStyle><scale>0.7</scale></LabelStyle></Style>
<Style id="w_grocC_s"><IconStyle><color>ff00ffff</color><scale>1.4</scale><Icon><href>http://maps.google.com/mapfiles/kml/shapes/truck.png</href></Icon><hotSpot x="0.5" y="0" xunits="fraction" yunits="fraction"/></IconStyle><LabelStyle><scale>0.7</scale></LabelStyle></Style>
<StyleMap id="w_grocC"><Pair><key>normal</key><styleUrl>#w_grocC_n</styleUrl></Pair><Pair><key>highlight</key><styleUrl>#w_grocC_s</styleUrl></Pair></StyleMap>
<Style id="w_grocH_n"><IconStyle><color>ff0000ff</color><scale>1.2</scale><Icon><href>http://maps.google.com/mapfiles/kml/shapes/heliport.png</href></Icon><hotSpot x="0.5" y="0" xunits="fraction" yunits="fraction"/></IconStyle><LabelStyle><scale>0.7</scale></LabelStyle></Style>
<Style id="w_grocH_s"><IconStyle><color>ff0000ff</color><scale>1.4</scale><Icon><href>http://maps.google.com/mapfiles/kml/shapes/heliport.png</href></Icon><hotSpot x="0.5" y="0" xunits="fraction" yunits="fraction"/></IconStyle><LabelStyle><scale>0.7</scale></LabelStyle></Style>
<StyleMap id="w_grocH"><Pair><key>normal</key><styleUrl>#w_grocH_n</styleUrl></Pair><Pair><key>highlight</key><styleUrl>#w_grocH_s</styleUrl></Pair></StyleMap>
<Style id="w_grocA_n"><IconStyle><color>ff0000ff</color><scale>1.2</scale><Icon><href>http://maps.google.com/mapfiles/kml/shapes/airports.png</href></Icon><hotSpot x="0.5" y="0" xunits="fraction" yunits="fraction"/></IconStyle><LabelStyle><scale>0.7</scale></LabelStyle></Style>
<Style id="w_grocA_s"><IconStyle><color>ff0000ff</color><scale>1.4</scale><Icon><href>http://maps.google.com/mapfiles/kml/shapes/airports.png</href></Icon><hotSpot x="0.5" y="0" xunits="fraction" yunits="fraction"/></IconStyle><LabelStyle><scale>0.7</scale></LabelStyle></Style>
<StyleMap id="w_grocA"><Pair><key>normal</key><styleUrl>#w_grocA_n</styleUrl></Pair><Pair><key>highlight</key><styleUrl>#w_grocA_s</styleUrl></Pair></StyleMap>
<Style id="w_grocB_n"><IconStyle><color>ff00ffff</color><scale>1.0</scale><Icon><href>http://maps.google.com/mapfiles/kml/shapes/sailing.png</href></Icon><hotSpot x="0.5" y="0" xunits="fraction" yunits="fraction"/></IconStyle><LabelStyle><scale>0.7</scale></LabelStyle></Style>
<Style id="w_grocB_s"><IconStyle><color>ff00ffff</color><scale>1.4</scale><Icon><href>http://maps.google.com/mapfiles/kml/shapes/sailing.png</href></Icon><hotSpot x="0.5" y="0" xunits="fraction" yunits="fraction"/></IconStyle><LabelStyle><scale>0.7</scale></LabelStyle></Style>
<StyleMap id="w_grocB"><Pair><key>normal</key><styleUrl>#w_grocBAR_n</styleUrl></Pair><Pair><key>highlight</key><styleUrl>#w_grocBAR_s</styleUrl></Pair></StyleMap>
<Style id="w_vermellP_n"><IconStyle><color>ff0000ff</color><scale>1.0</scale><Icon><href>http://maps.google.com/mapfiles/kml/shapes/man.png</href></Icon><hotSpot x="0.5" y="0" xunits="fraction" yunits="fraction"/></IconStyle><LabelStyle><scale>0.7</scale></LabelStyle></Style>
<Style id="w_vermellP_s"><IconStyle><color>ff0000ff</color><scale>1.4</scale><Icon><href>http://maps.google.com/mapfiles/kml/shapes/man.png</href></Icon><hotSpot x="0.5" y="0" xunits="fraction" yunits="fraction"/></IconStyle><LabelStyle><scale>0.7</scale></LabelStyle></Style>
<StyleMap id="w_vermellP"><Pair><key>normal</key><styleUrl>#w_vermellP_n</styleUrl></Pair><Pair><key>highlight</key><styleUrl>#w_vermellP_s</styleUrl></Pair></StyleMap>
<Style id="w_vermell_n"><IconStyle><color>ff0000ff</color><scale>0.7</scale><Icon><href>http://maps.google.com/mapfiles/kml/shapes/cabs.png</href></Icon><hotSpot x="0.5" y="0" xunits="fraction" yunits="fraction"/></IconStyle><LabelStyle><scale>0.7</scale></LabelStyle></Style>
<Style id="w_vermell_s"><IconStyle><color>ff0000ff</color><scale>1.0</scale><Icon><href>http://maps.google.com/mapfiles/kml/shapes/cabs.png</href></Icon><hotSpot x="0.5" y="0" xunits="fraction" yunits="fraction"/></IconStyle><LabelStyle><scale>0.7</scale></LabelStyle></Style>
<StyleMap id="w_vermell"><Pair><key>normal</key><styleUrl>#w_vermell_n</styleUrl></Pair><Pair><key>highlight</key><styleUrl>#w_vermell_s</styleUrl></Pair></StyleMap>
<Style id="w_vermellC_n"><IconStyle><color>ff0000ff</color><scale>1.0</scale><Icon><href>http://maps.google.com/mapfiles/kml/shapes/truck.png</href></Icon><hotSpot x="0.5" y="0" xunits="fraction" yunits="fraction"/></IconStyle><LabelStyle><scale>0.7</scale></LabelStyle></Style>
<Style id="w_vermellC_s"><IconStyle><color>ff0000ff</color><scale>1.4</scale><Icon><href>http://maps.google.com/mapfiles/kml/shapes/truck.png</href></Icon><hotSpot x="0.5" y="0" xunits="fraction" yunits="fraction"/></IconStyle><LabelStyle><scale>0.7</scale></LabelStyle></Style>
<StyleMap id="w_vermellC"><Pair><key>normal</key><styleUrl>#w_vermellC_n</styleUrl></Pair><Pair><key>highlight</key><styleUrl>#w_vermellC_s</styleUrl></Pair></StyleMap>
<Style id="w_vermellH_n"><IconStyle><color>ff0000ff</color><scale>1.2</scale><Icon><href>http://maps.google.com/mapfiles/kml/shapes/heliport.png</href></Icon><hotSpot x="0.5" y="0" xunits="fraction" yunits="fraction"/></IconStyle><LabelStyle><scale>0.7</scale></LabelStyle></Style>
<Style id="w_vermellH_s"><IconStyle><color>ff0000ff</color><scale>1.4</scale><Icon><href>http://maps.google.com/mapfiles/kml/shapes/heliport.png</href></Icon><hotSpot x="0.5" y="0" xunits="fraction" yunits="fraction"/></IconStyle><LabelStyle><scale>0.7</scale></LabelStyle></Style>
<StyleMap id="w_vermellH"><Pair><key>normal</key><styleUrl>#w_vermellH_n</styleUrl></Pair><Pair><key>highlight</key><styleUrl>#w_vermellH_s</styleUrl></Pair></StyleMap>
<Style id="w_vermellA_n"><IconStyle><color>ff0000ff</color><scale>1.2</scale><Icon><href>http://maps.google.com/mapfiles/kml/shapes/airports.png</href></Icon><hotSpot x="0.5" y="0" xunits="fraction" yunits="fraction"/></IconStyle><LabelStyle><scale>0.7</scale></LabelStyle></Style>
<Style id="w_vermellA_s"><IconStyle><color>ff0000ff</color><scale>1.4</scale><Icon><href>http://maps.google.com/mapfiles/kml/shapes/airports.png</href></Icon><hotSpot x="0.5" y="0" xunits="fraction" yunits="fraction"/></IconStyle><LabelStyle><scale>0.7</scale></LabelStyle></Style>
<StyleMap id="w_vermellA"><Pair><key>normal</key><styleUrl>#w_vermellA_n</styleUrl></Pair><Pair><key>highlight</key><styleUrl>#w_vermellA_s</styleUrl></Pair></StyleMap>
<Style id="w_vermellB_n"><IconStyle><color>ff0000ff</color><scale>1.0</scale><Icon><href>http://maps.google.com/mapfiles/kml/shapes/sailing.png</href></Icon><hotSpot x="0.5" y="0" xunits="fraction" yunits="fraction"/></IconStyle><LabelStyle><scale>0.7</scale></LabelStyle></Style>
<Style id="w_vermellB_s"><IconStyle><color>ff0000ff</color><scale>1.4</scale><Icon><href>http://maps.google.com/mapfiles/kml/shapes/sailing.png</href></Icon><hotSpot x="0.5" y="0" xunits="fraction" yunits="fraction"/></IconStyle><LabelStyle><scale>0.7</scale></LabelStyle></Style>
<StyleMap id="w_vermellB"><Pair><key>normal</key><styleUrl>#w_vermellBAR_n</styleUrl></Pair><Pair><key>highlight</key><styleUrl>#w_vermellBAR_s</styleUrl></Pair></StyleMap>
<Style id="w_descarrega"><IconStyle><color>ff00ffff</color><scale>0.5</scale><Icon><href>http://maps.google.com/mapfiles/kml/shapes/road_shield3.png</href></Icon></IconStyle><LabelStyle><scale>0.7</scale></LabelStyle></Style><Style id="actuacio"><IconStyle><color>ff00ffff</color><scale>0.8</scale><Icon><href>http://maps.google.com/mapfiles/kml/shapes/caution.png</href></Icon></IconStyle><LabelStyle><scale>0.7</scale></LabelStyle></Style></Document></kml>