<?xml version="1.0" encoding="UTF-8"?>
<kml xmlns="http://www.opengis.net/kml/2.2" xmlns:gx="http://www.google.com/kml/ext/2.2" xmlns:kml="http://www.opengis.net/kml/2.2" xmlns:atom="http://www.w3.org/2005/Atom">
<Document>
<name>Terminals</name>
<Snippet maxLines="2">Created 04/08/2018 23:44:49</Snippet>
<Folder>
<name>Terminals</name>
<Placemark><name>A0102</name><description>200102 PORT Dept.
posicio de les: 04/08/2018 23:43:06</description><styleUrl>#w_verdP</styleUrl><Point><coordinates>0.796369314193726,42.707462310791,0</coordinates></Point></Placemark>
<Placemark><name>03373</name><description>203373 GRAE
posicio de les: 04/08/2018 23:44:34</description><styleUrl>#w_verd</styleUrl><Point><coordinates>1.41439318656921,42.5659275054932,0</coordinates></Point></Placemark>
<Placemark><name>GGRAF12</name><description>204212 P.REC
posicio de les: 04/08/2018 23:43:03</description><styleUrl>#w_grocP</styleUrl><Point><coordinates>2.97489166259766,42.0296895503998,0</coordinates></Point></Placemark>
<Placemark><name>OP05087</name><description>205287 OP.AAV
posicio de les: 04/08/2018 23:44:14</description><styleUrl>#w_verdP</styleUrl><Point><coordinates>1.15821003913879,41.1479294300079,0</coordinates></Point></Placemark>
<Placemark><name>VIEL12</name><description>208012 P.PT VARAN
posicio de les: 04/08/2018 23:43:55</description><styleUrl>#w_verdP</styleUrl><Point><coordinates>0.795789957046509,42.7064001560211,0</coordinates></Point></Placemark>
<Placemark><name>VIEL17</name><description>208017 BASE CCA VARAN
posicio de les: 04/08/2018 23:43:54</description><styleUrl>#w_groc</styleUrl><Point><coordinates>0.796691179275513,42.7079451084137,0</coordinates></Point></Placemark>
<Placemark><name>E0REC</name><description>210012 P.Tec REGIÓ
posicio de les: 04/08/2018 23:42:58</description><styleUrl>#w_verdP</styleUrl><Point><coordinates>1.85131430625916,41.7415022850037,0</coordinates></Point></Placemark>
<Placemark><name>BER57</name><description>210357 PORT.COM BER (Centre)
posicio de les: 04/08/2018 23:44:31</description><styleUrl>#w_verdP</styleUrl><Point><coordinates>1.85765504837036,42.1038901805878,0</coordinates></Point></Placemark>
<Placemark><name>CAF56</name><description>210456 PORT.COM CAF (Centre)
posicio de les: 04/08/2018 23:44:50</description><styleUrl>#w_verdP</styleUrl><Point><coordinates>1.5274965763092,41.7308163642883,0</coordinates></Point></Placemark>
<Placemark><name>PRA07</name><description>211407 PORT PRA (Centre)
posicio de les: 04/08/2018 23:44:07</description><styleUrl>#w_verdP</styleUrl><Point><coordinates>2.0360541343689,42.0080709457397,0</coordinates></Point></Placemark>
<Placemark><name>PUIG01</name><description>211501 PORT PUIG (Centre)
posicio de les: 04/08/2018 23:44:52</description><styleUrl>#w_verdP</styleUrl><Point><coordinates>1.92152380943298,42.4205732345581,0</coordinates></Point></Placemark>
<Placemark><name>VIC03</name><description>212103 PORT VIC (Centre)
posicio de les: 04/08/2018 23:43:17</description><styleUrl>#w_verdP</styleUrl><Point><coordinates>2.2565746307373,41.9233667850494,0</coordinates></Point></Placemark>
<Placemark><name>12130</name><description>212130 BRP VIC (Centre)
posicio de les: 04/08/2018 23:41:39</description><styleUrl>#w_grocC</styleUrl><Point><coordinates>2.25646734237671,41.9232058525085,0</coordinates></Point></Placemark>
<Placemark><name>12160</name><description>212160 AEA/AES/ABA VIC (Centre)
posicio de les: 04/08/2018 23:44:31</description><styleUrl>#w_grocC</styleUrl><Point><coordinates>2.25978255271912,41.9247078895569,0</coordinates></Point></Placemark>
<Placemark><name>20092</name><description>220092  REGIÓ
posicio de les: 04/08/2018 23:44:48</description><styleUrl>#w_verd</styleUrl><Point><coordinates>3.10703873634338,42.2637283802032,0</coordinates></Point></Placemark>
<Placemark><name>20134</name><description>220134 BFP AMER (Girona)
posicio de les: 04/08/2018 23:40:06</description><styleUrl>#w_grocC</styleUrl><Point><coordinates>3.15385937690735,42.3579061031342,0</coordinates></Point></Placemark>
<Placemark><name>BANY07</name><description>220307 PORT BANY (Girona)
posicio de les: 04/08/2018 23:43:17</description><styleUrl>#w_verdP</styleUrl><Point><coordinates>2.78653621673584,42.1171617507935,0</coordinates></Point></Placemark>
<Placemark><name>20330</name><description>220330 BRP BANY (Girona)
posicio de les: 04/08/2018 23:41:18</description><styleUrl>#w_grocC</styleUrl><Point><coordinates>2.78493762016296,42.1176767349243,0</coordinates></Point></Placemark>
<Placemark><name>20430</name><description>220430 BRP PERA (Girona)
posicio de les: 04/08/2018 23:44:53</description><styleUrl>#w_verdC</styleUrl><Point><coordinates>2.94157862663269,42.2816562652588,0</coordinates></Point></Placemark>
<Placemark><name>20434</name><description>220434 BFP PERA (Girona)
posicio de les: 04/08/2018 23:44:47</description><styleUrl>#w_verdC</styleUrl><Point><coordinates>2.94157862663269,42.2833299636841,0</coordinates></Point></Placemark>
<Placemark><name>CASS56</name><description>220856 PORT.COM CASS (Girona)
posicio de les: 04/08/2018 23:44:45</description><styleUrl>#w_grocP</styleUrl><Point><coordinates>2.88442611694336,41.8798506259918,0</coordinates></Point></Placemark>
<Placemark><name>FIGU 01</name><description>221001 PORT FIGU (Girona)
posicio de les: 04/08/2018 23:41:34</description><styleUrl>#w_verdP</styleUrl><Point><coordinates>2.87257075309753,42.4066472053528,0</coordinates></Point></Placemark>
<Placemark><name>21034</name><description>221034 BFP FIGU (Girona)
posicio de les: 04/08/2018 23:44:46</description><styleUrl>#w_verdC</styleUrl><Point><coordinates>2.8878915309906,42.0790636539459,0</coordinates></Point></Placemark>
<Placemark><name>FIGU56</name><description>221056 PORT.COM FIGU (Girona)
posicio de les: 04/08/2018 23:42:59</description><styleUrl>#w_verdP</styleUrl><Point><coordinates>2.97057867050171,42.2724080085754,0</coordinates></Point></Placemark>
<Placemark><name>GIRO56</name><description>221156 PORT.COM GIRO (Girona)
posicio de les: 04/08/2018 23:44:16</description><styleUrl>#w_verdP</styleUrl><Point><coordinates>2.80635237693787,41.9603598117828,0</coordinates></Point></Placemark>
<Placemark><name>HOST05</name><description>221205 PORT HOST (Girona)
posicio de les: 04/08/2018 23:43:24</description><styleUrl>#w_verdP</styleUrl><Point><coordinates>2.62431621551514,41.7481434345245,0</coordinates></Point></Placemark>
<Placemark><name>21230</name><description>221230 BRP HOST (Girona)
posicio de les: 04/08/2018 23:42:50</description><styleUrl>#w_grocC</styleUrl><Point><coordinates>2.62450933456421,41.7482078075409,0</coordinates></Point></Placemark>
<Placemark><name>HOST57</name><description>221257 PORT.COM HOST (Girona)
posicio de les: 04/08/2018 23:44:45</description><styleUrl>#w_verdP</styleUrl><Point><coordinates>2.62470245361328,41.7482507228851,0</coordinates></Point></Placemark>
<Placemark><name>JONQ03</name><description>221303 PORT JONQ (Girona)
posicio de les: 04/08/2018 23:44:22</description><styleUrl>#w_grocP</styleUrl><Point><coordinates>2.87652969360352,42.4119365215302,0</coordinates></Point></Placemark>
<Placemark><name>JONQ56</name><description>221356 PORT.COM JONQ (Girona)
posicio de les: 04/08/2018 23:43:10</description><styleUrl>#w_verdP</styleUrl><Point><coordinates>2.87652969360352,42.411721944809,0</coordinates></Point></Placemark>
<Placemark><name>21434</name><description>221434 BFP LLAN (Girona)
posicio de les: 04/08/2018 23:44:52</description><styleUrl>#w_verdC</styleUrl><Point><coordinates>2.93861746788025,42.3246037960052,0</coordinates></Point></Placemark>
<Placemark><name>LLAN57</name><description>221457 PORT.COM LLAN (Girona)
posicio de les: 04/08/2018 23:42:23</description><styleUrl>#w_verdP</styleUrl><Point><coordinates>3.15310835838318,42.3576700687408,0</coordinates></Point></Placemark>
<Placemark><name>LLOR05</name><description>221505 PORT LLOR (Girona)
posicio de les: 04/08/2018 23:43:58</description><styleUrl>#w_verdP</styleUrl><Point><coordinates>2.83618927001953,41.6995310783386,0</coordinates></Point></Placemark>
<Placemark><name>21630</name><description>221630 BRP MACA (Girona)
posicio de les: 04/08/2018 23:43:45</description><styleUrl>#w_grocC</styleUrl><Point><coordinates>2.75298714637756,41.7794179916382,0</coordinates></Point></Placemark>
<Placemark><name>OLOT56</name><description>221756 PORT.COM OLOT (Girona)
posicio de les: 04/08/2018 23:44:20</description><styleUrl>#w_verdP</styleUrl><Point><coordinates>2.47503519058228,42.1900856494904,0</coordinates></Point></Placemark>
<Placemark><name>PALA56</name><description>221856 PORT.COM PALA (Girona)
posicio de les: 04/08/2018 23:43:42</description><styleUrl>#w_grocP</styleUrl><Point><coordinates>3.15630555152893,41.9262421131134,0</coordinates></Point></Placemark>
<Placemark><name>PALA57</name><description>221857 PORT.COM PALA (Girona)
posicio de les: 04/08/2018 23:44:24</description><styleUrl>#w_grocP</styleUrl><Point><coordinates>3.15590858459473,41.9257915019989,0</coordinates></Point></Placemark>
<Placemark><name>RIPO03</name><description>222103 PORT RIPO (Girona)
posicio de les: 04/08/2018 23:43:20</description><styleUrl>#w_grocP</styleUrl><Point><coordinates>2.16816902160645,42.2153091430664,0</coordinates></Point></Placemark>
<Placemark><name>22130</name><description>222130 BRP RIPO (Girona)
posicio de les: 04/08/2018 23:42:32</description><styleUrl>#w_grocC</styleUrl><Point><coordinates>2.16756820678711,42.2147297859192,0</coordinates></Point></Placemark>
<Placemark><name>ROSE56</name><description>222256 PORT.COM ROSE (Girona)
posicio de les: 04/08/2018 23:44:23</description><styleUrl>#w_verdP</styleUrl><Point><coordinates>3.16066145896912,42.2765707969666,0</coordinates></Point></Placemark>
<Placemark><name>22290</name><description>222290 UPC ROSE (Girona)
posicio de les: 04/08/2018 23:44:47</description><styleUrl>#w_verd</styleUrl><Point><coordinates>2.93410062789917,42.1967053413391,0</coordinates></Point></Placemark>
<Placemark><name>TORR56</name><description>222656 PORT.COM TORR (Girona)
posicio de les: 04/08/2018 23:43:46</description><styleUrl>#w_grocP</styleUrl><Point><coordinates>3.16690564155579,42.0483255386353,0</coordinates></Point></Placemark>
<Placemark><name>VALL57</name><description>222857 PORT.COM VALL (Girona)
posicio de les: 04/08/2018 23:43:11</description><styleUrl>#w_verdP</styleUrl><Point><coordinates>3.03163647651672,41.8088257312775,0</coordinates></Point></Placemark>
<Placemark><name>I308</name><description>227308 P.GUAITA GUAITA
posicio de les: 04/08/2018 23:44:07</description><styleUrl>#w_verdP</styleUrl><Point><coordinates>3.155597448349,41.9256842136383,0</coordinates></Point></Placemark>
<Placemark><name>D9REG</name><description>228049  SERVEIS REGIÓ
posicio de les: 04/08/2018 23:43:27</description><styleUrl>#w_verd</styleUrl><Point><coordinates>2.80632019042969,41.9603383541107,0</coordinates></Point></Placemark>
<Placemark><name>D0REL</name><description>230010 P.CG REGIÓ
posicio de les: 04/08/2018 23:44:10</description><styleUrl>#w_verdP</styleUrl><Point><coordinates>0.604966878890991,41.6232919692993,0</coordinates></Point></Placemark>
<Placemark><name>30091</name><description>230091  REGIÓ
posicio de les: 04/08/2018 23:41:12</description><styleUrl>#w_groc</styleUrl><Point><coordinates>0.605438947677612,41.6241180896759,0</coordinates></Point></Placemark>
<Placemark><name>30092</name><description>230092  REGIÓ
posicio de les: 04/08/2018 23:44:34</description><styleUrl>#w_verd</styleUrl><Point><coordinates>0.605342388153076,41.6233777999878,0</coordinates></Point></Placemark>
<Placemark><name>ALMA01</name><description>230301 PORT ALMA (Lleida)
posicio de les: 04/08/2018 23:42:58</description><styleUrl>#w_grocP</styleUrl><Point><coordinates>0.433745384216309,41.7320609092712,0</coordinates></Point></Placemark>
<Placemark><name>ALMA02</name><description>230302 PORT ALMA (Lleida)
posicio de les: 04/08/2018 23:44:26</description><styleUrl>#w_grocP</styleUrl><Point><coordinates>0.433863401412964,41.7318570613861,0</coordinates></Point></Placemark>
<Placemark><name>BORG05</name><description>230705 PORT BORG (Lleida)
posicio de les: 04/08/2018 23:44:25</description><styleUrl>#w_verdP</styleUrl><Point><coordinates>0.844842195510864,41.507248878479,0</coordinates></Point></Placemark>
<Placemark><name>BORG06</name><description>230706 PORT BORG (Lleida)
posicio de les: 04/08/2018 23:43:56</description><styleUrl>#w_grocP</styleUrl><Point><coordinates>0.844852924346924,41.5072810649872,0</coordinates></Point></Placemark>
<Placemark><name>BORG56</name><description>230756 PORT.COM BORG (Lleida)
posicio de les: 04/08/2018 23:44:19</description><styleUrl>#w_verdP</styleUrl><Point><coordinates>0.84470272064209,41.5071523189545,0</coordinates></Point></Placemark>
<Placemark><name>GUIS05</name><description>231405 PORT GUIS (Lleida)
posicio de les: 04/08/2018 23:43:29</description><styleUrl>#w_grocP</styleUrl><Point><coordinates>1.28279328346252,41.7821860313416,0</coordinates></Point></Placemark>
<Placemark><name>31430</name><description>231430 BRP GUIS (Lleida)
posicio de les: 04/08/2018 23:42:11</description><styleUrl>#w_grocC</styleUrl><Point><coordinates>1.2829327583313,41.7820680141449,0</coordinates></Point></Placemark>
<Placemark><name>MOLL07</name><description>232007 PORT MOLL (Lleida)
posicio de les: 04/08/2018 23:44:15</description><styleUrl>#w_grocP</styleUrl><Point><coordinates>0.898411273956299,41.6368210315704,0</coordinates></Point></Placemark>
<Placemark><name>MOLL56</name><description>232056 PORT.COM MOLL (Lleida)
posicio de les: 04/08/2018 23:42:41</description><styleUrl>#w_verdP</styleUrl><Point><coordinates>0.898271799087524,41.6365957260132,0</coordinates></Point></Placemark>
<Placemark><name>32090</name><description>232090 UPC MOLL (Lleida)
posicio de les: 04/08/2018 23:43:18</description><styleUrl>#w_groc</styleUrl><Point><coordinates>0.898100137710571,41.6366064548492,0</coordinates></Point></Placemark>
<Placemark><name>32230</name><description>232230 BRP OLIA (Lleida)
posicio de les: 04/08/2018 23:41:22</description><styleUrl>#w_grocC</styleUrl><Point><coordinates>1.31284475326538,42.0642471313477,0</coordinates></Point></Placemark>
<Placemark><name>32234</name><description>232234 BFP OLIA (Lleida)
posicio de les: 04/08/2018 23:44:17</description><styleUrl>#w_grocC</styleUrl><Point><coordinates>1.31184697151184,42.0663821697235,0</coordinates></Point></Placemark>
<Placemark><name>POBL01</name><description>232401 PORT POBL (Lleida)
posicio de les: 04/08/2018 23:44:44</description><styleUrl>#w_verdP</styleUrl><Point><coordinates>0.964393615722656,42.2389662265778,0</coordinates></Point></Placemark>
<Placemark><name>PONT56</name><description>232556 PORT.COM PONT (Lleida)
posicio de les: 04/08/2018 23:44:22</description><styleUrl>#w_verdP</styleUrl><Point><coordinates>0.739753246307373,42.4104988574982,0</coordinates></Point></Placemark>
<Placemark><name>PONS01</name><description>232601 PORT PONS (Lleida)
posicio de les: 04/08/2018 23:44:32</description><styleUrl>#w_verdP</styleUrl><Point><coordinates>1.174635887146,41.8757307529449,0</coordinates></Point></Placemark>
<Placemark><name>32630</name><description>232630 BRP PONS (Lleida)
posicio de les: 04/08/2018 23:43:23</description><styleUrl>#w_grocC</styleUrl><Point><coordinates>1.17547273635864,41.8751299381256,0</coordinates></Point></Placemark>
<Placemark><name>PONS56</name><description>232656 PORT.COM PONS (Lleida)
posicio de les: 04/08/2018 23:44:18</description><styleUrl>#w_grocP</styleUrl><Point><coordinates>1.17477536201477,41.8755054473877,0</coordinates></Point></Placemark>
<Placemark><name>SEU09</name><description>232909 PORT SEU (Lleida)
posicio de les: 04/08/2018 23:44:31</description><styleUrl>#w_verdP</styleUrl><Point><coordinates>1.47165298461914,42.3603415489197,0</coordinates></Point></Placemark>
<Placemark><name>40081</name><description>240081  REGIÓ
posicio de les: 04/08/2018 23:41:53</description><styleUrl>#w_groc</styleUrl><Point><coordinates>2.11263656616211,41.5023994445801,0</coordinates></Point></Placemark>
<Placemark><name>40091</name><description>240091  REGIÓ
posicio de les: 04/08/2018 23:42:28</description><styleUrl>#w_groc</styleUrl><Point><coordinates>2.11289405822754,41.5040624141693,0</coordinates></Point></Placemark>
<Placemark><name>40240</name><description>240240 BUP BAD (Metro. Nord)
posicio de les: 04/08/2018 23:41:40</description><styleUrl>#w_grocC</styleUrl><Point><coordinates>2.22008585929871,41.4382088184357,0</coordinates></Point></Placemark>
<Placemark><name>40290</name><description>240290 UPC BAD (Metro. Nord)
posicio de les: 04/08/2018 23:42:43</description><styleUrl>#w_groc</styleUrl><Point><coordinates>2.03375816345215,41.4738607406616,0</coordinates></Point></Placemark>
<Placemark><name>CER03</name><description>240503 PORT CER (Metro. Nord)
posicio de les: 04/08/2018 23:42:58</description><styleUrl>#w_verdP</styleUrl><Point><coordinates>2.11140275001526,41.5025281906128,0</coordinates></Point></Placemark>
<Placemark><name>GRA05</name><description>240605 PORT GRA (Metro. Nord)
posicio de les: 04/08/2018 23:43:16</description><styleUrl>#w_verdP</styleUrl><Point><coordinates>2.27495312690735,41.590461730957,0</coordinates></Point></Placemark>
<Placemark><name>GRA07</name><description>240607 PORT GRA (Metro. Nord)
posicio de les: 04/08/2018 23:38:58</description><styleUrl>#w_verdP</styleUrl><Point><coordinates>2.27474927902222,41.5906012058258,0</coordinates></Point></Placemark>
<Placemark><name>MOL03</name><description>241003 PORT MOL (Metro. Nord)
posicio de les: 04/08/2018 23:40:09</description><styleUrl>#w_verdP</styleUrl><Point><coordinates>2.20121383666992,41.536967754364,0</coordinates></Point></Placemark>
<Placemark><name>41034</name><description>241034 BFP MOL (Metro. Nord)
posicio de les: 04/08/2018 23:40:48</description><styleUrl>#w_verdC</styleUrl><Point><coordinates>2.20241546630859,41.5370321273804,0</coordinates></Point></Placemark>
<Placemark><name>241040</name><description>241040 BUP MOL (Metro. Nord)
posicio de les: 04/08/2018 23:42:45</description><styleUrl>#w_grocC</styleUrl><Point><coordinates>2.20198631286621,41.5373432636261,0</coordinates></Point></Placemark>
<Placemark><name>241048</name><description>241048 BUL MOL (Metro. Nord)
posicio de les: 04/08/2018 23:41:25</description><styleUrl>#w_grocC</styleUrl><Point><coordinates>2.20206141471863,41.5368497371674,0</coordinates></Point></Placemark>
<Placemark><name>MFI01</name><description>241101 PORT MFI (Metro. Nord)
posicio de les: 04/08/2018 23:44:03</description><styleUrl>#w_verdP</styleUrl><Point><coordinates>2.27144479751587,41.7162466049194,0</coordinates></Point></Placemark>
<Placemark><name>SAB01</name><description>241401 PORT SAB (Metro. Nord)
posicio de les: 04/08/2018 23:44:00</description><styleUrl>#w_verdP</styleUrl><Point><coordinates>2.10406422615051,41.5425789356232,0</coordinates></Point></Placemark>
<Placemark><name>SAB06</name><description>241406 PORT SAB (Metro. Nord)
posicio de les: 04/08/2018 23:41:11</description><styleUrl>#w_verdP</styleUrl><Point><coordinates>2.10352778434753,41.5435874462128,0</coordinates></Point></Placemark>
<Placemark><name>SAB56</name><description>241456 PORT.COM SAB (Metro. Nord)
posicio de les: 04/08/2018 23:41:30</description><styleUrl>#w_verdP</styleUrl><Point><coordinates>2.10435390472412,41.5423965454102,0</coordinates></Point></Placemark>
<Placemark><name>SCE08</name><description>241608 PORT SCE (Metro. Nord)
posicio de les: 04/08/2018 23:44:03</description><styleUrl>#w_verdP</styleUrl><Point><coordinates>2.50710368156433,41.695100069046,0</coordinates></Point></Placemark>
<Placemark><name>SCG07</name><description>241807 PORT SCG (Metro. Nord)
posicio de les: 04/08/2018 23:41:45</description><styleUrl>#w_verdP</styleUrl><Point><coordinates>2.209153175354,41.4635074138641,0</coordinates></Point></Placemark>
<Placemark><name>41848</name><description>241848 BUL SCG (Metro. Nord)
posicio de les: 04/08/2018 23:44:41</description><styleUrl>#w_verdC</styleUrl><Point><coordinates>2.2127902507782,41.4528214931488,0</coordinates></Point></Placemark>
<Placemark><name>TER11</name><description>242011 PORT TER (Metro. Nord)
posicio de les: 04/08/2018 23:43:02</description><styleUrl>#w_verdP</styleUrl><Point><coordinates>2.02601194381714,41.568306684494,0</coordinates></Point></Placemark>
<Placemark><name>TER56</name><description>242056 PORT.COM TER (Metro. Nord)
posicio de les: 04/08/2018 23:44:07</description><styleUrl>#w_verdP</styleUrl><Point><coordinates>2.02621579170227,41.5679311752319,0</coordinates></Point></Placemark>
<Placemark><name>50093</name><description>250093  REGIÓ
posicio de les: 04/08/2018 23:40:26</description><styleUrl>#w_verd</styleUrl><Point><coordinates>2.10003018379211,41.38028383255,0</coordinates></Point></Placemark>
<Placemark><name>50490</name><description>250490 UPC COR (Metro. Sud)
posicio de les: 04/08/2018 23:42:40</description><styleUrl>#w_groc</styleUrl><Point><coordinates>2.07025766372681,41.3625812530518,0</coordinates></Point></Placemark>
<Placemark><name>GAV02</name><description>250502 PORT GAV (Metro. Sud)
posicio de les: 04/08/2018 23:41:51</description><styleUrl>#w_verdP</styleUrl><Point><coordinates>1.99011325836182,41.2999892234802,0</coordinates></Point></Placemark>
<Placemark><name>GAV56</name><description>250556 PORT.COM GAV (Metro. Sud)
posicio de les: 04/08/2018 23:39:55</description><styleUrl>#w_verdP</styleUrl><Point><coordinates>1.99046730995178,41.3000321388245,0</coordinates></Point></Placemark>
<Placemark><name>HOS06</name><description>250706 PORT HOS (Metro. Sud)
posicio de les: 04/08/2018 23:43:15</description><styleUrl>#w_verdP</styleUrl><Point><coordinates>2.10607051849365,41.3699090480804,0</coordinates></Point></Placemark>
<Placemark><name>HOS56</name><description>250756 PORT.COM HOS (Metro. Sud)
posicio de les: 04/08/2018 23:43:31</description><styleUrl>#w_verdP</styleUrl><Point><coordinates>2.10592031478882,41.3696730136871,0</coordinates></Point></Placemark>
<Placemark><name>50790</name><description>250790 UPC HOS (Metro. Sud)
posicio de les: 04/08/2018 23:44:42</description><styleUrl>#w_groc</styleUrl><Point><coordinates>2.10578083992004,41.3699305057526,0</coordinates></Point></Placemark>
<Placemark><name>MAR57</name><description>251057 PORT.COM MAR (Metro. Sud)
posicio de les: 04/08/2018 23:44:12</description><styleUrl>#w_verdP</styleUrl><Point><coordinates>1.90760850906372,41.4987301826477,0</coordinates></Point></Placemark>
<Placemark><name>PLL06</name><description>251206 PORT PLL (Metro. Sud)
posicio de les: 04/08/2018 23:43:59</description><styleUrl>#w_verdP</styleUrl><Point><coordinates>2.08128690719604,41.3173592090607,0</coordinates></Point></Placemark>
<Placemark><name>SBOI57</name><description>251357 PORT.COM SBOI (Metro. Sud)
posicio de les: 04/08/2018 23:43:51</description><styleUrl>#w_verdP</styleUrl><Point><coordinates>2.03449845314026,41.3232707977295,0</coordinates></Point></Placemark>
<Placemark><name>SFE02</name><description>251502 PORT SFE (Metro. Sud)
posicio de les: 04/08/2018 23:44:32</description><styleUrl>#w_verdP</styleUrl><Point><coordinates>2.04325318336487,41.3886094093323,0</coordinates></Point></Placemark>
<Placemark><name>SFE03</name><description>251503 PORT SFE (Metro. Sud)
posicio de les: 04/08/2018 23:43:48</description><styleUrl>#w_verdP</styleUrl><Point><coordinates>2.04278111457825,41.3887810707092,0</coordinates></Point></Placemark>
<Placemark><name>SFE57</name><description>251557 PORT.COM SFE (Metro. Sud)
posicio de les: 04/08/2018 23:43:25</description><styleUrl>#w_verdP</styleUrl><Point><coordinates>2.04260945320129,41.3889420032501,0</coordinates></Point></Placemark>
<Placemark><name>51948</name><description>251948 BUL VIL (Metro. Sud)
posicio de les: 04/08/2018 23:42:36</description><styleUrl>#w_grocC</styleUrl><Point><coordinates>1.71721458435059,41.2186110019684,0</coordinates></Point></Placemark>
<Placemark><name>RET12</name><description>260012 P.Tec REGIÓ
posicio de les: 04/08/2018 23:44:23</description><styleUrl>#w_verdP</styleUrl><Point><coordinates>1.23202443122864,41.1407947540283,0</coordinates></Point></Placemark>
<Placemark><name>GE0RET</name><description>260013 P.Tec REGIÓ
posicio de les: 04/08/2018 23:40:15</description><styleUrl>#w_verdP</styleUrl><Point><coordinates>1.18479609489441,41.1345827579498,0</coordinates></Point></Placemark>
<Placemark><name>GE600</name><description>260017 P.Tec REGIÓ
posicio de les: 04/08/2018 23:41:30</description><styleUrl>#w_verdP</styleUrl><Point><coordinates>1.18538618087769,41.1346578598022,0</coordinates></Point></Placemark>
<Placemark><name>60092</name><description>260092  REGIÓ
posicio de les: 04/08/2018 23:44:51</description><styleUrl>#w_verd</styleUrl><Point><coordinates>1.2293529510498,41.1404728889465,0</coordinates></Point></Placemark>
<Placemark><name>FALS06</name><description>260406 PORT FALS (Tarragona)
posicio de les: 04/08/2018 23:44:12</description><styleUrl>#w_verdP</styleUrl><Point><coordinates>0.823438167572021,41.1473608016968,0</coordinates></Point></Placemark>
<Placemark><name>260508</name><description>260508 PORT HOSP (Tarragona)
posicio de les: 04/08/2018 23:44:48</description><styleUrl>#w_grocP</styleUrl><Point><coordinates>0.919965505599976,40.9935092926025,0</coordinates></Point></Placemark>
<Placemark><name>REUS03</name><description>260803 PORT REUS (Tarragona)
posicio de les: 04/08/2018 23:44:03</description><styleUrl>#w_verdP</styleUrl><Point><coordinates>1.11814856529236,41.1511158943176,0</coordinates></Point></Placemark>
<Placemark><name>REUS06</name><description>260806 PORT REUS (Tarragona)
posicio de les: 04/08/2018 23:43:47</description><styleUrl>#w_verdP</styleUrl><Point><coordinates>1.11838459968567,41.1507940292358,0</coordinates></Point></Placemark>
<Placemark><name>REUS12</name><description>260812 PORT REUS (Tarragona)
posicio de les: 04/08/2018 23:42:02</description><styleUrl>#w_verdP</styleUrl><Point><coordinates>1.119704246521,41.1496138572693,0</coordinates></Point></Placemark>
<Placemark><name>REUS56</name><description>260856 PORT.COM REUS (Tarragona)
posicio de les: 04/08/2018 23:44:04</description><styleUrl>#w_verdP</styleUrl><Point><coordinates>1.11818075180054,41.1514055728912,0</coordinates></Point></Placemark>
<Placemark><name>E00RETE</name><description>270014 P.Tec REGIÓ
posicio de les: 04/08/2018 23:44:47</description><styleUrl>#w_grocP</styleUrl><Point><coordinates>0.513321161270142,40.8193266391754,0</coordinates></Point></Placemark>
<Placemark><name>AMET06</name><description>272006 PORT AMET (Terres de l'Ebre)
posicio de les: 04/08/2018 23:41:52</description><styleUrl>#w_verdP</styleUrl><Point><coordinates>0.797570943832397,40.8904051780701,0</coordinates></Point></Placemark>
<Placemark><name>ASCO56</name><description>272256 PORT.COM ASCO (Terres de l'Ebre)
posicio de les: 04/08/2018 23:42:58</description><styleUrl>#w_verdP</styleUrl><Point><coordinates>0.568971633911133,41.1877977848053,0</coordinates></Point></Placemark>
<Placemark><name>GAND56</name><description>272656 PORT.COM GAND (Terres de l'Ebre)
posicio de les: 04/08/2018 23:43:01</description><styleUrl>#w_verdP</styleUrl><Point><coordinates>0.439313650131226,41.0584402084351,0</coordinates></Point></Placemark>
<Placemark><name>MORA57</name><description>272857 PORT.COM MORA (Terres de l'Ebre)
posicio de les: 04/08/2018 23:43:14</description><styleUrl>#w_verdP</styleUrl><Point><coordinates>0.630050897598267,41.0860776901245,0</coordinates></Point></Placemark>
<Placemark><name>ULLD08</name><description>273108 PORT ULLD (Terres de l'Ebre)
posicio de les: 04/08/2018 23:44:21</description><styleUrl>#w_grocP</styleUrl><Point><coordinates>0.358289480209351,40.6086874008179,0</coordinates></Point></Placemark>
</Folder>
<Folder>
<name>Descarregues</name>
</Folder>
<Style id="w_verdP_n"><IconStyle><color>ff00ff00</color><scale>1.0</scale><Icon><href>http://maps.google.com/mapfiles/kml/shapes/man.png</href></Icon><hotSpot x="0.5" y="0" xunits="fraction" yunits="fraction"/></IconStyle><LabelStyle><scale>0.7</scale></LabelStyle></Style>
<Style id="w_verdP_s"><IconStyle><color>ff00ff00</color><scale>1.4</scale><Icon><href>http://maps.google.com/mapfiles/kml/shapes/man.png</href></Icon><hotSpot x="0.5" y="0" xunits="fraction" yunits="fraction"/></IconStyle><LabelStyle><scale>0.7</scale></LabelStyle></Style>
<StyleMap id="w_verdP"><Pair><key>normal</key><styleUrl>#w_verdP_n</styleUrl></Pair><Pair><key>highlight</key><styleUrl>#w_verdP_s</styleUrl></Pair></StyleMap>
<Style id="w_verd_n"><IconStyle><color>ff00ff00</color><scale>0.7</scale><Icon><href>http://maps.google.com/mapfiles/kml/shapes/cabs.png</href></Icon><hotSpot x="0.5" y="0" xunits="fraction" yunits="fraction"/></IconStyle><LabelStyle><scale>0.7</scale></LabelStyle></Style>
<Style id="w_verd_s"><IconStyle><color>ff00ff00</color><scale>1.0</scale><Icon><href>http://maps.google.com/mapfiles/kml/shapes/cabs.png</href></Icon><hotSpot x="0.5" y="0" xunits="fraction" yunits="fraction"/></IconStyle><LabelStyle><scale>0.7</scale></LabelStyle></Style>
<StyleMap id="w_verd"><Pair><key>normal</key><styleUrl>#w_verd_n</styleUrl></Pair><Pair><key>highlight</key><styleUrl>#w_verd_s</styleUrl></Pair></StyleMap>
<Style id="w_verdC_n"><IconStyle><color>ff00ff00</color><scale>1.0</scale><Icon><href>http://maps.google.com/mapfiles/kml/shapes/truck.png</href></Icon><hotSpot x="0.5" y="0" xunits="fraction" yunits="fraction"/></IconStyle><LabelStyle><scale>0.7</scale></LabelStyle></Style>
<Style id="w_verdC_s"><IconStyle><color>ff00ff00</color><scale>1.4</scale><Icon><href>http://maps.google.com/mapfiles/kml/shapes/truck.png</href></Icon><hotSpot x="0.5" y="0" xunits="fraction" yunits="fraction"/></IconStyle><LabelStyle><scale>0.7</scale></LabelStyle></Style>
<StyleMap id="w_verdC"><Pair><key>normal</key><styleUrl>#w_verdC_n</styleUrl></Pair><Pair><key>highlight</key><styleUrl>#w_verdC_s</styleUrl></Pair></StyleMap>
<Style id="w_verdH_n"><IconStyle><color>ff0000ff</color><scale>1.2</scale><Icon><href>http://maps.google.com/mapfiles/kml/shapes/heliport.png</href></Icon><hotSpot x="0.5" y="0" xunits="fraction" yunits="fraction"/></IconStyle><LabelStyle><scale>0.7</scale></LabelStyle></Style>
<Style id="w_verdH_s"><IconStyle><color>ff0000ff</color><scale>1.4</scale><Icon><href>http://maps.google.com/mapfiles/kml/shapes/heliport.png</href></Icon><hotSpot x="0.5" y="0" xunits="fraction" yunits="fraction"/></IconStyle><LabelStyle><scale>0.7</scale></LabelStyle></Style>
<StyleMap id="w_verdH"><Pair><key>normal</key><styleUrl>#w_verdH_n</styleUrl></Pair><Pair><key>highlight</key><styleUrl>#w_verdH_s</styleUrl></Pair></StyleMap>
<Style id="w_verdA_n"><IconStyle><color>ff0000ff</color><scale>1.2</scale><Icon><href>http://maps.google.com/mapfiles/kml/shapes/airports.png</href></Icon><hotSpot x="0.5" y="0" xunits="fraction" yunits="fraction"/></IconStyle><LabelStyle><scale>0.7</scale></LabelStyle></Style>
<Style id="w_verdA_s"><IconStyle><color>ff0000ff</color><scale>1.4</scale><Icon><href>http://maps.google.com/mapfiles/kml/shapes/airports.png</href></Icon><hotSpot x="0.5" y="0" xunits="fraction" yunits="fraction"/></IconStyle><LabelStyle><scale>0.7</scale></LabelStyle></Style>
<StyleMap id="w_verdA"><Pair><key>normal</key><styleUrl>#w_verdA_n</styleUrl></Pair><Pair><key>highlight</key><styleUrl>#w_verdA_s</styleUrl></Pair></StyleMap>
<Style id="w_verdB_n"><IconStyle><color>ff00ff00</color><scale>1.0</scale><Icon><href>http://maps.google.com/mapfiles/kml/shapes/sailing.png</href></Icon><hotSpot x="0.5" y="0" xunits="fraction" yunits="fraction"/></IconStyle><LabelStyle><scale>0.7</scale></LabelStyle></Style>
<Style id="w_verdB_s"><IconStyle><color>ff00ff00</color><scale>1.4</scale><Icon><href>http://maps.google.com/mapfiles/kml/shapes/sailing.png</href></Icon><hotSpot x="0.5" y="0" xunits="fraction" yunits="fraction"/></IconStyle><LabelStyle><scale>0.7</scale></LabelStyle></Style>
<StyleMap id="w_verdB"><Pair><key>normal</key><styleUrl>#w_verdBAR_n</styleUrl></Pair><Pair><key>highlight</key><styleUrl>#w_verdBAR_s</styleUrl></Pair></StyleMap>
<Style id="w_grocP_n"><IconStyle><color>ff00ffff</color><scale>1.0</scale><Icon><href>http://maps.google.com/mapfiles/kml/shapes/man.png</href></Icon><hotSpot x="0.5" y="0" xunits="fraction" yunits="fraction"/></IconStyle><LabelStyle><scale>0.7</scale></LabelStyle></Style>
<Style id="w_grocP_s"><IconStyle><color>ff00ffff</color><scale>1.4</scale><Icon><href>http://maps.google.com/mapfiles/kml/shapes/man.png</href></Icon><hotSpot x="0.5" y="0" xunits="fraction" yunits="fraction"/></IconStyle><LabelStyle><scale>0.7</scale></LabelStyle></Style>
<StyleMap id="w_grocP"><Pair><key>normal</key><styleUrl>#w_grocP_n</styleUrl></Pair><Pair><key>highlight</key><styleUrl>#w_grocP_s</styleUrl></Pair></StyleMap>
<Style id="w_groc_n"><IconStyle><color>ff00ffff</color><scale>0.7</scale><Icon><href>http://maps.google.com/mapfiles/kml/shapes/cabs.png</href></Icon><hotSpot x="0.5" y="0" xunits="fraction" yunits="fraction"/></IconStyle><LabelStyle><scale>0.7</scale></LabelStyle></Style>
<Style id="w_groc_s"><IconStyle><color>ff00ffff</color><scale>1.0</scale><Icon><href>http://maps.google.com/mapfiles/kml/shapes/cabs.png</href></Icon><hotSpot x="0.5" y="0" xunits="fraction" yunits="fraction"/></IconStyle><LabelStyle><scale>0.7</scale></LabelStyle></Style>
<StyleMap id="w_groc"><Pair><key>normal</key><styleUrl>#w_groc_n</styleUrl></Pair><Pair><key>highlight</key><styleUrl>#w_groc_s</styleUrl></Pair></StyleMap>
<Style id="w_grocC_n"><IconStyle><color>ff00ffff</color><scale>1.0</scale><Icon><href>http://maps.google.com/mapfiles/kml/shapes/truck.png</href></Icon><hotSpot x="0.5" y="0" xunits="fraction" yunits="fraction"/></IconStyle><LabelStyle><scale>0.7</scale></LabelStyle></Style>
<Style id="w_grocC_s"><IconStyle><color>ff00ffff</color><scale>1.4</scale><Icon><href>http://maps.google.com/mapfiles/kml/shapes/truck.png</href></Icon><hotSpot x="0.5" y="0" xunits="fraction" yunits="fraction"/></IconStyle><LabelStyle><scale>0.7</scale></LabelStyle></Style>
<StyleMap id="w_grocC"><Pair><key>normal</key><styleUrl>#w_grocC_n</styleUrl></Pair><Pair><key>highlight</key><styleUrl>#w_grocC_s</styleUrl></Pair></StyleMap>
<Style id="w_grocH_n"><IconStyle><color>ff0000ff</color><scale>1.2</scale><Icon><href>http://maps.google.com/mapfiles/kml/shapes/heliport.png</href></Icon><hotSpot x="0.5" y="0" xunits="fraction" yunits="fraction"/></IconStyle><LabelStyle><scale>0.7</scale></LabelStyle></Style>
<Style id="w_grocH_s"><IconStyle><color>ff0000ff</color><scale>1.4</scale><Icon><href>http://maps.google.com/mapfiles/kml/shapes/heliport.png</href></Icon><hotSpot x="0.5" y="0" xunits="fraction" yunits="fraction"/></IconStyle><LabelStyle><scale>0.7</scale></LabelStyle></Style>
<StyleMap id="w_grocH"><Pair><key>normal</key><styleUrl>#w_grocH_n</styleUrl></Pair><Pair><key>highlight</key><styleUrl>#w_grocH_s</styleUrl></Pair></StyleMap>
<Style id="w_grocA_n"><IconStyle><color>ff0000ff</color><scale>1.2</scale><Icon><href>http://maps.google.com/mapfiles/kml/shapes/airports.png</href></Icon><hotSpot x="0.5" y="0" xunits="fraction" yunits="fraction"/></IconStyle><LabelStyle><scale>0.7</scale></LabelStyle></Style>
<Style id="w_grocA_s"><IconStyle><color>ff0000ff</color><scale>1.4</scale><Icon><href>http://maps.google.com/mapfiles/kml/shapes/airports.png</href></Icon><hotSpot x="0.5" y="0" xunits="fraction" yunits="fraction"/></IconStyle><LabelStyle><scale>0.7</scale></LabelStyle></Style>
<StyleMap id="w_grocA"><Pair><key>normal</key><styleUrl>#w_grocA_n</styleUrl></Pair><Pair><key>highlight</key><styleUrl>#w_grocA_s</styleUrl></Pair></StyleMap>
<Style id="w_grocB_n"><IconStyle><color>ff00ffff</color><scale>1.0</scale><Icon><href>http://maps.google.com/mapfiles/kml/shapes/sailing.png</href></Icon><hotSpot x="0.5" y="0" xunits="fraction" yunits="fraction"/></IconStyle><LabelStyle><scale>0.7</scale></LabelStyle></Style>
<Style id="w_grocB_s"><IconStyle><color>ff00ffff</color><scale>1.4</scale><Icon><href>http://maps.google.com/mapfiles/kml/shapes/sailing.png</href></Icon><hotSpot x="0.5" y="0" xunits="fraction" yunits="fraction"/></IconStyle><LabelStyle><scale>0.7</scale></LabelStyle></Style>
<StyleMap id="w_grocB"><Pair><key>normal</key><styleUrl>#w_grocBAR_n</styleUrl></Pair><Pair><key>highlight</key><styleUrl>#w_grocBAR_s</styleUrl></Pair></StyleMap>
<Style id="w_vermellP_n"><IconStyle><color>ff0000ff</color><scale>1.0</scale><Icon><href>http://maps.google.com/mapfiles/kml/shapes/man.png</href></Icon><hotSpot x="0.5" y="0" xunits="fraction" yunits="fraction"/></IconStyle><LabelStyle><scale>0.7</scale></LabelStyle></Style>
<Style id="w_vermellP_s"><IconStyle><color>ff0000ff</color><scale>1.4</scale><Icon><href>http://maps.google.com/mapfiles/kml/shapes/man.png</href></Icon><hotSpot x="0.5" y="0" xunits="fraction" yunits="fraction"/></IconStyle><LabelStyle><scale>0.7</scale></LabelStyle></Style>
<StyleMap id="w_vermellP"><Pair><key>normal</key><styleUrl>#w_vermellP_n</styleUrl></Pair><Pair><key>highlight</key><styleUrl>#w_vermellP_s</styleUrl></Pair></StyleMap>
<Style id="w_vermell_n"><IconStyle><color>ff0000ff</color><scale>0.7</scale><Icon><href>http://maps.google.com/mapfiles/kml/shapes/cabs.png</href></Icon><hotSpot x="0.5" y="0" xunits="fraction" yunits="fraction"/></IconStyle><LabelStyle><scale>0.7</scale></LabelStyle></Style>
<Style id="w_vermell_s"><IconStyle><color>ff0000ff</color><scale>1.0</scale><Icon><href>http://maps.google.com/mapfiles/kml/shapes/cabs.png</href></Icon><hotSpot x="0.5" y="0" xunits="fraction" yunits="fraction"/></IconStyle><LabelStyle><scale>0.7</scale></LabelStyle></Style>
<StyleMap id="w_vermell"><Pair><key>normal</key><styleUrl>#w_vermell_n</styleUrl></Pair><Pair><key>highlight</key><styleUrl>#w_vermell_s</styleUrl></Pair></StyleMap>
<Style id="w_vermellC_n"><IconStyle><color>ff0000ff</color><scale>1.0</scale><Icon><href>http://maps.google.com/mapfiles/kml/shapes/truck.png</href></Icon><hotSpot x="0.5" y="0" xunits="fraction" yunits="fraction"/></IconStyle><LabelStyle><scale>0.7</scale></LabelStyle></Style>
<Style id="w_vermellC_s"><IconStyle><color>ff0000ff</color><scale>1.4</scale><Icon><href>http://maps.google.com/mapfiles/kml/shapes/truck.png</href></Icon><hotSpot x="0.5" y="0" xunits="fraction" yunits="fraction"/></IconStyle><LabelStyle><scale>0.7</scale></LabelStyle></Style>
<StyleMap id="w_vermellC"><Pair><key>normal</key><styleUrl>#w_vermellC_n</styleUrl></Pair><Pair><key>highlight</key><styleUrl>#w_vermellC_s</styleUrl></Pair></StyleMap>
<Style id="w_vermellH_n"><IconStyle><color>ff0000ff</color><scale>1.2</scale><Icon><href>http://maps.google.com/mapfiles/kml/shapes/heliport.png</href></Icon><hotSpot x="0.5" y="0" xunits="fraction" yunits="fraction"/></IconStyle><LabelStyle><scale>0.7</scale></LabelStyle></Style>
<Style id="w_vermellH_s"><IconStyle><color>ff0000ff</color><scale>1.4</scale><Icon><href>http://maps.google.com/mapfiles/kml/shapes/heliport.png</href></Icon><hotSpot x="0.5" y="0" xunits="fraction" yunits="fraction"/></IconStyle><LabelStyle><scale>0.7</scale></LabelStyle></Style>
<StyleMap id="w_vermellH"><Pair><key>normal</key><styleUrl>#w_vermellH_n</styleUrl></Pair><Pair><key>highlight</key><styleUrl>#w_vermellH_s</styleUrl></Pair></StyleMap>
<Style id="w_vermellA_n"><IconStyle><color>ff0000ff</color><scale>1.2</scale><Icon><href>http://maps.google.com/mapfiles/kml/shapes/airports.png</href></Icon><hotSpot x="0.5" y="0" xunits="fraction" yunits="fraction"/></IconStyle><LabelStyle><scale>0.7</scale></LabelStyle></Style>
<Style id="w_vermellA_s"><IconStyle><color>ff0000ff</color><scale>1.4</scale><Icon><href>http://maps.google.com/mapfiles/kml/shapes/airports.png</href></Icon><hotSpot x="0.5" y="0" xunits="fraction" yunits="fraction"/></IconStyle><LabelStyle><scale>0.7</scale></LabelStyle></Style>
<StyleMap id="w_vermellA"><Pair><key>normal</key><styleUrl>#w_vermellA_n</styleUrl></Pair><Pair><key>highlight</key><styleUrl>#w_vermellA_s</styleUrl></Pair></StyleMap>
<Style id="w_vermellB_n"><IconStyle><color>ff0000ff</color><scale>1.0</scale><Icon><href>http://maps.google.com/mapfiles/kml/shapes/sailing.png</href></Icon><hotSpot x="0.5" y="0" xunits="fraction" yunits="fraction"/></IconStyle><LabelStyle><scale>0.7</scale></LabelStyle></Style>
<Style id="w_vermellB_s"><IconStyle><color>ff0000ff</color><scale>1.4</scale><Icon><href>http://maps.google.com/mapfiles/kml/shapes/sailing.png</href></Icon><hotSpot x="0.5" y="0" xunits="fraction" yunits="fraction"/></IconStyle><LabelStyle><scale>0.7</scale></LabelStyle></Style>
<StyleMap id="w_vermellB"><Pair><key>normal</key><styleUrl>#w_vermellBAR_n</styleUrl></Pair><Pair><key>highlight</key><styleUrl>#w_vermellBAR_s</styleUrl></Pair></StyleMap>
<Style id="w_descarrega"><IconStyle><color>ff00ffff</color><scale>0.5</scale><Icon><href>http://maps.google.com/mapfiles/kml/shapes/road_shield3.png</href></Icon></IconStyle><LabelStyle><scale>0.7</scale></LabelStyle></Style><Style id="actuacio"><IconStyle><color>ff00ffff</color><scale>0.8</scale><Icon><href>http://maps.google.com/mapfiles/kml/shapes/caution.png</href></Icon></IconStyle><LabelStyle><scale>0.7</scale></LabelStyle></Style></Document></kml>