<?xml version="1.0" encoding="UTF-8"?>
<kml xmlns="http://www.opengis.net/kml/2.2" xmlns:gx="http://www.google.com/kml/ext/2.2" xmlns:kml="http://www.opengis.net/kml/2.2" xmlns:atom="http://www.w3.org/2005/Atom">
<Document>
<name>Terminals</name>
<Snippet maxLines="2">Created 04/08/2018 02:35:34</Snippet>
<Folder>
<name>Terminals</name>
<Placemark><name>OP05081</name><description>205281 OP.AAV
posicio de les: 04/08/2018 02:32:55</description><styleUrl>#w_verdP</styleUrl><Point><coordinates>2.10672497749329,41.5173876285553,0</coordinates></Point></Placemark>
<Placemark><name>VIEL12</name><description>208012 P.PT VARAN
posicio de les: 04/08/2018 02:34:53</description><styleUrl>#w_grocP</styleUrl><Point><coordinates>0.801100730895996,42.6991045475006,0</coordinates></Point></Placemark>
<Placemark><name>VIEL17</name><description>208017 BASE CCA VARAN
posicio de les: 04/08/2018 02:34:17</description><styleUrl>#w_verd</styleUrl><Point><coordinates>0.796358585357666,42.707827091217,0</coordinates></Point></Placemark>
<Placemark><name>GE100</name><description>210017 P.Tec REGIÓ
posicio de les: 04/08/2018 02:34:22</description><styleUrl>#w_verdP</styleUrl><Point><coordinates>1.85132503509521,41.7413628101349,0</coordinates></Point></Placemark>
<Placemark><name>10071</name><description>210071  REGIÓ
posicio de les: 04/08/2018 02:35:37</description><styleUrl>#w_verd</styleUrl><Point><coordinates>1.85397505760193,41.7425858974457,0</coordinates></Point></Placemark>
<Placemark><name>BER57</name><description>210357 PORT.COM BER (Centre)
posicio de les: 04/08/2018 02:33:40</description><styleUrl>#w_grocP</styleUrl><Point><coordinates>1.85771942138672,42.1040296554565,0</coordinates></Point></Placemark>
<Placemark><name>211130</name><description>211130 BRP MOI (Centre)
posicio de les: 04/08/2018 02:34:29</description><styleUrl>#w_verdC</styleUrl><Point><coordinates>2.08675861358643,41.8076241016388,0</coordinates></Point></Placemark>
<Placemark><name>PRA07</name><description>211407 PORT PRA (Centre)
posicio de les: 04/08/2018 02:33:39</description><styleUrl>#w_verdP</styleUrl><Point><coordinates>2.03602194786072,42.0080709457397,0</coordinates></Point></Placemark>
<Placemark><name>PUIG08</name><description>211508 PORT PUIG (Centre)
posicio de les: 04/08/2018 02:34:53</description><styleUrl>#w_verdP</styleUrl><Point><coordinates>1.90292000770569,42.4301648139954,0</coordinates></Point></Placemark>
<Placemark><name>SOLS05</name><description>211905 PORT SOLS (Centre)
posicio de les: 04/08/2018 02:34:15</description><styleUrl>#w_grocP</styleUrl><Point><coordinates>1.51227235794067,41.9894564151764,0</coordinates></Point></Placemark>
<Placemark><name>VIC04</name><description>212104 PORT VIC (Centre)
posicio de les: 04/08/2018 02:34:57</description><styleUrl>#w_verdP</styleUrl><Point><coordinates>2.2697389125824,41.9415414333344,0</coordinates></Point></Placemark>
<Placemark><name>20091</name><description>220091  REGIÓ
posicio de les: 04/08/2018 02:34:57</description><styleUrl>#w_groc</styleUrl><Point><coordinates>2.80623435974121,41.9606173038483,0</coordinates></Point></Placemark>
<Placemark><name>20134</name><description>220134 BFP AMER (Girona)
posicio de les: 04/08/2018 02:32:56</description><styleUrl>#w_grocC</styleUrl><Point><coordinates>3.15335512161255,42.3590970039368,0</coordinates></Point></Placemark>
<Placemark><name>BANY56</name><description>220356 PORT.COM BANY (Girona)
posicio de les: 04/08/2018 02:33:59</description><styleUrl>#w_verdP</styleUrl><Point><coordinates>2.78562426567078,42.1174943447113,0</coordinates></Point></Placemark>
<Placemark><name>220656</name><description>220656 PORT.COM CALO (Girona)
posicio de les: 04/08/2018 02:33:34</description><styleUrl>#w_verdP</styleUrl><Point><coordinates>3.07428359985352,41.852513551712,0</coordinates></Point></Placemark>
<Placemark><name>CASS04</name><description>220804 PORT CASS (Girona)
posicio de les: 04/08/2018 02:35:19</description><styleUrl>#w_verdP</styleUrl><Point><coordinates>2.88356781005859,41.8798184394836,0</coordinates></Point></Placemark>
<Placemark><name>20830</name><description>220830 BRP CASS (Girona)
posicio de les: 04/08/2018 02:35:34</description><styleUrl>#w_grocC</styleUrl><Point><coordinates>2.88381457328796,41.8794751167297,0</coordinates></Point></Placemark>
<Placemark><name>CASS56</name><description>220856 PORT.COM CASS (Girona)
posicio de les: 04/08/2018 02:33:50</description><styleUrl>#w_grocP</styleUrl><Point><coordinates>2.88416862487793,41.8796360492706,0</coordinates></Point></Placemark>
<Placemark><name>GIRO06</name><description>221106 PORT GIRO (Girona)
posicio de les: 04/08/2018 02:33:02</description><styleUrl>#w_verdP</styleUrl><Point><coordinates>2.80598759651184,41.9602203369141,0</coordinates></Point></Placemark>
<Placemark><name>JONQ56</name><description>221356 PORT.COM JONQ (Girona)
posicio de les: 04/08/2018 02:34:10</description><styleUrl>#w_grocP</styleUrl><Point><coordinates>2.87627220153809,42.411904335022,0</coordinates></Point></Placemark>
<Placemark><name>LLAN57</name><description>221457 PORT.COM LLAN (Girona)
posicio de les: 04/08/2018 02:34:19</description><styleUrl>#w_verdP</styleUrl><Point><coordinates>3.15290451049805,42.3579061031342,0</coordinates></Point></Placemark>
<Placemark><name>LLOR56</name><description>221556 PORT.COM LLOR (Girona)
posicio de les: 04/08/2018 02:35:30</description><styleUrl>#w_verdP</styleUrl><Point><coordinates>2.83594250679016,41.6997563838959,0</coordinates></Point></Placemark>
<Placemark><name>MAÇA57</name><description>221657 PORT.COM MACA (Girona)
posicio de les: 04/08/2018 02:35:26</description><styleUrl>#w_grocP</styleUrl><Point><coordinates>2.75290131568909,41.7792892456055,0</coordinates></Point></Placemark>
<Placemark><name>OLOT01</name><description>221701 PORT OLOT (Girona)
posicio de les: 04/08/2018 02:35:29</description><styleUrl>#w_grocP</styleUrl><Point><coordinates>3.16079020500183,42.2764849662781,0</coordinates></Point></Placemark>
<Placemark><name>OLOT56</name><description>221756 PORT.COM OLOT (Girona)
posicio de les: 04/08/2018 02:35:17</description><styleUrl>#w_verdP</styleUrl><Point><coordinates>2.47511029243469,42.1896350383759,0</coordinates></Point></Placemark>
<Placemark><name>OLOT57</name><description>221757 PORT.COM OLOT (Girona)
posicio de les: 04/08/2018 02:31:26</description><styleUrl>#w_verdP</styleUrl><Point><coordinates>2.4738872051239,42.1908152103424,0</coordinates></Point></Placemark>
<Placemark><name>PALA56</name><description>221856 PORT.COM PALA (Girona)
posicio de les: 04/08/2018 02:34:40</description><styleUrl>#w_verdP</styleUrl><Point><coordinates>3.15621972084045,41.9260811805725,0</coordinates></Point></Placemark>
<Placemark><name>RIPO56</name><description>222156 PORT.COM RIPO (Girona)
posicio de les: 04/08/2018 02:34:54</description><styleUrl>#w_verdP</styleUrl><Point><coordinates>2.17032551765442,42.2138714790344,0</coordinates></Point></Placemark>
<Placemark><name>ROSE57</name><description>222257 PORT.COM ROSE (Girona)
posicio de les: 04/08/2018 02:35:01</description><styleUrl>#w_verdP</styleUrl><Point><coordinates>3.16092967987061,42.2763240337372,0</coordinates></Point></Placemark>
<Placemark><name>22430</name><description>222430 BRP SHIL (Girona)
posicio de les: 04/08/2018 02:34:36</description><styleUrl>#w_grocC</styleUrl><Point><coordinates>3.03195834159851,41.8085896968842,0</coordinates></Point></Placemark>
<Placemark><name>22890</name><description>222890 UPC VALL (Girona)
posicio de les: 04/08/2018 02:31:12</description><styleUrl>#w_verd</styleUrl><Point><coordinates>3.03415775299072,41.8095982074738,0</coordinates></Point></Placemark>
<Placemark><name>D0REL</name><description>230010 P.CG REGIÓ
posicio de les: 04/08/2018 02:32:59</description><styleUrl>#w_verdP</styleUrl><Point><coordinates>0.60498833656311,41.6232705116272,0</coordinates></Point></Placemark>
<Placemark><name>30082</name><description>230082  REGIÓ
posicio de les: 04/08/2018 02:31:06</description><styleUrl>#w_groc</styleUrl><Point><coordinates>0.80600380897522,41.8003284931183,0</coordinates></Point></Placemark>
<Placemark><name>BALA57</name><description>230657 PORT.COM BALA (Lleida)
posicio de les: 04/08/2018 02:34:32</description><styleUrl>#w_grocP</styleUrl><Point><coordinates>0.805832147598267,41.7991483211517,0</coordinates></Point></Placemark>
<Placemark><name>BORG01</name><description>230701 PORT BORG (Lleida)
posicio de les: 04/08/2018 02:35:05</description><styleUrl>#w_verdP</styleUrl><Point><coordinates>0.844531059265137,41.5074419975281,0</coordinates></Point></Placemark>
<Placemark><name>BORG06</name><description>230706 PORT BORG (Lleida)
posicio de les: 04/08/2018 02:34:28</description><styleUrl>#w_verdP</styleUrl><Point><coordinates>0.845239162445068,41.507602930069,0</coordinates></Point></Placemark>
<Placemark><name>30730</name><description>230730 BRP BORG (Lleida)
posicio de les: 04/08/2018 02:32:54</description><styleUrl>#w_verdC</styleUrl><Point><coordinates>0.845035314559937,41.5082573890686,0</coordinates></Point></Placemark>
<Placemark><name>BORG56</name><description>230756 PORT.COM BORG (Lleida)
posicio de les: 04/08/2018 02:34:46</description><styleUrl>#w_verdP</styleUrl><Point><coordinates>0.844981670379639,41.507248878479,0</coordinates></Point></Placemark>
<Placemark><name>CERV08</name><description>230908 PORT CERV (Lleida)
posicio de les: 04/08/2018 02:32:43</description><styleUrl>#w_verdP</styleUrl><Point><coordinates>1.26513361930847,41.6712605953217,0</coordinates></Point></Placemark>
<Placemark><name>ISON56</name><description>231556 PORT.COM ISON (Lleida)
posicio de les: 04/08/2018 02:30:15</description><styleUrl>#w_verdP</styleUrl><Point><coordinates>1.04860424995422,42.1188998222351,0</coordinates></Point></Placemark>
<Placemark><name>MOLL07</name><description>232007 PORT MOLL (Lleida)
posicio de les: 04/08/2018 02:32:23</description><styleUrl>#w_grocP</styleUrl><Point><coordinates>0.898100137710571,41.6370248794556,0</coordinates></Point></Placemark>
<Placemark><name>32031</name><description>232031 BRP MOLL (Lleida)
posicio de les: 04/08/2018 02:34:52</description><styleUrl>#w_grocC</styleUrl><Point><coordinates>0.898325443267822,41.6366386413574,0</coordinates></Point></Placemark>
<Placemark><name>POBL01</name><description>232401 PORT POBL (Lleida)
posicio de les: 04/08/2018 02:33:35</description><styleUrl>#w_verdP</styleUrl><Point><coordinates>0.963889360427856,42.2389769554138,0</coordinates></Point></Placemark>
<Placemark><name>REMN11</name><description>240011 P.Tec REGIÓ
posicio de les: 04/08/2018 02:34:36</description><styleUrl>#w_verdP</styleUrl><Point><coordinates>2.11142420768738,41.5021419525146,0</coordinates></Point></Placemark>
<Placemark><name>GE0REMN</name><description>240013 P.Tec REGIÓ
posicio de les: 04/08/2018 02:34:50</description><styleUrl>#w_verdP</styleUrl><Point><coordinates>2.28487730026245,41.6873860359192,0</coordinates></Point></Placemark>
<Placemark><name>40081</name><description>240081  REGIÓ
posicio de les: 04/08/2018 02:31:53</description><styleUrl>#w_groc</styleUrl><Point><coordinates>2.11236834526062,41.5022492408752,0</coordinates></Point></Placemark>
<Placemark><name>40091</name><description>240091  REGIÓ
posicio de les: 04/08/2018 02:32:59</description><styleUrl>#w_groc</styleUrl><Point><coordinates>2.11191773414612,41.5023243427277,0</coordinates></Point></Placemark>
<Placemark><name>40093</name><description>240093  REGIÓ
posicio de les: 04/08/2018 02:31:54</description><styleUrl>#w_groc</styleUrl><Point><coordinates>2.28515625,41.6871392726898,0</coordinates></Point></Placemark>
<Placemark><name>40148</name><description>240148 BUL ARE (Metro. Nord)
posicio de les: 04/08/2018 02:33:35</description><styleUrl>#w_grocC</styleUrl><Point><coordinates>2.58802056312561,41.5998923778534,0</coordinates></Point></Placemark>
<Placemark><name>ARE56</name><description>240156 PORT.COM ARE (Metro. Nord)
posicio de les: 04/08/2018 02:34:30</description><styleUrl>#w_grocP</styleUrl><Point><coordinates>2.58774161338806,41.5999031066895,0</coordinates></Point></Placemark>
<Placemark><name>40290</name><description>240290 UPC BAD (Metro. Nord)
posicio de les: 04/08/2018 02:32:27</description><styleUrl>#w_groc</styleUrl><Point><coordinates>2.20923900604248,41.4632821083069,0</coordinates></Point></Placemark>
<Placemark><name>40630</name><description>240630 BRP GRA (Metro. Nord)
posicio de les: 04/08/2018 02:33:35</description><styleUrl>#w_grocC</styleUrl><Point><coordinates>2.2851026058197,41.6872894763947,0</coordinates></Point></Placemark>
<Placemark><name>40640</name><description>240640 BUP GRA (Metro. Nord)
posicio de les: 04/08/2018 02:33:14</description><styleUrl>#w_grocC</styleUrl><Point><coordinates>2.2847056388855,41.687525510788,0</coordinates></Point></Placemark>
<Placemark><name>40660</name><description>240660 AEA/AES/ABA GRA (Metro. Nord)
posicio de les: 04/08/2018 02:33:25</description><styleUrl>#w_grocC</styleUrl><Point><coordinates>2.28494167327881,41.6872894763947,0</coordinates></Point></Placemark>
<Placemark><name>40690</name><description>240690 UPC GRA (Metro. Nord)
posicio de les: 04/08/2018 02:33:36</description><styleUrl>#w_groc</styleUrl><Point><coordinates>2.42261409759521,41.5318071842194,0</coordinates></Point></Placemark>
<Placemark><name>MAT07</name><description>240907 PORT MAT (Metro. Nord)
posicio de les: 04/08/2018 02:34:01</description><styleUrl>#w_grocP</styleUrl><Point><coordinates>2.58788108825684,41.600536108017,0</coordinates></Point></Placemark>
<Placemark><name>240950</name><description>240950 FSV/FRQ/FER/FRM/FRA/FSA MAT (Metro. Nord)
posicio de les: 04/08/2018 02:30:46</description><styleUrl>#w_grocC</styleUrl><Point><coordinates>2.58763432502747,41.5997958183289,0</coordinates></Point></Placemark>
<Placemark><name>MOL03</name><description>241003 PORT MOL (Metro. Nord)
posicio de les: 04/08/2018 02:32:48</description><styleUrl>#w_verdP</styleUrl><Point><coordinates>2.20139622688293,41.5370857715607,0</coordinates></Point></Placemark>
<Placemark><name>241048</name><description>241048 BUL MOL (Metro. Nord)
posicio de les: 04/08/2018 02:34:01</description><styleUrl>#w_verdC</styleUrl><Point><coordinates>2.20199704170227,41.5367424488068,0</coordinates></Point></Placemark>
<Placemark><name>RUB01</name><description>241301 PORT RUB (Metro. Nord)
posicio de les: 04/08/2018 02:32:26</description><styleUrl>#w_verdP</styleUrl><Point><coordinates>2.034991979599,41.4737319946289,0</coordinates></Point></Placemark>
<Placemark><name>41848</name><description>241848 BUL SCG (Metro. Nord)
posicio de les: 04/08/2018 02:34:49</description><styleUrl>#w_grocC</styleUrl><Point><coordinates>2.20914244651794,41.4632713794708,0</coordinates></Point></Placemark>
<Placemark><name>241858</name><description>241858 BSAL SCG (Metro. Nord)
posicio de les: 04/08/2018 02:35:13</description><styleUrl>#w_verdB</styleUrl><Point><coordinates>2.20921754837036,41.4634108543396,0</coordinates></Point></Placemark>
<Placemark><name>242040</name><description>242040 BUP TER (Metro. Nord)
posicio de les: 04/08/2018 02:33:54</description><styleUrl>#w_verdC</styleUrl><Point><coordinates>2.02560424804688,41.5683817863464,0</coordinates></Point></Placemark>
<Placemark><name>D3REMN</name><description>248043  SERVEIS REGIÓ
posicio de les: 04/08/2018 02:34:25</description><styleUrl>#w_groc</styleUrl><Point><coordinates>2.11233615875244,41.5026354789734,0</coordinates></Point></Placemark>
<Placemark><name>REMS14</name><description>250014 P.Tec REGIÓ
posicio de les: 04/08/2018 02:31:31</description><styleUrl>#w_verdP</styleUrl><Point><coordinates>2.03451991081238,41.3226699829102,0</coordinates></Point></Placemark>
<Placemark><name>50093</name><description>250093  REGIÓ
posicio de les: 04/08/2018 02:35:18</description><styleUrl>#w_groc</styleUrl><Point><coordinates>2.03451991081238,41.3227772712708,0</coordinates></Point></Placemark>
<Placemark><name>COR07</name><description>250407 PORT COR (Metro. Sud)
posicio de les: 04/08/2018 02:34:07</description><styleUrl>#w_verdP</styleUrl><Point><coordinates>2.07106232643127,41.3604784011841,0</coordinates></Point></Placemark>
<Placemark><name>GAV09</name><description>250509 PORT GAV (Metro. Sud)
posicio de les: 04/08/2018 02:31:56</description><styleUrl>#w_verdP</styleUrl><Point><coordinates>1.99068188667297,41.299946308136,0</coordinates></Point></Placemark>
<Placemark><name>GAV57</name><description>250557 PORT.COM GAV (Metro. Sud)
posicio de les: 04/08/2018 02:32:43</description><styleUrl>#w_grocP</styleUrl><Point><coordinates>1.98982357978821,41.3000428676605,0</coordinates></Point></Placemark>
<Placemark><name>IGU20E</name><description>250820 PORT IGU (Metro. Sud)
posicio de les: 04/08/2018 02:33:46</description><styleUrl>#w_grocP</styleUrl><Point><coordinates>1.61002278327942,41.5893566608429,0</coordinates></Point></Placemark>
<Placemark><name>MAR01</name><description>251001 PORT MAR (Metro. Sud)
posicio de les: 04/08/2018 02:35:31</description><styleUrl>#w_verdP</styleUrl><Point><coordinates>1.90790891647339,41.498601436615,0</coordinates></Point></Placemark>
<Placemark><name>MAR10</name><description>251010 PORT MAR (Metro. Sud)
posicio de les: 04/08/2018 02:34:25</description><styleUrl>#w_verdP</styleUrl><Point><coordinates>1.90813422203064,41.498955488205,0</coordinates></Point></Placemark>
<Placemark><name>MAR11</name><description>251011 PORT MAR (Metro. Sud)
posicio de les: 04/08/2018 02:35:34</description><styleUrl>#w_verdP</styleUrl><Point><coordinates>1.90795183181763,41.499137878418,0</coordinates></Point></Placemark>
<Placemark><name>251040</name><description>251040 BUP MAR (Metro. Sud)
posicio de les: 04/08/2018 02:35:35</description><styleUrl>#w_verdC</styleUrl><Point><coordinates>1.87917709350586,41.4783561229706,0</coordinates></Point></Placemark>
<Placemark><name>MAR56</name><description>251056 PORT.COM MAR (Metro. Sud)
posicio de les: 04/08/2018 02:35:04</description><styleUrl>#w_verdP</styleUrl><Point><coordinates>1.88513159751892,41.4786028862,0</coordinates></Point></Placemark>
<Placemark><name>PLL03</name><description>251203 PORT PLL (Metro. Sud)
posicio de les: 04/08/2018 02:34:45</description><styleUrl>#w_verdP</styleUrl><Point><coordinates>2.08178043365479,41.3166618347168,0</coordinates></Point></Placemark>
<Placemark><name>SBOI02</name><description>251302 PORT SBOI (Metro. Sud)
posicio de les: 04/08/2018 02:35:33</description><styleUrl>#w_grocP</styleUrl><Point><coordinates>2.03405857086182,41.3228523731232,0</coordinates></Point></Placemark>
<Placemark><name>SFE03</name><description>251503 PORT SFE (Metro. Sud)
posicio de les: 04/08/2018 02:34:04</description><styleUrl>#w_verdP</styleUrl><Point><coordinates>2.04242706298828,41.3891458511353,0</coordinates></Point></Placemark>
<Placemark><name>51530</name><description>251530 BRP SFE (Metro. Sud)
posicio de les: 04/08/2018 02:35:30</description><styleUrl>#w_grocC</styleUrl><Point><coordinates>2.04770565032959,41.3866889476776,0</coordinates></Point></Placemark>
<Placemark><name>VIF03</name><description>251803 PORT VIF (Metro. Sud)
posicio de les: 04/08/2018 02:33:56</description><styleUrl>#w_verdP</styleUrl><Point><coordinates>1.70411467552185,41.3547813892365,0</coordinates></Point></Placemark>
<Placemark><name>51860</name><description>251860 AEA/AES/ABA VIF (Metro. Sud)
posicio de les: 04/08/2018 02:31:35</description><styleUrl>#w_grocC</styleUrl><Point><coordinates>1.70467257499695,41.3547492027283,0</coordinates></Point></Placemark>
<Placemark><name>260508</name><description>260508 PORT HOSP (Tarragona)
posicio de les: 04/08/2018 02:35:13</description><styleUrl>#w_grocP</styleUrl><Point><coordinates>0.919675827026367,40.993766784668,0</coordinates></Point></Placemark>
<Placemark><name>60840</name><description>260840 BUP REUS (Tarragona)
posicio de les: 04/08/2018 02:32:03</description><styleUrl>#w_verdC</styleUrl><Point><coordinates>1.11789107322693,41.1515665054321,0</coordinates></Point></Placemark>
<Placemark><name>REUS56</name><description>260856 PORT.COM REUS (Tarragona)
posicio de les: 04/08/2018 02:35:16</description><styleUrl>#w_verdP</styleUrl><Point><coordinates>1.11836314201355,41.1512446403503,0</coordinates></Point></Placemark>
<Placemark><name>TARR01</name><description>261201 PORT TARR (Tarragona)
posicio de les: 04/08/2018 02:35:30</description><styleUrl>#w_grocP</styleUrl><Point><coordinates>1.18502140045166,41.1345720291138,0</coordinates></Point></Placemark>
<Placemark><name>SCRET</name><description>268001 P.COMODIN SERVEIS REGIÓ
posicio de les: 04/08/2018 02:33:44</description><styleUrl>#w_verdP</styleUrl><Point><coordinates>1.18599772453308,41.1338424682617,0</coordinates></Point></Placemark>
<Placemark><name>E00RETE</name><description>270014 P.Tec REGIÓ
posicio de les: 04/08/2018 02:32:28</description><styleUrl>#w_verdP</styleUrl><Point><coordinates>0.51336407661438,40.8192086219788,0</coordinates></Point></Placemark>
<Placemark><name>ASCO56</name><description>272256 PORT.COM ASCO (Terres de l'Ebre)
posicio de les: 04/08/2018 02:34:28</description><styleUrl>#w_verdP</styleUrl><Point><coordinates>0.568724870681763,41.187926530838,0</coordinates></Point></Placemark>
<Placemark><name>MORA06</name><description>272806 PORT MORA (Terres de l'Ebre)
posicio de les: 04/08/2018 02:32:08</description><styleUrl>#w_verdP</styleUrl><Point><coordinates>0.629911422729492,41.0860776901245,0</coordinates></Point></Placemark>
<Placemark><name>ULLD08</name><description>273108 PORT ULLD (Terres de l'Ebre)
posicio de les: 04/08/2018 02:33:28</description><styleUrl>#w_verdP</styleUrl><Point><coordinates>0.357677936553955,40.6088054180145,0</coordinates></Point></Placemark>
<Placemark><name>73130</name><description>273130 BRP ULLD (Terres de l'Ebre)
posicio de les: 04/08/2018 02:35:30</description><styleUrl>#w_verdC</styleUrl><Point><coordinates>0.434893369674683,40.5979478359222,0</coordinates></Point></Placemark>
<Placemark><name>ULLD57</name><description>273157 PORT.COM ULLD (Terres de l'Ebre)
posicio de les: 04/08/2018 02:29:47</description><styleUrl>#w_verdP</styleUrl><Point><coordinates>0.448572635650635,40.5958878993988,0</coordinates></Point></Placemark>
<Placemark><name>73190</name><description>273190 UPC ULLD (Terres de l'Ebre)
posicio de les: 04/08/2018 02:35:36</description><styleUrl>#w_verd</styleUrl><Point><coordinates>0.436180830001831,40.5969500541687,0</coordinates></Point></Placemark>
</Folder>
<Folder>
<name>Descarregues</name>
</Folder>
<Style id="w_verdP_n"><IconStyle><color>ff00ff00</color><scale>1.0</scale><Icon><href>http://maps.google.com/mapfiles/kml/shapes/man.png</href></Icon><hotSpot x="0.5" y="0" xunits="fraction" yunits="fraction"/></IconStyle><LabelStyle><scale>0.7</scale></LabelStyle></Style>
<Style id="w_verdP_s"><IconStyle><color>ff00ff00</color><scale>1.4</scale><Icon><href>http://maps.google.com/mapfiles/kml/shapes/man.png</href></Icon><hotSpot x="0.5" y="0" xunits="fraction" yunits="fraction"/></IconStyle><LabelStyle><scale>0.7</scale></LabelStyle></Style>
<StyleMap id="w_verdP"><Pair><key>normal</key><styleUrl>#w_verdP_n</styleUrl></Pair><Pair><key>highlight</key><styleUrl>#w_verdP_s</styleUrl></Pair></StyleMap>
<Style id="w_verd_n"><IconStyle><color>ff00ff00</color><scale>0.7</scale><Icon><href>http://maps.google.com/mapfiles/kml/shapes/cabs.png</href></Icon><hotSpot x="0.5" y="0" xunits="fraction" yunits="fraction"/></IconStyle><LabelStyle><scale>0.7</scale></LabelStyle></Style>
<Style id="w_verd_s"><IconStyle><color>ff00ff00</color><scale>1.0</scale><Icon><href>http://maps.google.com/mapfiles/kml/shapes/cabs.png</href></Icon><hotSpot x="0.5" y="0" xunits="fraction" yunits="fraction"/></IconStyle><LabelStyle><scale>0.7</scale></LabelStyle></Style>
<StyleMap id="w_verd"><Pair><key>normal</key><styleUrl>#w_verd_n</styleUrl></Pair><Pair><key>highlight</key><styleUrl>#w_verd_s</styleUrl></Pair></StyleMap>
<Style id="w_verdC_n"><IconStyle><color>ff00ff00</color><scale>1.0</scale><Icon><href>http://maps.google.com/mapfiles/kml/shapes/truck.png</href></Icon><hotSpot x="0.5" y="0" xunits="fraction" yunits="fraction"/></IconStyle><LabelStyle><scale>0.7</scale></LabelStyle></Style>
<Style id="w_verdC_s"><IconStyle><color>ff00ff00</color><scale>1.4</scale><Icon><href>http://maps.google.com/mapfiles/kml/shapes/truck.png</href></Icon><hotSpot x="0.5" y="0" xunits="fraction" yunits="fraction"/></IconStyle><LabelStyle><scale>0.7</scale></LabelStyle></Style>
<StyleMap id="w_verdC"><Pair><key>normal</key><styleUrl>#w_verdC_n</styleUrl></Pair><Pair><key>highlight</key><styleUrl>#w_verdC_s</styleUrl></Pair></StyleMap>
<Style id="w_verdH_n"><IconStyle><color>ff0000ff</color><scale>1.2</scale><Icon><href>http://maps.google.com/mapfiles/kml/shapes/heliport.png</href></Icon><hotSpot x="0.5" y="0" xunits="fraction" yunits="fraction"/></IconStyle><LabelStyle><scale>0.7</scale></LabelStyle></Style>
<Style id="w_verdH_s"><IconStyle><color>ff0000ff</color><scale>1.4</scale><Icon><href>http://maps.google.com/mapfiles/kml/shapes/heliport.png</href></Icon><hotSpot x="0.5" y="0" xunits="fraction" yunits="fraction"/></IconStyle><LabelStyle><scale>0.7</scale></LabelStyle></Style>
<StyleMap id="w_verdH"><Pair><key>normal</key><styleUrl>#w_verdH_n</styleUrl></Pair><Pair><key>highlight</key><styleUrl>#w_verdH_s</styleUrl></Pair></StyleMap>
<Style id="w_verdA_n"><IconStyle><color>ff0000ff</color><scale>1.2</scale><Icon><href>http://maps.google.com/mapfiles/kml/shapes/airports.png</href></Icon><hotSpot x="0.5" y="0" xunits="fraction" yunits="fraction"/></IconStyle><LabelStyle><scale>0.7</scale></LabelStyle></Style>
<Style id="w_verdA_s"><IconStyle><color>ff0000ff</color><scale>1.4</scale><Icon><href>http://maps.google.com/mapfiles/kml/shapes/airports.png</href></Icon><hotSpot x="0.5" y="0" xunits="fraction" yunits="fraction"/></IconStyle><LabelStyle><scale>0.7</scale></LabelStyle></Style>
<StyleMap id="w_verdA"><Pair><key>normal</key><styleUrl>#w_verdA_n</styleUrl></Pair><Pair><key>highlight</key><styleUrl>#w_verdA_s</styleUrl></Pair></StyleMap>
<Style id="w_verdB_n"><IconStyle><color>ff00ff00</color><scale>1.0</scale><Icon><href>http://maps.google.com/mapfiles/kml/shapes/sailing.png</href></Icon><hotSpot x="0.5" y="0" xunits="fraction" yunits="fraction"/></IconStyle><LabelStyle><scale>0.7</scale></LabelStyle></Style>
<Style id="w_verdB_s"><IconStyle><color>ff00ff00</color><scale>1.4</scale><Icon><href>http://maps.google.com/mapfiles/kml/shapes/sailing.png</href></Icon><hotSpot x="0.5" y="0" xunits="fraction" yunits="fraction"/></IconStyle><LabelStyle><scale>0.7</scale></LabelStyle></Style>
<StyleMap id="w_verdB"><Pair><key>normal</key><styleUrl>#w_verdBAR_n</styleUrl></Pair><Pair><key>highlight</key><styleUrl>#w_verdBAR_s</styleUrl></Pair></StyleMap>
<Style id="w_grocP_n"><IconStyle><color>ff00ffff</color><scale>1.0</scale><Icon><href>http://maps.google.com/mapfiles/kml/shapes/man.png</href></Icon><hotSpot x="0.5" y="0" xunits="fraction" yunits="fraction"/></IconStyle><LabelStyle><scale>0.7</scale></LabelStyle></Style>
<Style id="w_grocP_s"><IconStyle><color>ff00ffff</color><scale>1.4</scale><Icon><href>http://maps.google.com/mapfiles/kml/shapes/man.png</href></Icon><hotSpot x="0.5" y="0" xunits="fraction" yunits="fraction"/></IconStyle><LabelStyle><scale>0.7</scale></LabelStyle></Style>
<StyleMap id="w_grocP"><Pair><key>normal</key><styleUrl>#w_grocP_n</styleUrl></Pair><Pair><key>highlight</key><styleUrl>#w_grocP_s</styleUrl></Pair></StyleMap>
<Style id="w_groc_n"><IconStyle><color>ff00ffff</color><scale>0.7</scale><Icon><href>http://maps.google.com/mapfiles/kml/shapes/cabs.png</href></Icon><hotSpot x="0.5" y="0" xunits="fraction" yunits="fraction"/></IconStyle><LabelStyle><scale>0.7</scale></LabelStyle></Style>
<Style id="w_groc_s"><IconStyle><color>ff00ffff</color><scale>1.0</scale><Icon><href>http://maps.google.com/mapfiles/kml/shapes/cabs.png</href></Icon><hotSpot x="0.5" y="0" xunits="fraction" yunits="fraction"/></IconStyle><LabelStyle><scale>0.7</scale></LabelStyle></Style>
<StyleMap id="w_groc"><Pair><key>normal</key><styleUrl>#w_groc_n</styleUrl></Pair><Pair><key>highlight</key><styleUrl>#w_groc_s</styleUrl></Pair></StyleMap>
<Style id="w_grocC_n"><IconStyle><color>ff00ffff</color><scale>1.0</scale><Icon><href>http://maps.google.com/mapfiles/kml/shapes/truck.png</href></Icon><hotSpot x="0.5" y="0" xunits="fraction" yunits="fraction"/></IconStyle><LabelStyle><scale>0.7</scale></LabelStyle></Style>
<Style id="w_grocC_s"><IconStyle><color>ff00ffff</color><scale>1.4</scale><Icon><href>http://maps.google.com/mapfiles/kml/shapes/truck.png</href></Icon><hotSpot x="0.5" y="0" xunits="fraction" yunits="fraction"/></IconStyle><LabelStyle><scale>0.7</scale></LabelStyle></Style>
<StyleMap id="w_grocC"><Pair><key>normal</key><styleUrl>#w_grocC_n</styleUrl></Pair><Pair><key>highlight</key><styleUrl>#w_grocC_s</styleUrl></Pair></StyleMap>
<Style id="w_grocH_n"><IconStyle><color>ff0000ff</color><scale>1.2</scale><Icon><href>http://maps.google.com/mapfiles/kml/shapes/heliport.png</href></Icon><hotSpot x="0.5" y="0" xunits="fraction" yunits="fraction"/></IconStyle><LabelStyle><scale>0.7</scale></LabelStyle></Style>
<Style id="w_grocH_s"><IconStyle><color>ff0000ff</color><scale>1.4</scale><Icon><href>http://maps.google.com/mapfiles/kml/shapes/heliport.png</href></Icon><hotSpot x="0.5" y="0" xunits="fraction" yunits="fraction"/></IconStyle><LabelStyle><scale>0.7</scale></LabelStyle></Style>
<StyleMap id="w_grocH"><Pair><key>normal</key><styleUrl>#w_grocH_n</styleUrl></Pair><Pair><key>highlight</key><styleUrl>#w_grocH_s</styleUrl></Pair></StyleMap>
<Style id="w_grocA_n"><IconStyle><color>ff0000ff</color><scale>1.2</scale><Icon><href>http://maps.google.com/mapfiles/kml/shapes/airports.png</href></Icon><hotSpot x="0.5" y="0" xunits="fraction" yunits="fraction"/></IconStyle><LabelStyle><scale>0.7</scale></LabelStyle></Style>
<Style id="w_grocA_s"><IconStyle><color>ff0000ff</color><scale>1.4</scale><Icon><href>http://maps.google.com/mapfiles/kml/shapes/airports.png</href></Icon><hotSpot x="0.5" y="0" xunits="fraction" yunits="fraction"/></IconStyle><LabelStyle><scale>0.7</scale></LabelStyle></Style>
<StyleMap id="w_grocA"><Pair><key>normal</key><styleUrl>#w_grocA_n</styleUrl></Pair><Pair><key>highlight</key><styleUrl>#w_grocA_s</styleUrl></Pair></StyleMap>
<Style id="w_grocB_n"><IconStyle><color>ff00ffff</color><scale>1.0</scale><Icon><href>http://maps.google.com/mapfiles/kml/shapes/sailing.png</href></Icon><hotSpot x="0.5" y="0" xunits="fraction" yunits="fraction"/></IconStyle><LabelStyle><scale>0.7</scale></LabelStyle></Style>
<Style id="w_grocB_s"><IconStyle><color>ff00ffff</color><scale>1.4</scale><Icon><href>http://maps.google.com/mapfiles/kml/shapes/sailing.png</href></Icon><hotSpot x="0.5" y="0" xunits="fraction" yunits="fraction"/></IconStyle><LabelStyle><scale>0.7</scale></LabelStyle></Style>
<StyleMap id="w_grocB"><Pair><key>normal</key><styleUrl>#w_grocBAR_n</styleUrl></Pair><Pair><key>highlight</key><styleUrl>#w_grocBAR_s</styleUrl></Pair></StyleMap>
<Style id="w_vermellP_n"><IconStyle><color>ff0000ff</color><scale>1.0</scale><Icon><href>http://maps.google.com/mapfiles/kml/shapes/man.png</href></Icon><hotSpot x="0.5" y="0" xunits="fraction" yunits="fraction"/></IconStyle><LabelStyle><scale>0.7</scale></LabelStyle></Style>
<Style id="w_vermellP_s"><IconStyle><color>ff0000ff</color><scale>1.4</scale><Icon><href>http://maps.google.com/mapfiles/kml/shapes/man.png</href></Icon><hotSpot x="0.5" y="0" xunits="fraction" yunits="fraction"/></IconStyle><LabelStyle><scale>0.7</scale></LabelStyle></Style>
<StyleMap id="w_vermellP"><Pair><key>normal</key><styleUrl>#w_vermellP_n</styleUrl></Pair><Pair><key>highlight</key><styleUrl>#w_vermellP_s</styleUrl></Pair></StyleMap>
<Style id="w_vermell_n"><IconStyle><color>ff0000ff</color><scale>0.7</scale><Icon><href>http://maps.google.com/mapfiles/kml/shapes/cabs.png</href></Icon><hotSpot x="0.5" y="0" xunits="fraction" yunits="fraction"/></IconStyle><LabelStyle><scale>0.7</scale></LabelStyle></Style>
<Style id="w_vermell_s"><IconStyle><color>ff0000ff</color><scale>1.0</scale><Icon><href>http://maps.google.com/mapfiles/kml/shapes/cabs.png</href></Icon><hotSpot x="0.5" y="0" xunits="fraction" yunits="fraction"/></IconStyle><LabelStyle><scale>0.7</scale></LabelStyle></Style>
<StyleMap id="w_vermell"><Pair><key>normal</key><styleUrl>#w_vermell_n</styleUrl></Pair><Pair><key>highlight</key><styleUrl>#w_vermell_s</styleUrl></Pair></StyleMap>
<Style id="w_vermellC_n"><IconStyle><color>ff0000ff</color><scale>1.0</scale><Icon><href>http://maps.google.com/mapfiles/kml/shapes/truck.png</href></Icon><hotSpot x="0.5" y="0" xunits="fraction" yunits="fraction"/></IconStyle><LabelStyle><scale>0.7</scale></LabelStyle></Style>
<Style id="w_vermellC_s"><IconStyle><color>ff0000ff</color><scale>1.4</scale><Icon><href>http://maps.google.com/mapfiles/kml/shapes/truck.png</href></Icon><hotSpot x="0.5" y="0" xunits="fraction" yunits="fraction"/></IconStyle><LabelStyle><scale>0.7</scale></LabelStyle></Style>
<StyleMap id="w_vermellC"><Pair><key>normal</key><styleUrl>#w_vermellC_n</styleUrl></Pair><Pair><key>highlight</key><styleUrl>#w_vermellC_s</styleUrl></Pair></StyleMap>
<Style id="w_vermellH_n"><IconStyle><color>ff0000ff</color><scale>1.2</scale><Icon><href>http://maps.google.com/mapfiles/kml/shapes/heliport.png</href></Icon><hotSpot x="0.5" y="0" xunits="fraction" yunits="fraction"/></IconStyle><LabelStyle><scale>0.7</scale></LabelStyle></Style>
<Style id="w_vermellH_s"><IconStyle><color>ff0000ff</color><scale>1.4</scale><Icon><href>http://maps.google.com/mapfiles/kml/shapes/heliport.png</href></Icon><hotSpot x="0.5" y="0" xunits="fraction" yunits="fraction"/></IconStyle><LabelStyle><scale>0.7</scale></LabelStyle></Style>
<StyleMap id="w_vermellH"><Pair><key>normal</key><styleUrl>#w_vermellH_n</styleUrl></Pair><Pair><key>highlight</key><styleUrl>#w_vermellH_s</styleUrl></Pair></StyleMap>
<Style id="w_vermellA_n"><IconStyle><color>ff0000ff</color><scale>1.2</scale><Icon><href>http://maps.google.com/mapfiles/kml/shapes/airports.png</href></Icon><hotSpot x="0.5" y="0" xunits="fraction" yunits="fraction"/></IconStyle><LabelStyle><scale>0.7</scale></LabelStyle></Style>
<Style id="w_vermellA_s"><IconStyle><color>ff0000ff</color><scale>1.4</scale><Icon><href>http://maps.google.com/mapfiles/kml/shapes/airports.png</href></Icon><hotSpot x="0.5" y="0" xunits="fraction" yunits="fraction"/></IconStyle><LabelStyle><scale>0.7</scale></LabelStyle></Style>
<StyleMap id="w_vermellA"><Pair><key>normal</key><styleUrl>#w_vermellA_n</styleUrl></Pair><Pair><key>highlight</key><styleUrl>#w_vermellA_s</styleUrl></Pair></StyleMap>
<Style id="w_vermellB_n"><IconStyle><color>ff0000ff</color><scale>1.0</scale><Icon><href>http://maps.google.com/mapfiles/kml/shapes/sailing.png</href></Icon><hotSpot x="0.5" y="0" xunits="fraction" yunits="fraction"/></IconStyle><LabelStyle><scale>0.7</scale></LabelStyle></Style>
<Style id="w_vermellB_s"><IconStyle><color>ff0000ff</color><scale>1.4</scale><Icon><href>http://maps.google.com/mapfiles/kml/shapes/sailing.png</href></Icon><hotSpot x="0.5" y="0" xunits="fraction" yunits="fraction"/></IconStyle><LabelStyle><scale>0.7</scale></LabelStyle></Style>
<StyleMap id="w_vermellB"><Pair><key>normal</key><styleUrl>#w_vermellBAR_n</styleUrl></Pair><Pair><key>highlight</key><styleUrl>#w_vermellBAR_s</styleUrl></Pair></StyleMap>
<Style id="w_descarrega"><IconStyle><color>ff00ffff</color><scale>0.5</scale><Icon><href>http://maps.google.com/mapfiles/kml/shapes/road_shield3.png</href></Icon></IconStyle><LabelStyle><scale>0.7</scale></LabelStyle></Style><Style id="actuacio"><IconStyle><color>ff00ffff</color><scale>0.8</scale><Icon><href>http://maps.google.com/mapfiles/kml/shapes/caution.png</href></Icon></IconStyle><LabelStyle><scale>0.7</scale></LabelStyle></Style></Document></kml>