<?xml version="1.0" encoding="UTF-8"?>
<kml xmlns="http://www.opengis.net/kml/2.2" xmlns:gx="http://www.google.com/kml/ext/2.2" xmlns:kml="http://www.opengis.net/kml/2.2" xmlns:atom="http://www.w3.org/2005/Atom">
<Document>
<name>Terminals</name>
<Snippet maxLines="2">Created 05/08/2018 01:31:55</Snippet>
<Folder>
<name>Terminals</name>
<Placemark><name>GGRAF12</name><description>204212 P.REC
posicio de les: 05/08/2018 01:30:57</description><styleUrl>#w_grocP</styleUrl><Point><coordinates>2.97468781471252,42.029721736908,0</coordinates></Point></Placemark>
<Placemark><name>OP05087</name><description>205287 OP.AAV
posicio de les: 05/08/2018 01:31:53</description><styleUrl>#w_verdP</styleUrl><Point><coordinates>1.15816712379456,41.1479508876801,0</coordinates></Point></Placemark>
<Placemark><name>VIEL12</name><description>208012 P.PT VARAN
posicio de les: 05/08/2018 01:31:43</description><styleUrl>#w_grocP</styleUrl><Point><coordinates>0.801969766616821,42.699168920517,0</coordinates></Point></Placemark>
<Placemark><name>VIEL17</name><description>208017 BASE CCA VARAN
posicio de les: 05/08/2018 01:31:57</description><styleUrl>#w_groc</styleUrl><Point><coordinates>0.796637535095215,42.7086961269379,0</coordinates></Point></Placemark>
<Placemark><name>E0REC</name><description>210012 P.Tec REGIÓ
posicio de les: 05/08/2018 01:28:59</description><styleUrl>#w_verdP</styleUrl><Point><coordinates>1.85135722160339,41.7415452003479,0</coordinates></Point></Placemark>
<Placemark><name>BER57</name><description>210357 PORT.COM BER (Centre)
posicio de les: 05/08/2018 01:29:43</description><styleUrl>#w_verdP</styleUrl><Point><coordinates>1.85771942138672,42.1036005020142,0</coordinates></Point></Placemark>
<Placemark><name>CAF56</name><description>210456 PORT.COM CAF (Centre)
posicio de les: 05/08/2018 01:31:32</description><styleUrl>#w_grocP</styleUrl><Point><coordinates>1.52752876281738,41.7308914661407,0</coordinates></Point></Placemark>
<Placemark><name>PRA07</name><description>211407 PORT PRA (Centre)
posicio de les: 05/08/2018 01:31:04</description><styleUrl>#w_verdP</styleUrl><Point><coordinates>2.03578591346741,42.0081031322479,0</coordinates></Point></Placemark>
<Placemark><name>PUIG01</name><description>211501 PORT PUIG (Centre)
posicio de les: 05/08/2018 01:28:52</description><styleUrl>#w_verdP</styleUrl><Point><coordinates>1.92152380943298,42.4205732345581,0</coordinates></Point></Placemark>
<Placemark><name>20134</name><description>220134 BFP AMER (Girona)
posicio de les: 05/08/2018 01:30:07</description><styleUrl>#w_grocC</styleUrl><Point><coordinates>3.15343022346497,42.3575091362,0</coordinates></Point></Placemark>
<Placemark><name>20330</name><description>220330 BRP BANY (Girona)
posicio de les: 05/08/2018 01:31:18</description><styleUrl>#w_grocC</styleUrl><Point><coordinates>2.78493762016296,42.1176767349243,0</coordinates></Point></Placemark>
<Placemark><name>CASS56</name><description>220856 PORT.COM CASS (Girona)
posicio de les: 05/08/2018 01:30:44</description><styleUrl>#w_grocP</styleUrl><Point><coordinates>2.88416862487793,41.8796038627625,0</coordinates></Point></Placemark>
<Placemark><name>21131</name><description>221131 BRP GIRO (Girona)
posicio de les: 05/08/2018 01:31:14</description><styleUrl>#w_verdC</styleUrl><Point><coordinates>2.78595685958862,41.9734919071198,0</coordinates></Point></Placemark>
<Placemark><name>GIRO56</name><description>221156 PORT.COM GIRO (Girona)
posicio de les: 05/08/2018 01:31:46</description><styleUrl>#w_verdP</styleUrl><Point><coordinates>2.80613780021667,41.9606387615204,0</coordinates></Point></Placemark>
<Placemark><name>HOST05</name><description>221205 PORT HOST (Girona)
posicio de les: 05/08/2018 01:31:26</description><styleUrl>#w_verdP</styleUrl><Point><coordinates>2.62455224990845,41.7481756210327,0</coordinates></Point></Placemark>
<Placemark><name>HOST57</name><description>221257 PORT.COM HOST (Girona)
posicio de les: 05/08/2018 01:30:34</description><styleUrl>#w_grocP</styleUrl><Point><coordinates>2.62457370758057,41.7483258247375,0</coordinates></Point></Placemark>
<Placemark><name>JONQ56</name><description>221356 PORT.COM JONQ (Girona)
posicio de les: 05/08/2018 01:31:27</description><styleUrl>#w_verdP</styleUrl><Point><coordinates>2.8764545917511,42.4120008945465,0</coordinates></Point></Placemark>
<Placemark><name>LLAN57</name><description>221457 PORT.COM LLAN (Girona)
posicio de les: 05/08/2018 01:31:46</description><styleUrl>#w_verdP</styleUrl><Point><coordinates>3.15295815467834,42.3568439483643,0</coordinates></Point></Placemark>
<Placemark><name>LLOR56</name><description>221556 PORT.COM LLOR (Girona)
posicio de les: 05/08/2018 01:31:08</description><styleUrl>#w_verdP</styleUrl><Point><coordinates>2.83600687980652,41.6992843151093,0</coordinates></Point></Placemark>
<Placemark><name>21630</name><description>221630 BRP MACA (Girona)
posicio de les: 05/08/2018 01:28:45</description><styleUrl>#w_grocC</styleUrl><Point><coordinates>2.75310516357422,41.779568195343,0</coordinates></Point></Placemark>
<Placemark><name>MAÇA57</name><description>221657 PORT.COM MACA (Girona)
posicio de les: 05/08/2018 01:31:13</description><styleUrl>#w_grocP</styleUrl><Point><coordinates>2.75292277336121,41.7794501781464,0</coordinates></Point></Placemark>
<Placemark><name>OLOT56</name><description>221756 PORT.COM OLOT (Girona)
posicio de les: 05/08/2018 01:31:21</description><styleUrl>#w_verdP</styleUrl><Point><coordinates>2.476966381073,42.1915769577026,0</coordinates></Point></Placemark>
<Placemark><name>PALA56</name><description>221856 PORT.COM PALA (Girona)
posicio de les: 05/08/2018 01:30:23</description><styleUrl>#w_verdP</styleUrl><Point><coordinates>3.15634846687317,41.9257271289825,0</coordinates></Point></Placemark>
<Placemark><name>PALA57</name><description>221857 PORT.COM PALA (Girona)
posicio de les: 05/08/2018 01:28:00</description><styleUrl>#w_verdP</styleUrl><Point><coordinates>3.15631628036499,41.9256091117859,0</coordinates></Point></Placemark>
<Placemark><name>RIPO03</name><description>222103 PORT RIPO (Girona)
posicio de les: 05/08/2018 01:30:19</description><styleUrl>#w_verdP</styleUrl><Point><coordinates>2.16799736022949,42.2147834300995,0</coordinates></Point></Placemark>
<Placemark><name>22130</name><description>222130 BRP RIPO (Girona)
posicio de les: 05/08/2018 01:27:32</description><styleUrl>#w_grocC</styleUrl><Point><coordinates>2.16871619224548,42.2149014472961,0</coordinates></Point></Placemark>
<Placemark><name>TORR56</name><description>222656 PORT.COM TORR (Girona)
posicio de les: 05/08/2018 01:29:58</description><styleUrl>#w_verdP</styleUrl><Point><coordinates>3.16765666007996,42.0478963851929,0</coordinates></Point></Placemark>
<Placemark><name>VALL57</name><description>222857 PORT.COM VALL (Girona)
posicio de les: 05/08/2018 01:31:04</description><styleUrl>#w_grocP</styleUrl><Point><coordinates>3.03156137466431,41.8086540699005,0</coordinates></Point></Placemark>
<Placemark><name>I308</name><description>227308 P.GUAITA GUAITA
posicio de les: 05/08/2018 01:31:03</description><styleUrl>#w_verdP</styleUrl><Point><coordinates>3.15524339675903,41.9255769252777,0</coordinates></Point></Placemark>
<Placemark><name>D0REL</name><description>230010 P.CG REGIÓ
posicio de les: 05/08/2018 01:29:19</description><styleUrl>#w_verdP</styleUrl><Point><coordinates>0.604827404022217,41.6235709190369,0</coordinates></Point></Placemark>
<Placemark><name>30091</name><description>230091  REGIÓ
posicio de les: 05/08/2018 01:31:12</description><styleUrl>#w_groc</styleUrl><Point><coordinates>0.605438947677612,41.6241180896759,0</coordinates></Point></Placemark>
<Placemark><name>30092</name><description>230092  REGIÓ
posicio de les: 05/08/2018 01:29:34</description><styleUrl>#w_verd</styleUrl><Point><coordinates>0.605342388153076,41.6233777999878,0</coordinates></Point></Placemark>
<Placemark><name>ALMA01</name><description>230301 PORT ALMA (Lleida)
posicio de les: 05/08/2018 01:30:56</description><styleUrl>#w_grocP</styleUrl><Point><coordinates>0.433831214904785,41.7318677902222,0</coordinates></Point></Placemark>
<Placemark><name>ALMA02</name><description>230302 PORT ALMA (Lleida)
posicio de les: 05/08/2018 01:30:28</description><styleUrl>#w_grocP</styleUrl><Point><coordinates>0.433841943740845,41.7319536209106,0</coordinates></Point></Placemark>
<Placemark><name>BORG05</name><description>230705 PORT BORG (Lleida)
posicio de les: 05/08/2018 01:30:24</description><styleUrl>#w_verdP</styleUrl><Point><coordinates>0.844852924346924,41.5071094036102,0</coordinates></Point></Placemark>
<Placemark><name>BORG06</name><description>230706 PORT BORG (Lleida)
posicio de les: 05/08/2018 01:29:57</description><styleUrl>#w_verdP</styleUrl><Point><coordinates>0.844734907150269,41.5071201324463,0</coordinates></Point></Placemark>
<Placemark><name>BORG56</name><description>230756 PORT.COM BORG (Lleida)
posicio de les: 05/08/2018 01:29:58</description><styleUrl>#w_verdP</styleUrl><Point><coordinates>0.845485925674438,41.5069591999054,0</coordinates></Point></Placemark>
<Placemark><name>32090</name><description>232090 UPC MOLL (Lleida)
posicio de les: 05/08/2018 01:28:18</description><styleUrl>#w_groc</styleUrl><Point><coordinates>0.898411273956299,41.6363382339478,0</coordinates></Point></Placemark>
<Placemark><name>32230</name><description>232230 BRP OLIA (Lleida)
posicio de les: 05/08/2018 01:29:39</description><styleUrl>#w_grocC</styleUrl><Point><coordinates>1.30772709846497,42.0747828483582,0</coordinates></Point></Placemark>
<Placemark><name>POBL01</name><description>232401 PORT POBL (Lleida)
posicio de les: 05/08/2018 01:31:15</description><styleUrl>#w_verdP</styleUrl><Point><coordinates>0.964457988739014,42.2387194633484,0</coordinates></Point></Placemark>
<Placemark><name>PONT56</name><description>232556 PORT.COM PONT (Lleida)
posicio de les: 05/08/2018 01:30:23</description><styleUrl>#w_grocP</styleUrl><Point><coordinates>0.739678144454956,42.4104452133179,0</coordinates></Point></Placemark>
<Placemark><name>PONS01</name><description>232601 PORT PONS (Lleida)
posicio de les: 05/08/2018 01:28:45</description><styleUrl>#w_verdP</styleUrl><Point><coordinates>1.1955463886261,41.9048273563385,0</coordinates></Point></Placemark>
<Placemark><name>32630</name><description>232630 BRP PONS (Lleida)
posicio de les: 05/08/2018 01:27:54</description><styleUrl>#w_verdC</styleUrl><Point><coordinates>1.1961042881012,41.9053852558136,0</coordinates></Point></Placemark>
<Placemark><name>SEU09</name><description>232909 PORT SEU (Lleida)
posicio de les: 05/08/2018 01:30:15</description><styleUrl>#w_verdP</styleUrl><Point><coordinates>1.47200703620911,42.3604273796082,0</coordinates></Point></Placemark>
<Placemark><name>40081</name><description>240081  REGIÓ
posicio de les: 05/08/2018 01:31:53</description><styleUrl>#w_groc</styleUrl><Point><coordinates>2.11263656616211,41.5023994445801,0</coordinates></Point></Placemark>
<Placemark><name>40091</name><description>240091  REGIÓ
posicio de les: 05/08/2018 01:27:28</description><styleUrl>#w_groc</styleUrl><Point><coordinates>2.11289405822754,41.5040624141693,0</coordinates></Point></Placemark>
<Placemark><name>40290</name><description>240290 UPC BAD (Metro. Nord)
posicio de les: 05/08/2018 01:27:43</description><styleUrl>#w_groc</styleUrl><Point><coordinates>2.03428387641907,41.4722836017609,0</coordinates></Point></Placemark>
<Placemark><name>CER03</name><description>240503 PORT CER (Metro. Nord)
posicio de les: 05/08/2018 01:28:44</description><styleUrl>#w_grocP</styleUrl><Point><coordinates>2.11142420768738,41.5023243427277,0</coordinates></Point></Placemark>
<Placemark><name>GRA05</name><description>240605 PORT GRA (Metro. Nord)
posicio de les: 05/08/2018 01:30:15</description><styleUrl>#w_verdP</styleUrl><Point><coordinates>2.27469563484192,41.5907728672028,0</coordinates></Point></Placemark>
<Placemark><name>GRA07</name><description>240607 PORT GRA (Metro. Nord)
posicio de les: 05/08/2018 01:31:45</description><styleUrl>#w_grocP</styleUrl><Point><coordinates>2.2742235660553,41.5905690193176,0</coordinates></Point></Placemark>
<Placemark><name>MOL03</name><description>241003 PORT MOL (Metro. Nord)
posicio de les: 05/08/2018 01:31:39</description><styleUrl>#w_verdP</styleUrl><Point><coordinates>2.20111727714539,41.5360772609711,0</coordinates></Point></Placemark>
<Placemark><name>MFI01</name><description>241101 PORT MFI (Metro. Nord)
posicio de les: 05/08/2018 01:28:21</description><styleUrl>#w_verdP</styleUrl><Point><coordinates>2.27161645889282,41.7162144184113,0</coordinates></Point></Placemark>
<Placemark><name>SAB01</name><description>241401 PORT SAB (Metro. Nord)
posicio de les: 05/08/2018 01:31:28</description><styleUrl>#w_verdP</styleUrl><Point><coordinates>2.10395693778992,41.5423214435577,0</coordinates></Point></Placemark>
<Placemark><name>SAB06</name><description>241406 PORT SAB (Metro. Nord)
posicio de les: 05/08/2018 01:31:32</description><styleUrl>#w_verdP</styleUrl><Point><coordinates>2.10379600524902,41.5423858165741,0</coordinates></Point></Placemark>
<Placemark><name>SAB56</name><description>241456 PORT.COM SAB (Metro. Nord)
posicio de les: 05/08/2018 01:28:03</description><styleUrl>#w_verdP</styleUrl><Point><coordinates>2.1044397354126,41.5423965454102,0</coordinates></Point></Placemark>
<Placemark><name>SCE08</name><description>241608 PORT SCE (Metro. Nord)
posicio de les: 05/08/2018 01:26:46</description><styleUrl>#w_verdP</styleUrl><Point><coordinates>2.50682473182678,41.6955721378326,0</coordinates></Point></Placemark>
<Placemark><name>SCG07</name><description>241807 PORT SCG (Metro. Nord)
posicio de les: 05/08/2018 01:30:46</description><styleUrl>#w_verdP</styleUrl><Point><coordinates>2.20945358276367,41.4631426334381,0</coordinates></Point></Placemark>
<Placemark><name>TER11</name><description>242011 PORT TER (Metro. Nord)
posicio de les: 05/08/2018 01:27:55</description><styleUrl>#w_verdP</styleUrl><Point><coordinates>2.02644109725952,41.5680384635925,0</coordinates></Point></Placemark>
<Placemark><name>TER56</name><description>242056 PORT.COM TER (Metro. Nord)
posicio de les: 05/08/2018 01:30:20</description><styleUrl>#w_verdP</styleUrl><Point><coordinates>2.02589392662048,41.5681564807892,0</coordinates></Point></Placemark>
<Placemark><name>GE00REMS</name><description>250015 P.Tec REGIÓ
posicio de les: 05/08/2018 01:31:07</description><styleUrl>#w_grocP</styleUrl><Point><coordinates>2.07322955131531,41.3626456260681,0</coordinates></Point></Placemark>
<Placemark><name>50093</name><description>250093  REGIÓ
posicio de les: 05/08/2018 01:28:58</description><styleUrl>#w_groc</styleUrl><Point><coordinates>2.07315444946289,41.3627314567566,0</coordinates></Point></Placemark>
<Placemark><name>COR07</name><description>250407 PORT COR (Metro. Sud)
posicio de les: 05/08/2018 01:31:51</description><styleUrl>#w_verdP</styleUrl><Point><coordinates>2.07062244415283,41.3637185096741,0</coordinates></Point></Placemark>
<Placemark><name>50430</name><description>250430 BRP COR (Metro. Sud)
posicio de les: 05/08/2018 01:31:55</description><styleUrl>#w_verdC</styleUrl><Point><coordinates>2.07053661346436,41.3638579845428,0</coordinates></Point></Placemark>
<Placemark><name>50431</name><description>250431 BRP COR (Metro. Sud)
posicio de les: 05/08/2018 01:28:00</description><styleUrl>#w_grocC</styleUrl><Point><coordinates>2.07253217697144,41.3629674911499,0</coordinates></Point></Placemark>
<Placemark><name>50490</name><description>250490 UPC COR (Metro. Sud)
posicio de les: 05/08/2018 01:27:41</description><styleUrl>#w_groc</styleUrl><Point><coordinates>2.07046151161194,41.3616371154785,0</coordinates></Point></Placemark>
<Placemark><name>GAV02</name><description>250502 PORT GAV (Metro. Sud)
posicio de les: 05/08/2018 01:28:16</description><styleUrl>#w_verdP</styleUrl><Point><coordinates>1.99013471603394,41.2997210025787,0</coordinates></Point></Placemark>
<Placemark><name>GAV56</name><description>250556 PORT.COM GAV (Metro. Sud)
posicio de les: 05/08/2018 01:30:45</description><styleUrl>#w_verdP</styleUrl><Point><coordinates>1.99004888534546,41.3001501560211,0</coordinates></Point></Placemark>
<Placemark><name>HOS06</name><description>250706 PORT HOS (Metro. Sud)
posicio de les: 05/08/2018 01:31:27</description><styleUrl>#w_grocP</styleUrl><Point><coordinates>2.10582375526428,41.3703060150146,0</coordinates></Point></Placemark>
<Placemark><name>50790</name><description>250790 UPC HOS (Metro. Sud)
posicio de les: 05/08/2018 01:29:42</description><styleUrl>#w_groc</styleUrl><Point><coordinates>2.10593104362488,41.3698875904083,0</coordinates></Point></Placemark>
<Placemark><name>MAR57</name><description>251057 PORT.COM MAR (Metro. Sud)
posicio de les: 05/08/2018 01:31:31</description><styleUrl>#w_verdP</styleUrl><Point><coordinates>1.90793037414551,41.4988911151886,0</coordinates></Point></Placemark>
<Placemark><name>SBOI57</name><description>251357 PORT.COM SBOI (Metro. Sud)
posicio de les: 05/08/2018 01:27:51</description><styleUrl>#w_grocP</styleUrl><Point><coordinates>2.03474521636963,41.3228952884674,0</coordinates></Point></Placemark>
<Placemark><name>D2REMS</name><description>258042  SERVEIS REGIÓ
posicio de les: 05/08/2018 01:29:38</description><styleUrl>#w_verd</styleUrl><Point><coordinates>2.03365087509155,41.3222944736481,0</coordinates></Point></Placemark>
<Placemark><name>GE600</name><description>260017 P.Tec REGIÓ
posicio de les: 05/08/2018 01:30:38</description><styleUrl>#w_verdP</styleUrl><Point><coordinates>1.18498921394348,41.1343574523926,0</coordinates></Point></Placemark>
<Placemark><name>FALS06</name><description>260406 PORT FALS (Tarragona)
posicio de les: 05/08/2018 01:30:49</description><styleUrl>#w_verdP</styleUrl><Point><coordinates>0.823599100112915,41.147392988205,0</coordinates></Point></Placemark>
<Placemark><name>260508</name><description>260508 PORT HOSP (Tarragona)
posicio de les: 05/08/2018 01:30:53</description><styleUrl>#w_verdP</styleUrl><Point><coordinates>0.919750928878784,40.9937131404877,0</coordinates></Point></Placemark>
<Placemark><name>REUS06</name><description>260806 PORT REUS (Tarragona)
posicio de les: 05/08/2018 01:31:10</description><styleUrl>#w_grocP</styleUrl><Point><coordinates>1.11854553222656,41.1509013175964,0</coordinates></Point></Placemark>
<Placemark><name>REUS12</name><description>260812 PORT REUS (Tarragona)
posicio de les: 05/08/2018 01:29:24</description><styleUrl>#w_verdP</styleUrl><Point><coordinates>1.11782670021057,41.1510515213013,0</coordinates></Point></Placemark>
<Placemark><name>REUS56</name><description>260856 PORT.COM REUS (Tarragona)
posicio de les: 05/08/2018 01:26:13</description><styleUrl>#w_verdP</styleUrl><Point><coordinates>1.11779451370239,41.1516952514648,0</coordinates></Point></Placemark>
<Placemark><name>E00RETE</name><description>270014 P.Tec REGIÓ
posicio de les: 05/08/2018 01:30:53</description><styleUrl>#w_verdP</styleUrl><Point><coordinates>0.513428449630737,40.819251537323,0</coordinates></Point></Placemark>
<Placemark><name>AMET06</name><description>272006 PORT AMET (Terres de l'Ebre)
posicio de les: 05/08/2018 01:29:33</description><styleUrl>#w_verdP</styleUrl><Point><coordinates>0.797721147537231,40.8905231952667,0</coordinates></Point></Placemark>
<Placemark><name>GAND56</name><description>272656 PORT.COM GAND (Terres de l'Ebre)
posicio de les: 05/08/2018 01:31:17</description><styleUrl>#w_grocP</styleUrl><Point><coordinates>0.439227819442749,41.0586333274841,0</coordinates></Point></Placemark>
<Placemark><name>E_93</name><description>278031  SERVEIS REGIÓ
posicio de les: 05/08/2018 01:30:01</description><styleUrl>#w_verd</styleUrl><Point><coordinates>0.513063669204712,40.8191549777985,0</coordinates></Point></Placemark>
</Folder>
<Folder>
<name>Descarregues</name>
</Folder>
<Style id="w_verdP_n"><IconStyle><color>ff00ff00</color><scale>1.0</scale><Icon><href>http://maps.google.com/mapfiles/kml/shapes/man.png</href></Icon><hotSpot x="0.5" y="0" xunits="fraction" yunits="fraction"/></IconStyle><LabelStyle><scale>0.7</scale></LabelStyle></Style>
<Style id="w_verdP_s"><IconStyle><color>ff00ff00</color><scale>1.4</scale><Icon><href>http://maps.google.com/mapfiles/kml/shapes/man.png</href></Icon><hotSpot x="0.5" y="0" xunits="fraction" yunits="fraction"/></IconStyle><LabelStyle><scale>0.7</scale></LabelStyle></Style>
<StyleMap id="w_verdP"><Pair><key>normal</key><styleUrl>#w_verdP_n</styleUrl></Pair><Pair><key>highlight</key><styleUrl>#w_verdP_s</styleUrl></Pair></StyleMap>
<Style id="w_verd_n"><IconStyle><color>ff00ff00</color><scale>0.7</scale><Icon><href>http://maps.google.com/mapfiles/kml/shapes/cabs.png</href></Icon><hotSpot x="0.5" y="0" xunits="fraction" yunits="fraction"/></IconStyle><LabelStyle><scale>0.7</scale></LabelStyle></Style>
<Style id="w_verd_s"><IconStyle><color>ff00ff00</color><scale>1.0</scale><Icon><href>http://maps.google.com/mapfiles/kml/shapes/cabs.png</href></Icon><hotSpot x="0.5" y="0" xunits="fraction" yunits="fraction"/></IconStyle><LabelStyle><scale>0.7</scale></LabelStyle></Style>
<StyleMap id="w_verd"><Pair><key>normal</key><styleUrl>#w_verd_n</styleUrl></Pair><Pair><key>highlight</key><styleUrl>#w_verd_s</styleUrl></Pair></StyleMap>
<Style id="w_verdC_n"><IconStyle><color>ff00ff00</color><scale>1.0</scale><Icon><href>http://maps.google.com/mapfiles/kml/shapes/truck.png</href></Icon><hotSpot x="0.5" y="0" xunits="fraction" yunits="fraction"/></IconStyle><LabelStyle><scale>0.7</scale></LabelStyle></Style>
<Style id="w_verdC_s"><IconStyle><color>ff00ff00</color><scale>1.4</scale><Icon><href>http://maps.google.com/mapfiles/kml/shapes/truck.png</href></Icon><hotSpot x="0.5" y="0" xunits="fraction" yunits="fraction"/></IconStyle><LabelStyle><scale>0.7</scale></LabelStyle></Style>
<StyleMap id="w_verdC"><Pair><key>normal</key><styleUrl>#w_verdC_n</styleUrl></Pair><Pair><key>highlight</key><styleUrl>#w_verdC_s</styleUrl></Pair></StyleMap>
<Style id="w_verdH_n"><IconStyle><color>ff0000ff</color><scale>1.2</scale><Icon><href>http://maps.google.com/mapfiles/kml/shapes/heliport.png</href></Icon><hotSpot x="0.5" y="0" xunits="fraction" yunits="fraction"/></IconStyle><LabelStyle><scale>0.7</scale></LabelStyle></Style>
<Style id="w_verdH_s"><IconStyle><color>ff0000ff</color><scale>1.4</scale><Icon><href>http://maps.google.com/mapfiles/kml/shapes/heliport.png</href></Icon><hotSpot x="0.5" y="0" xunits="fraction" yunits="fraction"/></IconStyle><LabelStyle><scale>0.7</scale></LabelStyle></Style>
<StyleMap id="w_verdH"><Pair><key>normal</key><styleUrl>#w_verdH_n</styleUrl></Pair><Pair><key>highlight</key><styleUrl>#w_verdH_s</styleUrl></Pair></StyleMap>
<Style id="w_verdA_n"><IconStyle><color>ff0000ff</color><scale>1.2</scale><Icon><href>http://maps.google.com/mapfiles/kml/shapes/airports.png</href></Icon><hotSpot x="0.5" y="0" xunits="fraction" yunits="fraction"/></IconStyle><LabelStyle><scale>0.7</scale></LabelStyle></Style>
<Style id="w_verdA_s"><IconStyle><color>ff0000ff</color><scale>1.4</scale><Icon><href>http://maps.google.com/mapfiles/kml/shapes/airports.png</href></Icon><hotSpot x="0.5" y="0" xunits="fraction" yunits="fraction"/></IconStyle><LabelStyle><scale>0.7</scale></LabelStyle></Style>
<StyleMap id="w_verdA"><Pair><key>normal</key><styleUrl>#w_verdA_n</styleUrl></Pair><Pair><key>highlight</key><styleUrl>#w_verdA_s</styleUrl></Pair></StyleMap>
<Style id="w_verdB_n"><IconStyle><color>ff00ff00</color><scale>1.0</scale><Icon><href>http://maps.google.com/mapfiles/kml/shapes/sailing.png</href></Icon><hotSpot x="0.5" y="0" xunits="fraction" yunits="fraction"/></IconStyle><LabelStyle><scale>0.7</scale></LabelStyle></Style>
<Style id="w_verdB_s"><IconStyle><color>ff00ff00</color><scale>1.4</scale><Icon><href>http://maps.google.com/mapfiles/kml/shapes/sailing.png</href></Icon><hotSpot x="0.5" y="0" xunits="fraction" yunits="fraction"/></IconStyle><LabelStyle><scale>0.7</scale></LabelStyle></Style>
<StyleMap id="w_verdB"><Pair><key>normal</key><styleUrl>#w_verdBAR_n</styleUrl></Pair><Pair><key>highlight</key><styleUrl>#w_verdBAR_s</styleUrl></Pair></StyleMap>
<Style id="w_grocP_n"><IconStyle><color>ff00ffff</color><scale>1.0</scale><Icon><href>http://maps.google.com/mapfiles/kml/shapes/man.png</href></Icon><hotSpot x="0.5" y="0" xunits="fraction" yunits="fraction"/></IconStyle><LabelStyle><scale>0.7</scale></LabelStyle></Style>
<Style id="w_grocP_s"><IconStyle><color>ff00ffff</color><scale>1.4</scale><Icon><href>http://maps.google.com/mapfiles/kml/shapes/man.png</href></Icon><hotSpot x="0.5" y="0" xunits="fraction" yunits="fraction"/></IconStyle><LabelStyle><scale>0.7</scale></LabelStyle></Style>
<StyleMap id="w_grocP"><Pair><key>normal</key><styleUrl>#w_grocP_n</styleUrl></Pair><Pair><key>highlight</key><styleUrl>#w_grocP_s</styleUrl></Pair></StyleMap>
<Style id="w_groc_n"><IconStyle><color>ff00ffff</color><scale>0.7</scale><Icon><href>http://maps.google.com/mapfiles/kml/shapes/cabs.png</href></Icon><hotSpot x="0.5" y="0" xunits="fraction" yunits="fraction"/></IconStyle><LabelStyle><scale>0.7</scale></LabelStyle></Style>
<Style id="w_groc_s"><IconStyle><color>ff00ffff</color><scale>1.0</scale><Icon><href>http://maps.google.com/mapfiles/kml/shapes/cabs.png</href></Icon><hotSpot x="0.5" y="0" xunits="fraction" yunits="fraction"/></IconStyle><LabelStyle><scale>0.7</scale></LabelStyle></Style>
<StyleMap id="w_groc"><Pair><key>normal</key><styleUrl>#w_groc_n</styleUrl></Pair><Pair><key>highlight</key><styleUrl>#w_groc_s</styleUrl></Pair></StyleMap>
<Style id="w_grocC_n"><IconStyle><color>ff00ffff</color><scale>1.0</scale><Icon><href>http://maps.google.com/mapfiles/kml/shapes/truck.png</href></Icon><hotSpot x="0.5" y="0" xunits="fraction" yunits="fraction"/></IconStyle><LabelStyle><scale>0.7</scale></LabelStyle></Style>
<Style id="w_grocC_s"><IconStyle><color>ff00ffff</color><scale>1.4</scale><Icon><href>http://maps.google.com/mapfiles/kml/shapes/truck.png</href></Icon><hotSpot x="0.5" y="0" xunits="fraction" yunits="fraction"/></IconStyle><LabelStyle><scale>0.7</scale></LabelStyle></Style>
<StyleMap id="w_grocC"><Pair><key>normal</key><styleUrl>#w_grocC_n</styleUrl></Pair><Pair><key>highlight</key><styleUrl>#w_grocC_s</styleUrl></Pair></StyleMap>
<Style id="w_grocH_n"><IconStyle><color>ff0000ff</color><scale>1.2</scale><Icon><href>http://maps.google.com/mapfiles/kml/shapes/heliport.png</href></Icon><hotSpot x="0.5" y="0" xunits="fraction" yunits="fraction"/></IconStyle><LabelStyle><scale>0.7</scale></LabelStyle></Style>
<Style id="w_grocH_s"><IconStyle><color>ff0000ff</color><scale>1.4</scale><Icon><href>http://maps.google.com/mapfiles/kml/shapes/heliport.png</href></Icon><hotSpot x="0.5" y="0" xunits="fraction" yunits="fraction"/></IconStyle><LabelStyle><scale>0.7</scale></LabelStyle></Style>
<StyleMap id="w_grocH"><Pair><key>normal</key><styleUrl>#w_grocH_n</styleUrl></Pair><Pair><key>highlight</key><styleUrl>#w_grocH_s</styleUrl></Pair></StyleMap>
<Style id="w_grocA_n"><IconStyle><color>ff0000ff</color><scale>1.2</scale><Icon><href>http://maps.google.com/mapfiles/kml/shapes/airports.png</href></Icon><hotSpot x="0.5" y="0" xunits="fraction" yunits="fraction"/></IconStyle><LabelStyle><scale>0.7</scale></LabelStyle></Style>
<Style id="w_grocA_s"><IconStyle><color>ff0000ff</color><scale>1.4</scale><Icon><href>http://maps.google.com/mapfiles/kml/shapes/airports.png</href></Icon><hotSpot x="0.5" y="0" xunits="fraction" yunits="fraction"/></IconStyle><LabelStyle><scale>0.7</scale></LabelStyle></Style>
<StyleMap id="w_grocA"><Pair><key>normal</key><styleUrl>#w_grocA_n</styleUrl></Pair><Pair><key>highlight</key><styleUrl>#w_grocA_s</styleUrl></Pair></StyleMap>
<Style id="w_grocB_n"><IconStyle><color>ff00ffff</color><scale>1.0</scale><Icon><href>http://maps.google.com/mapfiles/kml/shapes/sailing.png</href></Icon><hotSpot x="0.5" y="0" xunits="fraction" yunits="fraction"/></IconStyle><LabelStyle><scale>0.7</scale></LabelStyle></Style>
<Style id="w_grocB_s"><IconStyle><color>ff00ffff</color><scale>1.4</scale><Icon><href>http://maps.google.com/mapfiles/kml/shapes/sailing.png</href></Icon><hotSpot x="0.5" y="0" xunits="fraction" yunits="fraction"/></IconStyle><LabelStyle><scale>0.7</scale></LabelStyle></Style>
<StyleMap id="w_grocB"><Pair><key>normal</key><styleUrl>#w_grocBAR_n</styleUrl></Pair><Pair><key>highlight</key><styleUrl>#w_grocBAR_s</styleUrl></Pair></StyleMap>
<Style id="w_vermellP_n"><IconStyle><color>ff0000ff</color><scale>1.0</scale><Icon><href>http://maps.google.com/mapfiles/kml/shapes/man.png</href></Icon><hotSpot x="0.5" y="0" xunits="fraction" yunits="fraction"/></IconStyle><LabelStyle><scale>0.7</scale></LabelStyle></Style>
<Style id="w_vermellP_s"><IconStyle><color>ff0000ff</color><scale>1.4</scale><Icon><href>http://maps.google.com/mapfiles/kml/shapes/man.png</href></Icon><hotSpot x="0.5" y="0" xunits="fraction" yunits="fraction"/></IconStyle><LabelStyle><scale>0.7</scale></LabelStyle></Style>
<StyleMap id="w_vermellP"><Pair><key>normal</key><styleUrl>#w_vermellP_n</styleUrl></Pair><Pair><key>highlight</key><styleUrl>#w_vermellP_s</styleUrl></Pair></StyleMap>
<Style id="w_vermell_n"><IconStyle><color>ff0000ff</color><scale>0.7</scale><Icon><href>http://maps.google.com/mapfiles/kml/shapes/cabs.png</href></Icon><hotSpot x="0.5" y="0" xunits="fraction" yunits="fraction"/></IconStyle><LabelStyle><scale>0.7</scale></LabelStyle></Style>
<Style id="w_vermell_s"><IconStyle><color>ff0000ff</color><scale>1.0</scale><Icon><href>http://maps.google.com/mapfiles/kml/shapes/cabs.png</href></Icon><hotSpot x="0.5" y="0" xunits="fraction" yunits="fraction"/></IconStyle><LabelStyle><scale>0.7</scale></LabelStyle></Style>
<StyleMap id="w_vermell"><Pair><key>normal</key><styleUrl>#w_vermell_n</styleUrl></Pair><Pair><key>highlight</key><styleUrl>#w_vermell_s</styleUrl></Pair></StyleMap>
<Style id="w_vermellC_n"><IconStyle><color>ff0000ff</color><scale>1.0</scale><Icon><href>http://maps.google.com/mapfiles/kml/shapes/truck.png</href></Icon><hotSpot x="0.5" y="0" xunits="fraction" yunits="fraction"/></IconStyle><LabelStyle><scale>0.7</scale></LabelStyle></Style>
<Style id="w_vermellC_s"><IconStyle><color>ff0000ff</color><scale>1.4</scale><Icon><href>http://maps.google.com/mapfiles/kml/shapes/truck.png</href></Icon><hotSpot x="0.5" y="0" xunits="fraction" yunits="fraction"/></IconStyle><LabelStyle><scale>0.7</scale></LabelStyle></Style>
<StyleMap id="w_vermellC"><Pair><key>normal</key><styleUrl>#w_vermellC_n</styleUrl></Pair><Pair><key>highlight</key><styleUrl>#w_vermellC_s</styleUrl></Pair></StyleMap>
<Style id="w_vermellH_n"><IconStyle><color>ff0000ff</color><scale>1.2</scale><Icon><href>http://maps.google.com/mapfiles/kml/shapes/heliport.png</href></Icon><hotSpot x="0.5" y="0" xunits="fraction" yunits="fraction"/></IconStyle><LabelStyle><scale>0.7</scale></LabelStyle></Style>
<Style id="w_vermellH_s"><IconStyle><color>ff0000ff</color><scale>1.4</scale><Icon><href>http://maps.google.com/mapfiles/kml/shapes/heliport.png</href></Icon><hotSpot x="0.5" y="0" xunits="fraction" yunits="fraction"/></IconStyle><LabelStyle><scale>0.7</scale></LabelStyle></Style>
<StyleMap id="w_vermellH"><Pair><key>normal</key><styleUrl>#w_vermellH_n</styleUrl></Pair><Pair><key>highlight</key><styleUrl>#w_vermellH_s</styleUrl></Pair></StyleMap>
<Style id="w_vermellA_n"><IconStyle><color>ff0000ff</color><scale>1.2</scale><Icon><href>http://maps.google.com/mapfiles/kml/shapes/airports.png</href></Icon><hotSpot x="0.5" y="0" xunits="fraction" yunits="fraction"/></IconStyle><LabelStyle><scale>0.7</scale></LabelStyle></Style>
<Style id="w_vermellA_s"><IconStyle><color>ff0000ff</color><scale>1.4</scale><Icon><href>http://maps.google.com/mapfiles/kml/shapes/airports.png</href></Icon><hotSpot x="0.5" y="0" xunits="fraction" yunits="fraction"/></IconStyle><LabelStyle><scale>0.7</scale></LabelStyle></Style>
<StyleMap id="w_vermellA"><Pair><key>normal</key><styleUrl>#w_vermellA_n</styleUrl></Pair><Pair><key>highlight</key><styleUrl>#w_vermellA_s</styleUrl></Pair></StyleMap>
<Style id="w_vermellB_n"><IconStyle><color>ff0000ff</color><scale>1.0</scale><Icon><href>http://maps.google.com/mapfiles/kml/shapes/sailing.png</href></Icon><hotSpot x="0.5" y="0" xunits="fraction" yunits="fraction"/></IconStyle><LabelStyle><scale>0.7</scale></LabelStyle></Style>
<Style id="w_vermellB_s"><IconStyle><color>ff0000ff</color><scale>1.4</scale><Icon><href>http://maps.google.com/mapfiles/kml/shapes/sailing.png</href></Icon><hotSpot x="0.5" y="0" xunits="fraction" yunits="fraction"/></IconStyle><LabelStyle><scale>0.7</scale></LabelStyle></Style>
<StyleMap id="w_vermellB"><Pair><key>normal</key><styleUrl>#w_vermellBAR_n</styleUrl></Pair><Pair><key>highlight</key><styleUrl>#w_vermellBAR_s</styleUrl></Pair></StyleMap>
<Style id="w_descarrega"><IconStyle><color>ff00ffff</color><scale>0.5</scale><Icon><href>http://maps.google.com/mapfiles/kml/shapes/road_shield3.png</href></Icon></IconStyle><LabelStyle><scale>0.7</scale></LabelStyle></Style><Style id="actuacio"><IconStyle><color>ff00ffff</color><scale>0.8</scale><Icon><href>http://maps.google.com/mapfiles/kml/shapes/caution.png</href></Icon></IconStyle><LabelStyle><scale>0.7</scale></LabelStyle></Style></Document></kml>