<?xml version="1.0" encoding="UTF-8"?>
<kml xmlns="http://www.opengis.net/kml/2.2" xmlns:gx="http://www.google.com/kml/ext/2.2" xmlns:kml="http://www.opengis.net/kml/2.2" xmlns:atom="http://www.w3.org/2005/Atom">
<Document>
<name>Terminals</name>
<Snippet maxLines="2">Created 04/08/2018 02:47:34</Snippet>
<Folder>
<name>Terminals</name>
<Placemark><name>OP05081</name><description>205281 OP.AAV
posicio de les: 04/08/2018 02:46:33</description><styleUrl>#w_verdP</styleUrl><Point><coordinates>2.10673570632935,41.5178060531616,0</coordinates></Point></Placemark>
<Placemark><name>VIEL08</name><description>208008 P.CCA VARAN
posicio de les: 04/08/2018 02:44:34</description><styleUrl>#w_grocP</styleUrl><Point><coordinates>0.796562433242798,42.7080953121185,0</coordinates></Point></Placemark>
<Placemark><name>VIEL12</name><description>208012 P.PT VARAN
posicio de les: 04/08/2018 02:46:51</description><styleUrl>#w_grocP</styleUrl><Point><coordinates>0.801208019256592,42.6996409893036,0</coordinates></Point></Placemark>
<Placemark><name>VIEL17</name><description>208017 BASE CCA VARAN
posicio de les: 04/08/2018 02:46:44</description><styleUrl>#w_verd</styleUrl><Point><coordinates>0.796358585357666,42.707827091217,0</coordinates></Point></Placemark>
<Placemark><name>08030</name><description>208030  VARAN
posicio de les: 04/08/2018 02:45:33</description><styleUrl>#w_groc</styleUrl><Point><coordinates>0.796583890914917,42.7081382274628,0</coordinates></Point></Placemark>
<Placemark><name>GE100</name><description>210017 P.Tec REGIÓ
posicio de les: 04/08/2018 02:46:27</description><styleUrl>#w_verdP</styleUrl><Point><coordinates>1.85174345970154,41.7411482334137,0</coordinates></Point></Placemark>
<Placemark><name>10071</name><description>210071  REGIÓ
posicio de les: 04/08/2018 02:45:37</description><styleUrl>#w_verd</styleUrl><Point><coordinates>1.85397505760193,41.7425858974457,0</coordinates></Point></Placemark>
<Placemark><name>10235</name><description>210235 BFP BELL (Centre)
posicio de les: 04/08/2018 02:43:53</description><styleUrl>#w_verdC</styleUrl><Point><coordinates>1.8707549571991,41.7023527622223,0</coordinates></Point></Placemark>
<Placemark><name>BER57</name><description>210357 PORT.COM BER (Centre)
posicio de les: 04/08/2018 02:45:14</description><styleUrl>#w_verdP</styleUrl><Point><coordinates>1.85760140419006,42.1037828922272,0</coordinates></Point></Placemark>
<Placemark><name>MAN03</name><description>211003 PORT MAN (Centre)
posicio de les: 04/08/2018 02:46:55</description><styleUrl>#w_verdP</styleUrl><Point><coordinates>1.87034726142883,41.7011189460754,0</coordinates></Point></Placemark>
<Placemark><name>211130</name><description>211130 BRP MOI (Centre)
posicio de les: 04/08/2018 02:44:29</description><styleUrl>#w_verdC</styleUrl><Point><coordinates>2.08675861358643,41.8076241016388,0</coordinates></Point></Placemark>
<Placemark><name>PRA07</name><description>211407 PORT PRA (Centre)
posicio de les: 04/08/2018 02:47:28</description><styleUrl>#w_grocP</styleUrl><Point><coordinates>2.03610777854919,42.0080173015594,0</coordinates></Point></Placemark>
<Placemark><name>PUIG08</name><description>211508 PORT PUIG (Centre)
posicio de les: 04/08/2018 02:46:53</description><styleUrl>#w_verdP</styleUrl><Point><coordinates>1.90292000770569,42.4301648139954,0</coordinates></Point></Placemark>
<Placemark><name>SOLS05</name><description>211905 PORT SOLS (Centre)
posicio de les: 04/08/2018 02:47:21</description><styleUrl>#w_verdP</styleUrl><Point><coordinates>1.51132822036743,41.9899713993073,0</coordinates></Point></Placemark>
<Placemark><name>VIC04</name><description>212104 PORT VIC (Centre)
posicio de les: 04/08/2018 02:45:14</description><styleUrl>#w_verdP</styleUrl><Point><coordinates>2.26942777633667,41.9418525695801,0</coordinates></Point></Placemark>
<Placemark><name>20091</name><description>220091  REGIÓ
posicio de les: 04/08/2018 02:44:56</description><styleUrl>#w_groc</styleUrl><Point><coordinates>2.80611634254456,41.9609498977661,0</coordinates></Point></Placemark>
<Placemark><name>20134</name><description>220134 BFP AMER (Girona)
posicio de les: 04/08/2018 02:42:56</description><styleUrl>#w_grocC</styleUrl><Point><coordinates>3.15354824066162,42.3576486110687,0</coordinates></Point></Placemark>
<Placemark><name>BANY56</name><description>220356 PORT.COM BANY (Girona)
posicio de les: 04/08/2018 02:45:59</description><styleUrl>#w_verdP</styleUrl><Point><coordinates>2.78562426567078,42.1174943447113,0</coordinates></Point></Placemark>
<Placemark><name>220656</name><description>220656 PORT.COM CALO (Girona)
posicio de les: 04/08/2018 02:43:58</description><styleUrl>#w_verdP</styleUrl><Point><coordinates>3.07432651519775,41.8525779247284,0</coordinates></Point></Placemark>
<Placemark><name>CASS04</name><description>220804 PORT CASS (Girona)
posicio de les: 04/08/2018 02:46:35</description><styleUrl>#w_verdP</styleUrl><Point><coordinates>2.88342833518982,41.8798506259918,0</coordinates></Point></Placemark>
<Placemark><name>20830</name><description>220830 BRP CASS (Girona)
posicio de les: 04/08/2018 02:45:34</description><styleUrl>#w_grocC</styleUrl><Point><coordinates>2.88381457328796,41.8794751167297,0</coordinates></Point></Placemark>
<Placemark><name>CASS56</name><description>220856 PORT.COM CASS (Girona)
posicio de les: 04/08/2018 02:45:50</description><styleUrl>#w_grocP</styleUrl><Point><coordinates>2.88407206535339,41.8796145915985,0</coordinates></Point></Placemark>
<Placemark><name>GIRO06</name><description>221106 PORT GIRO (Girona)
posicio de les: 04/08/2018 02:45:01</description><styleUrl>#w_verdP</styleUrl><Point><coordinates>2.80598759651184,41.9602203369141,0</coordinates></Point></Placemark>
<Placemark><name>JONQ56</name><description>221356 PORT.COM JONQ (Girona)
posicio de les: 04/08/2018 02:46:06</description><styleUrl>#w_verdP</styleUrl><Point><coordinates>2.87649750709534,42.411904335022,0</coordinates></Point></Placemark>
<Placemark><name>LLOR56</name><description>221556 PORT.COM LLOR (Girona)
posicio de les: 04/08/2018 02:45:40</description><styleUrl>#w_verdP</styleUrl><Point><coordinates>2.83621072769165,41.6995739936829,0</coordinates></Point></Placemark>
<Placemark><name>MAÇA57</name><description>221657 PORT.COM MACA (Girona)
posicio de les: 04/08/2018 02:47:26</description><styleUrl>#w_grocP</styleUrl><Point><coordinates>2.75290131568909,41.7792892456055,0</coordinates></Point></Placemark>
<Placemark><name>OLOT01</name><description>221701 PORT OLOT (Girona)
posicio de les: 04/08/2018 02:47:37</description><styleUrl>#w_verdP</styleUrl><Point><coordinates>3.16099405288696,42.2763884067535,0</coordinates></Point></Placemark>
<Placemark><name>OLOT56</name><description>221756 PORT.COM OLOT (Girona)
posicio de les: 04/08/2018 02:47:17</description><styleUrl>#w_verdP</styleUrl><Point><coordinates>2.47511029243469,42.1896350383759,0</coordinates></Point></Placemark>
<Placemark><name>OLOT57</name><description>221757 PORT.COM OLOT (Girona)
posicio de les: 04/08/2018 02:47:02</description><styleUrl>#w_verdP</styleUrl><Point><coordinates>2.47411251068115,42.1907615661621,0</coordinates></Point></Placemark>
<Placemark><name>PALA56</name><description>221856 PORT.COM PALA (Girona)
posicio de les: 04/08/2018 02:46:39</description><styleUrl>#w_verdP</styleUrl><Point><coordinates>3.15638065338135,41.9259309768677,0</coordinates></Point></Placemark>
<Placemark><name>RIPO56</name><description>222156 PORT.COM RIPO (Girona)
posicio de les: 04/08/2018 02:47:08</description><styleUrl>#w_verdP</styleUrl><Point><coordinates>2.16854453086853,42.2149765491486,0</coordinates></Point></Placemark>
<Placemark><name>ROSE57</name><description>222257 PORT.COM ROSE (Girona)
posicio de les: 04/08/2018 02:46:53</description><styleUrl>#w_verdP</styleUrl><Point><coordinates>3.16097259521484,42.2760021686554,0</coordinates></Point></Placemark>
<Placemark><name>22430</name><description>222430 BRP SHIL (Girona)
posicio de les: 04/08/2018 02:44:36</description><styleUrl>#w_grocC</styleUrl><Point><coordinates>3.03195834159851,41.8085896968842,0</coordinates></Point></Placemark>
<Placemark><name>22890</name><description>222890 UPC VALL (Girona)
posicio de les: 04/08/2018 02:46:11</description><styleUrl>#w_verd</styleUrl><Point><coordinates>3.03415775299072,41.8095982074738,0</coordinates></Point></Placemark>
<Placemark><name>D0REL</name><description>230010 P.CG REGIÓ
posicio de les: 04/08/2018 02:44:59</description><styleUrl>#w_verdP</styleUrl><Point><coordinates>0.60498833656311,41.6232705116272,0</coordinates></Point></Placemark>
<Placemark><name>30082</name><description>230082  REGIÓ
posicio de les: 04/08/2018 02:45:44</description><styleUrl>#w_groc</styleUrl><Point><coordinates>0.805896520614624,41.7997491359711,0</coordinates></Point></Placemark>
<Placemark><name>BALA57</name><description>230657 PORT.COM BALA (Lleida)
posicio de les: 04/08/2018 02:46:32</description><styleUrl>#w_verdP</styleUrl><Point><coordinates>0.805714130401611,41.7991375923157,0</coordinates></Point></Placemark>
<Placemark><name>BORG01</name><description>230701 PORT BORG (Lleida)
posicio de les: 04/08/2018 02:45:05</description><styleUrl>#w_verdP</styleUrl><Point><coordinates>0.844477415084839,41.5072703361511,0</coordinates></Point></Placemark>
<Placemark><name>BORG06</name><description>230706 PORT BORG (Lleida)
posicio de les: 04/08/2018 02:46:17</description><styleUrl>#w_verdP</styleUrl><Point><coordinates>0.844670534133911,41.5076243877411,0</coordinates></Point></Placemark>
<Placemark><name>BORG56</name><description>230756 PORT.COM BORG (Lleida)
posicio de les: 04/08/2018 02:47:01</description><styleUrl>#w_verdP</styleUrl><Point><coordinates>0.844477415084839,41.507066488266,0</coordinates></Point></Placemark>
<Placemark><name>CERV08</name><description>230908 PORT CERV (Lleida)
posicio de les: 04/08/2018 02:44:42</description><styleUrl>#w_verdP</styleUrl><Point><coordinates>1.26513361930847,41.6712605953217,0</coordinates></Point></Placemark>
<Placemark><name>ISON56</name><description>231556 PORT.COM ISON (Lleida)
posicio de les: 04/08/2018 02:45:59</description><styleUrl>#w_verdP</styleUrl><Point><coordinates>1.04890465736389,42.119060754776,0</coordinates></Point></Placemark>
<Placemark><name>MOLL07</name><description>232007 PORT MOLL (Lleida)
posicio de les: 04/08/2018 02:46:19</description><styleUrl>#w_verdP</styleUrl><Point><coordinates>0.898153781890869,41.6366493701935,0</coordinates></Point></Placemark>
<Placemark><name>32031</name><description>232031 BRP MOLL (Lleida)
posicio de les: 04/08/2018 02:44:52</description><styleUrl>#w_grocC</styleUrl><Point><coordinates>0.898325443267822,41.6366386413574,0</coordinates></Point></Placemark>
<Placemark><name>REMN11</name><description>240011 P.Tec REGIÓ
posicio de les: 04/08/2018 02:46:13</description><styleUrl>#w_verdP</styleUrl><Point><coordinates>2.11124181747437,41.5018844604492,0</coordinates></Point></Placemark>
<Placemark><name>GE0REMN</name><description>240013 P.Tec REGIÓ
posicio de les: 04/08/2018 02:44:02</description><styleUrl>#w_verdP</styleUrl><Point><coordinates>2.28481292724609,41.6875040531158,0</coordinates></Point></Placemark>
<Placemark><name>40081</name><description>240081  REGIÓ
posicio de les: 04/08/2018 02:46:53</description><styleUrl>#w_groc</styleUrl><Point><coordinates>2.11236834526062,41.5022492408752,0</coordinates></Point></Placemark>
<Placemark><name>40091</name><description>240091  REGIÓ
posicio de les: 04/08/2018 02:42:59</description><styleUrl>#w_groc</styleUrl><Point><coordinates>2.11191773414612,41.5023243427277,0</coordinates></Point></Placemark>
<Placemark><name>40093</name><description>240093  REGIÓ
posicio de les: 04/08/2018 02:46:54</description><styleUrl>#w_groc</styleUrl><Point><coordinates>2.28531718254089,41.6870427131653,0</coordinates></Point></Placemark>
<Placemark><name>40148</name><description>240148 BUL ARE (Metro. Nord)
posicio de les: 04/08/2018 02:43:35</description><styleUrl>#w_grocC</styleUrl><Point><coordinates>2.58805274963379,41.5998601913452,0</coordinates></Point></Placemark>
<Placemark><name>ARE56</name><description>240156 PORT.COM ARE (Metro. Nord)
posicio de les: 04/08/2018 02:46:38</description><styleUrl>#w_verdP</styleUrl><Point><coordinates>2.58806347846985,41.5999031066895,0</coordinates></Point></Placemark>
<Placemark><name>40290</name><description>240290 UPC BAD (Metro. Nord)
posicio de les: 04/08/2018 02:47:26</description><styleUrl>#w_groc</styleUrl><Point><coordinates>2.20923900604248,41.4632821083069,0</coordinates></Point></Placemark>
<Placemark><name>CER06</name><description>240506 PORT CER (Metro. Nord)
posicio de les: 04/08/2018 02:46:33</description><styleUrl>#w_grocP</styleUrl><Point><coordinates>2.11115598678589,41.50310754776,0</coordinates></Point></Placemark>
<Placemark><name>40630</name><description>240630 BRP GRA (Metro. Nord)
posicio de les: 04/08/2018 02:43:35</description><styleUrl>#w_grocC</styleUrl><Point><coordinates>2.28512406349182,41.687525510788,0</coordinates></Point></Placemark>
<Placemark><name>40640</name><description>240640 BUP GRA (Metro. Nord)
posicio de les: 04/08/2018 02:43:14</description><styleUrl>#w_grocC</styleUrl><Point><coordinates>2.28471636772156,41.6876113414764,0</coordinates></Point></Placemark>
<Placemark><name>40660</name><description>240660 AEA/AES/ABA GRA (Metro. Nord)
posicio de les: 04/08/2018 02:43:25</description><styleUrl>#w_grocC</styleUrl><Point><coordinates>2.28484511375427,41.6869676113129,0</coordinates></Point></Placemark>
<Placemark><name>40690</name><description>240690 UPC GRA (Metro. Nord)
posicio de les: 04/08/2018 02:43:31</description><styleUrl>#w_groc</styleUrl><Point><coordinates>2.42261409759521,41.5318071842194,0</coordinates></Point></Placemark>
<Placemark><name>MAT07</name><description>240907 PORT MAT (Metro. Nord)
posicio de les: 04/08/2018 02:45:49</description><styleUrl>#w_grocP</styleUrl><Point><coordinates>2.58763432502747,41.5998494625092,0</coordinates></Point></Placemark>
<Placemark><name>240950</name><description>240950 FSV/FRQ/FER/FRM/FRA/FSA MAT (Metro. Nord)
posicio de les: 04/08/2018 02:45:46</description><styleUrl>#w_grocC</styleUrl><Point><coordinates>2.58764505386353,41.599817276001,0</coordinates></Point></Placemark>
<Placemark><name>MOL03</name><description>241003 PORT MOL (Metro. Nord)
posicio de les: 04/08/2018 02:46:11</description><styleUrl>#w_verdP</styleUrl><Point><coordinates>2.20133185386658,41.5371716022491,0</coordinates></Point></Placemark>
<Placemark><name>241048</name><description>241048 BUL MOL (Metro. Nord)
posicio de les: 04/08/2018 02:47:26</description><styleUrl>#w_grocC</styleUrl><Point><coordinates>2.19454050064087,41.5363562107086,0</coordinates></Point></Placemark>
<Placemark><name>41848</name><description>241848 BUL SCG (Metro. Nord)
posicio de les: 04/08/2018 02:44:49</description><styleUrl>#w_grocC</styleUrl><Point><coordinates>2.20914244651794,41.4632713794708,0</coordinates></Point></Placemark>
<Placemark><name>241858</name><description>241858 BSAL SCG (Metro. Nord)
posicio de les: 04/08/2018 02:46:08</description><styleUrl>#w_verdB</styleUrl><Point><coordinates>2.2093677520752,41.4632284641266,0</coordinates></Point></Placemark>
<Placemark><name>242040</name><description>242040 BUP TER (Metro. Nord)
posicio de les: 04/08/2018 02:43:54</description><styleUrl>#w_verdC</styleUrl><Point><coordinates>2.02560424804688,41.5683817863464,0</coordinates></Point></Placemark>
<Placemark><name>D3REMN</name><description>248043  SERVEIS REGIÓ
posicio de les: 04/08/2018 02:42:20</description><styleUrl>#w_verd</styleUrl><Point><coordinates>2.11214303970337,41.5021419525146,0</coordinates></Point></Placemark>
<Placemark><name>REMS14</name><description>250014 P.Tec REGIÓ
posicio de les: 04/08/2018 02:47:31</description><styleUrl>#w_verdP</styleUrl><Point><coordinates>2.03419804573059,41.3227343559265,0</coordinates></Point></Placemark>
<Placemark><name>50093</name><description>250093  REGIÓ
posicio de les: 04/08/2018 02:45:36</description><styleUrl>#w_groc</styleUrl><Point><coordinates>2.03453063964844,41.3229382038116,0</coordinates></Point></Placemark>
<Placemark><name>COR03</name><description>250403 PORT COR (Metro. Sud)
posicio de les: 04/08/2018 02:45:08</description><styleUrl>#w_verdP</styleUrl><Point><coordinates>2.07051515579224,41.3607895374298,0</coordinates></Point></Placemark>
<Placemark><name>COR07</name><description>250407 PORT COR (Metro. Sud)
posicio de les: 04/08/2018 02:46:06</description><styleUrl>#w_verdP</styleUrl><Point><coordinates>2.07106232643127,41.3604784011841,0</coordinates></Point></Placemark>
<Placemark><name>GAV09</name><description>250509 PORT GAV (Metro. Sud)
posicio de les: 04/08/2018 02:43:56</description><styleUrl>#w_verdP</styleUrl><Point><coordinates>1.99068188667297,41.299946308136,0</coordinates></Point></Placemark>
<Placemark><name>GAV57</name><description>250557 PORT.COM GAV (Metro. Sud)
posicio de les: 04/08/2018 02:45:36</description><styleUrl>#w_verdP</styleUrl><Point><coordinates>1.98960900306702,41.3000321388245,0</coordinates></Point></Placemark>
<Placemark><name>IGU20E</name><description>250820 PORT IGU (Metro. Sud)
posicio de les: 04/08/2018 02:47:31</description><styleUrl>#w_grocP</styleUrl><Point><coordinates>1.61022663116455,41.5893995761871,0</coordinates></Point></Placemark>
<Placemark><name>MAR01</name><description>251001 PORT MAR (Metro. Sud)
posicio de les: 04/08/2018 02:47:37</description><styleUrl>#w_verdP</styleUrl><Point><coordinates>1.90788745880127,41.4986872673035,0</coordinates></Point></Placemark>
<Placemark><name>MAR10</name><description>251010 PORT MAR (Metro. Sud)
posicio de les: 04/08/2018 02:46:15</description><styleUrl>#w_verdP</styleUrl><Point><coordinates>1.90666437149048,41.4988160133362,0</coordinates></Point></Placemark>
<Placemark><name>251040</name><description>251040 BUP MAR (Metro. Sud)
posicio de les: 04/08/2018 02:45:11</description><styleUrl>#w_verdC</styleUrl><Point><coordinates>1.82467460632324,41.5012943744659,0</coordinates></Point></Placemark>
<Placemark><name>MAR56</name><description>251056 PORT.COM MAR (Metro. Sud)
posicio de les: 04/08/2018 02:47:35</description><styleUrl>#w_verdP</styleUrl><Point><coordinates>1.82419180870056,41.5014445781708,0</coordinates></Point></Placemark>
<Placemark><name>PLL03</name><description>251203 PORT PLL (Metro. Sud)
posicio de les: 04/08/2018 02:47:03</description><styleUrl>#w_grocP</styleUrl><Point><coordinates>2.08159804344177,41.3169836997986,0</coordinates></Point></Placemark>
<Placemark><name>SBOI02</name><description>251302 PORT SBOI (Metro. Sud)
posicio de les: 04/08/2018 02:47:32</description><styleUrl>#w_grocP</styleUrl><Point><coordinates>2.03418731689453,41.3227343559265,0</coordinates></Point></Placemark>
<Placemark><name>SFE03</name><description>251503 PORT SFE (Metro. Sud)
posicio de les: 04/08/2018 02:46:04</description><styleUrl>#w_verdP</styleUrl><Point><coordinates>2.04223394393921,41.3888347148895,0</coordinates></Point></Placemark>
<Placemark><name>51530</name><description>251530 BRP SFE (Metro. Sud)
posicio de les: 04/08/2018 02:47:37</description><styleUrl>#w_verdC</styleUrl><Point><coordinates>2.0470404624939,41.3871932029724,0</coordinates></Point></Placemark>
<Placemark><name>VIF03</name><description>251803 PORT VIF (Metro. Sud)
posicio de les: 04/08/2018 02:45:52</description><styleUrl>#w_verdP</styleUrl><Point><coordinates>1.70430779457092,41.3548135757446,0</coordinates></Point></Placemark>
<Placemark><name>51860</name><description>251860 AEA/AES/ABA VIF (Metro. Sud)
posicio de les: 04/08/2018 02:46:35</description><styleUrl>#w_grocC</styleUrl><Point><coordinates>1.70467257499695,41.3547492027283,0</coordinates></Point></Placemark>
<Placemark><name>260508</name><description>260508 PORT HOSP (Tarragona)
posicio de les: 04/08/2018 02:47:14</description><styleUrl>#w_grocP</styleUrl><Point><coordinates>0.919868946075439,40.9936165809631,0</coordinates></Point></Placemark>
<Placemark><name>TARR01</name><description>261201 PORT TARR (Tarragona)
posicio de les: 04/08/2018 02:47:30</description><styleUrl>#w_grocP</styleUrl><Point><coordinates>1.18502140045166,41.1345720291138,0</coordinates></Point></Placemark>
<Placemark><name>SCRET</name><description>268001 P.COMODIN SERVEIS REGIÓ
posicio de les: 04/08/2018 02:45:16</description><styleUrl>#w_grocP</styleUrl><Point><coordinates>1.18522524833679,41.1348831653595,0</coordinates></Point></Placemark>
<Placemark><name>E00RETE</name><description>270014 P.Tec REGIÓ
posicio de les: 04/08/2018 02:44:52</description><styleUrl>#w_verdP</styleUrl><Point><coordinates>0.513471364974976,40.819251537323,0</coordinates></Point></Placemark>
<Placemark><name>ASCO56</name><description>272256 PORT.COM ASCO (Terres de l'Ebre)
posicio de les: 04/08/2018 02:46:37</description><styleUrl>#w_grocP</styleUrl><Point><coordinates>0.568842887878418,41.1877763271332,0</coordinates></Point></Placemark>
<Placemark><name>MORA06</name><description>272806 PORT MORA (Terres de l'Ebre)
posicio de les: 04/08/2018 02:43:49</description><styleUrl>#w_grocP</styleUrl><Point><coordinates>0.629814863204956,41.0863351821899,0</coordinates></Point></Placemark>
<Placemark><name>ULLD08</name><description>273108 PORT ULLD (Terres de l'Ebre)
posicio de les: 04/08/2018 02:47:28</description><styleUrl>#w_grocP</styleUrl><Point><coordinates>0.358150005340576,40.6086766719818,0</coordinates></Point></Placemark>
<Placemark><name>73130</name><description>273130 BRP ULLD (Terres de l'Ebre)
posicio de les: 04/08/2018 02:41:54</description><styleUrl>#w_verdC</styleUrl><Point><coordinates>0.358192920684814,40.6084299087524,0</coordinates></Point></Placemark>
<Placemark><name>73190</name><description>273190 UPC ULLD (Terres de l'Ebre)
posicio de les: 04/08/2018 02:41:56</description><styleUrl>#w_verd</styleUrl><Point><coordinates>0.358289480209351,40.6084299087524,0</coordinates></Point></Placemark>
</Folder>
<Folder>
<name>Descarregues</name>
</Folder>
<Style id="w_verdP_n"><IconStyle><color>ff00ff00</color><scale>1.0</scale><Icon><href>http://maps.google.com/mapfiles/kml/shapes/man.png</href></Icon><hotSpot x="0.5" y="0" xunits="fraction" yunits="fraction"/></IconStyle><LabelStyle><scale>0.7</scale></LabelStyle></Style>
<Style id="w_verdP_s"><IconStyle><color>ff00ff00</color><scale>1.4</scale><Icon><href>http://maps.google.com/mapfiles/kml/shapes/man.png</href></Icon><hotSpot x="0.5" y="0" xunits="fraction" yunits="fraction"/></IconStyle><LabelStyle><scale>0.7</scale></LabelStyle></Style>
<StyleMap id="w_verdP"><Pair><key>normal</key><styleUrl>#w_verdP_n</styleUrl></Pair><Pair><key>highlight</key><styleUrl>#w_verdP_s</styleUrl></Pair></StyleMap>
<Style id="w_verd_n"><IconStyle><color>ff00ff00</color><scale>0.7</scale><Icon><href>http://maps.google.com/mapfiles/kml/shapes/cabs.png</href></Icon><hotSpot x="0.5" y="0" xunits="fraction" yunits="fraction"/></IconStyle><LabelStyle><scale>0.7</scale></LabelStyle></Style>
<Style id="w_verd_s"><IconStyle><color>ff00ff00</color><scale>1.0</scale><Icon><href>http://maps.google.com/mapfiles/kml/shapes/cabs.png</href></Icon><hotSpot x="0.5" y="0" xunits="fraction" yunits="fraction"/></IconStyle><LabelStyle><scale>0.7</scale></LabelStyle></Style>
<StyleMap id="w_verd"><Pair><key>normal</key><styleUrl>#w_verd_n</styleUrl></Pair><Pair><key>highlight</key><styleUrl>#w_verd_s</styleUrl></Pair></StyleMap>
<Style id="w_verdC_n"><IconStyle><color>ff00ff00</color><scale>1.0</scale><Icon><href>http://maps.google.com/mapfiles/kml/shapes/truck.png</href></Icon><hotSpot x="0.5" y="0" xunits="fraction" yunits="fraction"/></IconStyle><LabelStyle><scale>0.7</scale></LabelStyle></Style>
<Style id="w_verdC_s"><IconStyle><color>ff00ff00</color><scale>1.4</scale><Icon><href>http://maps.google.com/mapfiles/kml/shapes/truck.png</href></Icon><hotSpot x="0.5" y="0" xunits="fraction" yunits="fraction"/></IconStyle><LabelStyle><scale>0.7</scale></LabelStyle></Style>
<StyleMap id="w_verdC"><Pair><key>normal</key><styleUrl>#w_verdC_n</styleUrl></Pair><Pair><key>highlight</key><styleUrl>#w_verdC_s</styleUrl></Pair></StyleMap>
<Style id="w_verdH_n"><IconStyle><color>ff0000ff</color><scale>1.2</scale><Icon><href>http://maps.google.com/mapfiles/kml/shapes/heliport.png</href></Icon><hotSpot x="0.5" y="0" xunits="fraction" yunits="fraction"/></IconStyle><LabelStyle><scale>0.7</scale></LabelStyle></Style>
<Style id="w_verdH_s"><IconStyle><color>ff0000ff</color><scale>1.4</scale><Icon><href>http://maps.google.com/mapfiles/kml/shapes/heliport.png</href></Icon><hotSpot x="0.5" y="0" xunits="fraction" yunits="fraction"/></IconStyle><LabelStyle><scale>0.7</scale></LabelStyle></Style>
<StyleMap id="w_verdH"><Pair><key>normal</key><styleUrl>#w_verdH_n</styleUrl></Pair><Pair><key>highlight</key><styleUrl>#w_verdH_s</styleUrl></Pair></StyleMap>
<Style id="w_verdA_n"><IconStyle><color>ff0000ff</color><scale>1.2</scale><Icon><href>http://maps.google.com/mapfiles/kml/shapes/airports.png</href></Icon><hotSpot x="0.5" y="0" xunits="fraction" yunits="fraction"/></IconStyle><LabelStyle><scale>0.7</scale></LabelStyle></Style>
<Style id="w_verdA_s"><IconStyle><color>ff0000ff</color><scale>1.4</scale><Icon><href>http://maps.google.com/mapfiles/kml/shapes/airports.png</href></Icon><hotSpot x="0.5" y="0" xunits="fraction" yunits="fraction"/></IconStyle><LabelStyle><scale>0.7</scale></LabelStyle></Style>
<StyleMap id="w_verdA"><Pair><key>normal</key><styleUrl>#w_verdA_n</styleUrl></Pair><Pair><key>highlight</key><styleUrl>#w_verdA_s</styleUrl></Pair></StyleMap>
<Style id="w_verdB_n"><IconStyle><color>ff00ff00</color><scale>1.0</scale><Icon><href>http://maps.google.com/mapfiles/kml/shapes/sailing.png</href></Icon><hotSpot x="0.5" y="0" xunits="fraction" yunits="fraction"/></IconStyle><LabelStyle><scale>0.7</scale></LabelStyle></Style>
<Style id="w_verdB_s"><IconStyle><color>ff00ff00</color><scale>1.4</scale><Icon><href>http://maps.google.com/mapfiles/kml/shapes/sailing.png</href></Icon><hotSpot x="0.5" y="0" xunits="fraction" yunits="fraction"/></IconStyle><LabelStyle><scale>0.7</scale></LabelStyle></Style>
<StyleMap id="w_verdB"><Pair><key>normal</key><styleUrl>#w_verdBAR_n</styleUrl></Pair><Pair><key>highlight</key><styleUrl>#w_verdBAR_s</styleUrl></Pair></StyleMap>
<Style id="w_grocP_n"><IconStyle><color>ff00ffff</color><scale>1.0</scale><Icon><href>http://maps.google.com/mapfiles/kml/shapes/man.png</href></Icon><hotSpot x="0.5" y="0" xunits="fraction" yunits="fraction"/></IconStyle><LabelStyle><scale>0.7</scale></LabelStyle></Style>
<Style id="w_grocP_s"><IconStyle><color>ff00ffff</color><scale>1.4</scale><Icon><href>http://maps.google.com/mapfiles/kml/shapes/man.png</href></Icon><hotSpot x="0.5" y="0" xunits="fraction" yunits="fraction"/></IconStyle><LabelStyle><scale>0.7</scale></LabelStyle></Style>
<StyleMap id="w_grocP"><Pair><key>normal</key><styleUrl>#w_grocP_n</styleUrl></Pair><Pair><key>highlight</key><styleUrl>#w_grocP_s</styleUrl></Pair></StyleMap>
<Style id="w_groc_n"><IconStyle><color>ff00ffff</color><scale>0.7</scale><Icon><href>http://maps.google.com/mapfiles/kml/shapes/cabs.png</href></Icon><hotSpot x="0.5" y="0" xunits="fraction" yunits="fraction"/></IconStyle><LabelStyle><scale>0.7</scale></LabelStyle></Style>
<Style id="w_groc_s"><IconStyle><color>ff00ffff</color><scale>1.0</scale><Icon><href>http://maps.google.com/mapfiles/kml/shapes/cabs.png</href></Icon><hotSpot x="0.5" y="0" xunits="fraction" yunits="fraction"/></IconStyle><LabelStyle><scale>0.7</scale></LabelStyle></Style>
<StyleMap id="w_groc"><Pair><key>normal</key><styleUrl>#w_groc_n</styleUrl></Pair><Pair><key>highlight</key><styleUrl>#w_groc_s</styleUrl></Pair></StyleMap>
<Style id="w_grocC_n"><IconStyle><color>ff00ffff</color><scale>1.0</scale><Icon><href>http://maps.google.com/mapfiles/kml/shapes/truck.png</href></Icon><hotSpot x="0.5" y="0" xunits="fraction" yunits="fraction"/></IconStyle><LabelStyle><scale>0.7</scale></LabelStyle></Style>
<Style id="w_grocC_s"><IconStyle><color>ff00ffff</color><scale>1.4</scale><Icon><href>http://maps.google.com/mapfiles/kml/shapes/truck.png</href></Icon><hotSpot x="0.5" y="0" xunits="fraction" yunits="fraction"/></IconStyle><LabelStyle><scale>0.7</scale></LabelStyle></Style>
<StyleMap id="w_grocC"><Pair><key>normal</key><styleUrl>#w_grocC_n</styleUrl></Pair><Pair><key>highlight</key><styleUrl>#w_grocC_s</styleUrl></Pair></StyleMap>
<Style id="w_grocH_n"><IconStyle><color>ff0000ff</color><scale>1.2</scale><Icon><href>http://maps.google.com/mapfiles/kml/shapes/heliport.png</href></Icon><hotSpot x="0.5" y="0" xunits="fraction" yunits="fraction"/></IconStyle><LabelStyle><scale>0.7</scale></LabelStyle></Style>
<Style id="w_grocH_s"><IconStyle><color>ff0000ff</color><scale>1.4</scale><Icon><href>http://maps.google.com/mapfiles/kml/shapes/heliport.png</href></Icon><hotSpot x="0.5" y="0" xunits="fraction" yunits="fraction"/></IconStyle><LabelStyle><scale>0.7</scale></LabelStyle></Style>
<StyleMap id="w_grocH"><Pair><key>normal</key><styleUrl>#w_grocH_n</styleUrl></Pair><Pair><key>highlight</key><styleUrl>#w_grocH_s</styleUrl></Pair></StyleMap>
<Style id="w_grocA_n"><IconStyle><color>ff0000ff</color><scale>1.2</scale><Icon><href>http://maps.google.com/mapfiles/kml/shapes/airports.png</href></Icon><hotSpot x="0.5" y="0" xunits="fraction" yunits="fraction"/></IconStyle><LabelStyle><scale>0.7</scale></LabelStyle></Style>
<Style id="w_grocA_s"><IconStyle><color>ff0000ff</color><scale>1.4</scale><Icon><href>http://maps.google.com/mapfiles/kml/shapes/airports.png</href></Icon><hotSpot x="0.5" y="0" xunits="fraction" yunits="fraction"/></IconStyle><LabelStyle><scale>0.7</scale></LabelStyle></Style>
<StyleMap id="w_grocA"><Pair><key>normal</key><styleUrl>#w_grocA_n</styleUrl></Pair><Pair><key>highlight</key><styleUrl>#w_grocA_s</styleUrl></Pair></StyleMap>
<Style id="w_grocB_n"><IconStyle><color>ff00ffff</color><scale>1.0</scale><Icon><href>http://maps.google.com/mapfiles/kml/shapes/sailing.png</href></Icon><hotSpot x="0.5" y="0" xunits="fraction" yunits="fraction"/></IconStyle><LabelStyle><scale>0.7</scale></LabelStyle></Style>
<Style id="w_grocB_s"><IconStyle><color>ff00ffff</color><scale>1.4</scale><Icon><href>http://maps.google.com/mapfiles/kml/shapes/sailing.png</href></Icon><hotSpot x="0.5" y="0" xunits="fraction" yunits="fraction"/></IconStyle><LabelStyle><scale>0.7</scale></LabelStyle></Style>
<StyleMap id="w_grocB"><Pair><key>normal</key><styleUrl>#w_grocBAR_n</styleUrl></Pair><Pair><key>highlight</key><styleUrl>#w_grocBAR_s</styleUrl></Pair></StyleMap>
<Style id="w_vermellP_n"><IconStyle><color>ff0000ff</color><scale>1.0</scale><Icon><href>http://maps.google.com/mapfiles/kml/shapes/man.png</href></Icon><hotSpot x="0.5" y="0" xunits="fraction" yunits="fraction"/></IconStyle><LabelStyle><scale>0.7</scale></LabelStyle></Style>
<Style id="w_vermellP_s"><IconStyle><color>ff0000ff</color><scale>1.4</scale><Icon><href>http://maps.google.com/mapfiles/kml/shapes/man.png</href></Icon><hotSpot x="0.5" y="0" xunits="fraction" yunits="fraction"/></IconStyle><LabelStyle><scale>0.7</scale></LabelStyle></Style>
<StyleMap id="w_vermellP"><Pair><key>normal</key><styleUrl>#w_vermellP_n</styleUrl></Pair><Pair><key>highlight</key><styleUrl>#w_vermellP_s</styleUrl></Pair></StyleMap>
<Style id="w_vermell_n"><IconStyle><color>ff0000ff</color><scale>0.7</scale><Icon><href>http://maps.google.com/mapfiles/kml/shapes/cabs.png</href></Icon><hotSpot x="0.5" y="0" xunits="fraction" yunits="fraction"/></IconStyle><LabelStyle><scale>0.7</scale></LabelStyle></Style>
<Style id="w_vermell_s"><IconStyle><color>ff0000ff</color><scale>1.0</scale><Icon><href>http://maps.google.com/mapfiles/kml/shapes/cabs.png</href></Icon><hotSpot x="0.5" y="0" xunits="fraction" yunits="fraction"/></IconStyle><LabelStyle><scale>0.7</scale></LabelStyle></Style>
<StyleMap id="w_vermell"><Pair><key>normal</key><styleUrl>#w_vermell_n</styleUrl></Pair><Pair><key>highlight</key><styleUrl>#w_vermell_s</styleUrl></Pair></StyleMap>
<Style id="w_vermellC_n"><IconStyle><color>ff0000ff</color><scale>1.0</scale><Icon><href>http://maps.google.com/mapfiles/kml/shapes/truck.png</href></Icon><hotSpot x="0.5" y="0" xunits="fraction" yunits="fraction"/></IconStyle><LabelStyle><scale>0.7</scale></LabelStyle></Style>
<Style id="w_vermellC_s"><IconStyle><color>ff0000ff</color><scale>1.4</scale><Icon><href>http://maps.google.com/mapfiles/kml/shapes/truck.png</href></Icon><hotSpot x="0.5" y="0" xunits="fraction" yunits="fraction"/></IconStyle><LabelStyle><scale>0.7</scale></LabelStyle></Style>
<StyleMap id="w_vermellC"><Pair><key>normal</key><styleUrl>#w_vermellC_n</styleUrl></Pair><Pair><key>highlight</key><styleUrl>#w_vermellC_s</styleUrl></Pair></StyleMap>
<Style id="w_vermellH_n"><IconStyle><color>ff0000ff</color><scale>1.2</scale><Icon><href>http://maps.google.com/mapfiles/kml/shapes/heliport.png</href></Icon><hotSpot x="0.5" y="0" xunits="fraction" yunits="fraction"/></IconStyle><LabelStyle><scale>0.7</scale></LabelStyle></Style>
<Style id="w_vermellH_s"><IconStyle><color>ff0000ff</color><scale>1.4</scale><Icon><href>http://maps.google.com/mapfiles/kml/shapes/heliport.png</href></Icon><hotSpot x="0.5" y="0" xunits="fraction" yunits="fraction"/></IconStyle><LabelStyle><scale>0.7</scale></LabelStyle></Style>
<StyleMap id="w_vermellH"><Pair><key>normal</key><styleUrl>#w_vermellH_n</styleUrl></Pair><Pair><key>highlight</key><styleUrl>#w_vermellH_s</styleUrl></Pair></StyleMap>
<Style id="w_vermellA_n"><IconStyle><color>ff0000ff</color><scale>1.2</scale><Icon><href>http://maps.google.com/mapfiles/kml/shapes/airports.png</href></Icon><hotSpot x="0.5" y="0" xunits="fraction" yunits="fraction"/></IconStyle><LabelStyle><scale>0.7</scale></LabelStyle></Style>
<Style id="w_vermellA_s"><IconStyle><color>ff0000ff</color><scale>1.4</scale><Icon><href>http://maps.google.com/mapfiles/kml/shapes/airports.png</href></Icon><hotSpot x="0.5" y="0" xunits="fraction" yunits="fraction"/></IconStyle><LabelStyle><scale>0.7</scale></LabelStyle></Style>
<StyleMap id="w_vermellA"><Pair><key>normal</key><styleUrl>#w_vermellA_n</styleUrl></Pair><Pair><key>highlight</key><styleUrl>#w_vermellA_s</styleUrl></Pair></StyleMap>
<Style id="w_vermellB_n"><IconStyle><color>ff0000ff</color><scale>1.0</scale><Icon><href>http://maps.google.com/mapfiles/kml/shapes/sailing.png</href></Icon><hotSpot x="0.5" y="0" xunits="fraction" yunits="fraction"/></IconStyle><LabelStyle><scale>0.7</scale></LabelStyle></Style>
<Style id="w_vermellB_s"><IconStyle><color>ff0000ff</color><scale>1.4</scale><Icon><href>http://maps.google.com/mapfiles/kml/shapes/sailing.png</href></Icon><hotSpot x="0.5" y="0" xunits="fraction" yunits="fraction"/></IconStyle><LabelStyle><scale>0.7</scale></LabelStyle></Style>
<StyleMap id="w_vermellB"><Pair><key>normal</key><styleUrl>#w_vermellBAR_n</styleUrl></Pair><Pair><key>highlight</key><styleUrl>#w_vermellBAR_s</styleUrl></Pair></StyleMap>
<Style id="w_descarrega"><IconStyle><color>ff00ffff</color><scale>0.5</scale><Icon><href>http://maps.google.com/mapfiles/kml/shapes/road_shield3.png</href></Icon></IconStyle><LabelStyle><scale>0.7</scale></LabelStyle></Style><Style id="actuacio"><IconStyle><color>ff00ffff</color><scale>0.8</scale><Icon><href>http://maps.google.com/mapfiles/kml/shapes/caution.png</href></Icon></IconStyle><LabelStyle><scale>0.7</scale></LabelStyle></Style></Document></kml>