<?xml version="1.0" encoding="UTF-8"?>
<kml xmlns="http://www.opengis.net/kml/2.2" xmlns:gx="http://www.google.com/kml/ext/2.2" xmlns:kml="http://www.opengis.net/kml/2.2" xmlns:atom="http://www.w3.org/2005/Atom">
<Document>
<name>Terminals</name>
<Snippet maxLines="2">Created 08/08/2018 03:24:46</Snippet>
<Folder>
<name>Terminals</name>
<Placemark><name>03373</name><description>203373 GRAE
posicio de les: 08/08/2018 03:24:43</description><styleUrl>#w_verd</styleUrl><Point><coordinates>1.23929858207703,42.5187420845032,0</coordinates></Point></Placemark>
<Placemark><name>GGRAF03</name><description>204203 P.UT
posicio de les: 08/08/2018 03:23:33</description><styleUrl>#w_verdP</styleUrl><Point><coordinates>2.80641674995422,41.9604349136353,0</coordinates></Point></Placemark>
<Placemark><name>GGRAF04</name><description>204204 P.UT
posicio de les: 08/08/2018 03:22:55</description><styleUrl>#w_verdP</styleUrl><Point><coordinates>2.80663132667542,41.9603598117828,0</coordinates></Point></Placemark>
<Placemark><name>GGRAF07</name><description>204207 P.UT
posicio de les: 08/08/2018 03:23:26</description><styleUrl>#w_grocP</styleUrl><Point><coordinates>2.80635237693787,41.9604992866516,0</coordinates></Point></Placemark>
<Placemark><name>LGRAF02</name><description>204302 P.UT
posicio de les: 08/08/2018 03:24:09</description><styleUrl>#w_verdP</styleUrl><Point><coordinates>1.14299654960632,42.0455145835876,0</coordinates></Point></Placemark>
<Placemark><name>LGRAF04</name><description>204304 P.UT
posicio de les: 08/08/2018 03:23:51</description><styleUrl>#w_verdP</styleUrl><Point><coordinates>1.14324331283569,42.0453429222107,0</coordinates></Point></Placemark>
<Placemark><name>LGRAF08</name><description>204308 P.UT
posicio de les: 08/08/2018 03:24:01</description><styleUrl>#w_verdP</styleUrl><Point><coordinates>1.14286780357361,42.0456540584564,0</coordinates></Point></Placemark>
<Placemark><name>04390</name><description>204390 
posicio de les: 08/08/2018 03:24:10</description><styleUrl>#w_groc</styleUrl><Point><coordinates>1.14383339881897,42.0451498031616,0</coordinates></Point></Placemark>
<Placemark><name>05178</name><description>205178 BRAVO
posicio de les: 08/08/2018 03:21:55</description><styleUrl>#w_verd</styleUrl><Point><coordinates>2.09497690200806,41.8185997009277,0</coordinates></Point></Placemark>
<Placemark><name>VIEL12</name><description>208012 P.PT VARAN
posicio de les: 08/08/2018 03:23:59</description><styleUrl>#w_verdP</styleUrl><Point><coordinates>0.801283121109009,42.6995122432709,0</coordinates></Point></Placemark>
<Placemark><name>VIEL17</name><description>208017 BASE CCA VARAN
posicio de les: 08/08/2018 03:23:11</description><styleUrl>#w_groc</styleUrl><Point><coordinates>0.796648263931274,42.7080953121185,0</coordinates></Point></Placemark>
<Placemark><name>GE0REC</name><description>210013 P.Tec REGIÓ
posicio de les: 08/08/2018 03:23:39</description><styleUrl>#w_verdP</styleUrl><Point><coordinates>1.85140013694763,41.7410731315613,0</coordinates></Point></Placemark>
<Placemark><name>10071</name><description>210071  REGIÓ
posicio de les: 08/08/2018 03:24:16</description><styleUrl>#w_groc</styleUrl><Point><coordinates>1.85202240943909,41.7410409450531,0</coordinates></Point></Placemark>
<Placemark><name>10072</name><description>210072  REGIÓ
posicio de les: 08/08/2018 03:24:46</description><styleUrl>#w_groc</styleUrl><Point><coordinates>1.85160398483276,41.7413949966431,0</coordinates></Point></Placemark>
<Placemark><name>10082</name><description>210082  REGIÓ
posicio de les: 08/08/2018 03:20:13</description><styleUrl>#w_groc</styleUrl><Point><coordinates>1.51264786720276,41.9897031784058,0</coordinates></Point></Placemark>
<Placemark><name>CAR05</name><description>210505 PORT CAR (Centre)
posicio de les: 08/08/2018 03:24:24</description><styleUrl>#w_verdP</styleUrl><Point><coordinates>1.70488715171814,41.8999886512756,0</coordinates></Point></Placemark>
<Placemark><name>CAB56</name><description>210656 PORT.COM CAB (Centre)
posicio de les: 08/08/2018 03:24:04</description><styleUrl>#w_verdP</styleUrl><Point><coordinates>1.68510317802429,41.6656494140625,0</coordinates></Point></Placemark>
<Placemark><name>MAN03</name><description>211003 PORT MAN (Centre)
posicio de les: 08/08/2018 03:24:43</description><styleUrl>#w_verdP</styleUrl><Point><coordinates>1.85253739356995,41.7407190799713,0</coordinates></Point></Placemark>
<Placemark><name>MOI6</name><description>211106 PORT MOI (Centre)
posicio de les: 08/08/2018 03:24:07</description><styleUrl>#w_verdP</styleUrl><Point><coordinates>2.08642601966858,41.8116474151611,0</coordinates></Point></Placemark>
<Placemark><name>PRA03</name><description>211403 PORT PRA (Centre)
posicio de les: 08/08/2018 03:20:19</description><styleUrl>#w_verdP</styleUrl><Point><coordinates>2.03568935394287,42.0086073875427,0</coordinates></Point></Placemark>
<Placemark><name>PRA07</name><description>211407 PORT PRA (Centre)
posicio de les: 08/08/2018 03:22:09</description><styleUrl>#w_verdP</styleUrl><Point><coordinates>2.03606486320496,42.0080709457397,0</coordinates></Point></Placemark>
<Placemark><name>TOR02</name><description>212002 PORT TOR (Centre)
posicio de les: 08/08/2018 03:24:26</description><styleUrl>#w_verdP</styleUrl><Point><coordinates>2.26733565330505,42.0482933521271,0</coordinates></Point></Placemark>
<Placemark><name>217224</name><description>217224 P.GUAITA GUAITA
posicio de les: 08/08/2018 03:23:04</description><styleUrl>#w_grocP</styleUrl><Point><coordinates>2.03593611717224,42.00812458992,0</coordinates></Point></Placemark>
<Placemark><name>E0REG</name><description>220012 P.Tec REGIÓ
posicio de les: 08/08/2018 03:24:06</description><styleUrl>#w_verdP</styleUrl><Point><coordinates>3.16059708595276,42.2766888141632,0</coordinates></Point></Placemark>
<Placemark><name>AMER57</name><description>220157 PORT.COM AMER (Girona)
posicio de les: 08/08/2018 03:24:02</description><styleUrl>#w_verdP</styleUrl><Point><coordinates>2.59948968887329,41.9977068901062,0</coordinates></Point></Placemark>
<Placemark><name>CASS56</name><description>220856 PORT.COM CASS (Girona)
posicio de les: 08/08/2018 03:23:55</description><styleUrl>#w_verdP</styleUrl><Point><coordinates>2.88577795028687,41.8729841709137,0</coordinates></Point></Placemark>
<Placemark><name>20880</name><description>220880 UPCL/USL CASS (Girona)
posicio de les: 08/08/2018 03:20:22</description><styleUrl>#w_groc</styleUrl><Point><coordinates>2.88429737091064,41.8797755241394,0</coordinates></Point></Placemark>
<Placemark><name>20930</name><description>220930 BRP ESCA (Girona)
posicio de les: 08/08/2018 03:22:59</description><styleUrl>#w_grocC</styleUrl><Point><coordinates>3.12714457511902,42.1153593063354,0</coordinates></Point></Placemark>
<Placemark><name>GIRO56</name><description>221156 PORT.COM GIRO (Girona)
posicio de les: 08/08/2018 03:22:08</description><styleUrl>#w_verdP</styleUrl><Point><coordinates>2.80597686767578,41.9601988792419,0</coordinates></Point></Placemark>
<Placemark><name>21190</name><description>221190 UPC GIRO (Girona)
posicio de les: 08/08/2018 03:24:30</description><styleUrl>#w_groc</styleUrl><Point><coordinates>2.80613780021667,41.9601237773895,0</coordinates></Point></Placemark>
<Placemark><name>JONQ56</name><description>221356 PORT.COM JONQ (Girona)
posicio de les: 08/08/2018 03:23:05</description><styleUrl>#w_grocP</styleUrl><Point><coordinates>2.87632584571838,42.4118292331696,0</coordinates></Point></Placemark>
<Placemark><name>LLAN57</name><description>221457 PORT.COM LLAN (Girona)
posicio de les: 08/08/2018 03:24:40</description><styleUrl>#w_grocP</styleUrl><Point><coordinates>3.15323710441589,42.357873916626,0</coordinates></Point></Placemark>
<Placemark><name>LLOR56</name><description>221556 PORT.COM LLOR (Girona)
posicio de les: 08/08/2018 03:24:02</description><styleUrl>#w_verdP</styleUrl><Point><coordinates>2.83354997634888,41.7205381393433,0</coordinates></Point></Placemark>
<Placemark><name>21630</name><description>221630 BRP MACA (Girona)
posicio de les: 08/08/2018 03:20:47</description><styleUrl>#w_grocC</styleUrl><Point><coordinates>2.75310516357422,41.7795038223267,0</coordinates></Point></Placemark>
<Placemark><name>21655</name><description>221655 FSV/FRQ/FER/FRM/FRA/FSA MACA (Girona)
posicio de les: 08/08/2018 03:20:29</description><styleUrl>#w_grocC</styleUrl><Point><coordinates>2.7531373500824,41.7795467376709,0</coordinates></Point></Placemark>
<Placemark><name>MAÇA57</name><description>221657 PORT.COM MACA (Girona)
posicio de les: 08/08/2018 03:23:26</description><styleUrl>#w_grocP</styleUrl><Point><coordinates>2.7530300617218,41.7795038223267,0</coordinates></Point></Placemark>
<Placemark><name>OLOT56</name><description>221756 PORT.COM OLOT (Girona)
posicio de les: 08/08/2018 03:22:27</description><styleUrl>#w_verdP</styleUrl><Point><coordinates>2.47454166412354,42.1900641918182,0</coordinates></Point></Placemark>
<Placemark><name>PALA56</name><description>221856 PORT.COM PALA (Girona)
posicio de les: 08/08/2018 03:24:35</description><styleUrl>#w_verdP</styleUrl><Point><coordinates>3.1561553478241,41.9254052639008,0</coordinates></Point></Placemark>
<Placemark><name>21890</name><description>221890 UPC PALA (Girona)
posicio de les: 08/08/2018 03:23:42</description><styleUrl>#w_groc</styleUrl><Point><coordinates>3.15641283988953,41.9258236885071,0</coordinates></Point></Placemark>
<Placemark><name>RIPO56</name><description>222156 PORT.COM RIPO (Girona)
posicio de les: 08/08/2018 03:22:10</description><styleUrl>#w_verdP</styleUrl><Point><coordinates>2.16845870018005,42.2149336338043,0</coordinates></Point></Placemark>
<Placemark><name>ROSE06</name><description>222206 PORT ROSE (Girona)
posicio de les: 08/08/2018 03:23:18</description><styleUrl>#w_verdP</styleUrl><Point><coordinates>3.16073656082153,42.276474237442,0</coordinates></Point></Placemark>
<Placemark><name>VALL57</name><description>222857 PORT.COM VALL (Girona)
posicio de les: 08/08/2018 03:22:47</description><styleUrl>#w_verdP</styleUrl><Point><coordinates>3.03194761276245,41.8087077140808,0</coordinates></Point></Placemark>
<Placemark><name>I308</name><description>227308 P.GUAITA GUAITA
posicio de les: 08/08/2018 03:23:48</description><styleUrl>#w_verdP</styleUrl><Point><coordinates>3.15672397613525,41.9258558750153,0</coordinates></Point></Placemark>
<Placemark><name>D3REG</name><description>228043  SERVEIS REGIÓ
posicio de les: 08/08/2018 03:24:15</description><styleUrl>#w_verd</styleUrl><Point><coordinates>2.80643820762634,41.9601988792419,0</coordinates></Point></Placemark>
<Placemark><name>D0REL</name><description>230010 P.CG REGIÓ
posicio de les: 08/08/2018 03:23:24</description><styleUrl>#w_verdP</styleUrl><Point><coordinates>0.605031251907349,41.6238605976105,0</coordinates></Point></Placemark>
<Placemark><name>RELL12</name><description>230012 P.Tec REGIÓ
posicio de les: 08/08/2018 03:23:58</description><styleUrl>#w_verdP</styleUrl><Point><coordinates>1.22835516929626,42.5593185424805,0</coordinates></Point></Placemark>
<Placemark><name>30092</name><description>230092  REGIÓ
posicio de les: 08/08/2018 03:22:26</description><styleUrl>#w_groc</styleUrl><Point><coordinates>1.22811913490295,42.5589215755463,0</coordinates></Point></Placemark>
<Placemark><name>30096</name><description>230096  REGIÓ
posicio de les: 08/08/2018 03:21:23</description><styleUrl>#w_groc</styleUrl><Point><coordinates>1.14388704299927,42.0451819896698,0</coordinates></Point></Placemark>
<Placemark><name>AGRA01</name><description>230201 PORT AGRA (Lleida)
posicio de les: 08/08/2018 03:22:48</description><styleUrl>#w_verdP</styleUrl><Point><coordinates>1.05042815208435,41.7977643013,0</coordinates></Point></Placemark>
<Placemark><name>ALMA07</name><description>230307 PORT ALMA (Lleida)
posicio de les: 08/08/2018 03:23:14</description><styleUrl>#w_grocP</styleUrl><Point><coordinates>0.442843437194824,41.7295718193054,0</coordinates></Point></Placemark>
<Placemark><name>30630</name><description>230630 BRP BALA (Lleida)
posicio de les: 08/08/2018 03:22:10</description><styleUrl>#w_grocC</styleUrl><Point><coordinates>1.14392995834351,42.0450854301453,0</coordinates></Point></Placemark>
<Placemark><name>BALA56</name><description>230656 PORT.COM BALA (Lleida)
posicio de les: 08/08/2018 03:23:39</description><styleUrl>#w_verdP</styleUrl><Point><coordinates>1.14278197288513,42.0456218719482,0</coordinates></Point></Placemark>
<Placemark><name>BORG05</name><description>230705 PORT BORG (Lleida)
posicio de les: 08/08/2018 03:23:38</description><styleUrl>#w_verdP</styleUrl><Point><coordinates>0.84520697593689,41.507066488266,0</coordinates></Point></Placemark>
<Placemark><name>32234</name><description>232234 BFP OLIA (Lleida)
posicio de les: 08/08/2018 03:21:06</description><styleUrl>#w_grocC</styleUrl><Point><coordinates>1.14381194114685,42.0452034473419,0</coordinates></Point></Placemark>
<Placemark><name>POBL01</name><description>232401 PORT POBL (Lleida)
posicio de les: 08/08/2018 03:24:28</description><styleUrl>#w_verdP</styleUrl><Point><coordinates>0.964339971542358,42.2390949726105,0</coordinates></Point></Placemark>
<Placemark><name>PONS01</name><description>232601 PORT PONS (Lleida)
posicio de les: 08/08/2018 03:23:13</description><styleUrl>#w_verdP</styleUrl><Point><coordinates>1.19573950767517,41.9046878814697,0</coordinates></Point></Placemark>
<Placemark><name>32634</name><description>232634 BFP PONS (Lleida)
posicio de les: 08/08/2018 03:21:49</description><styleUrl>#w_grocC</styleUrl><Point><coordinates>1.14395141601563,42.0452034473419,0</coordinates></Point></Placemark>
<Placemark><name>SORT04</name><description>233004 PORT SORT (Lleida)
posicio de les: 08/08/2018 03:22:23</description><styleUrl>#w_verdP</styleUrl><Point><coordinates>1.22820496559143,42.5590074062347,0</coordinates></Point></Placemark>
<Placemark><name>TAR02</name><description>233102 PORT TAR (Lleida)
posicio de les: 08/08/2018 03:23:10</description><styleUrl>#w_verdP</styleUrl><Point><coordinates>1.14961624145508,41.6507792472839,0</coordinates></Point></Placemark>
<Placemark><name>GE0REMN</name><description>240013 P.Tec REGIÓ
posicio de les: 08/08/2018 03:24:41</description><styleUrl>#w_verdP</styleUrl><Point><coordinates>2.50691056251526,41.6952502727509,0</coordinates></Point></Placemark>
<Placemark><name>40091</name><description>240091  REGIÓ
posicio de les: 08/08/2018 03:23:44</description><styleUrl>#w_groc</styleUrl><Point><coordinates>2.11168169975281,41.5024960041046,0</coordinates></Point></Placemark>
<Placemark><name>40290</name><description>240290 UPC BAD (Metro. Nord)
posicio de les: 08/08/2018 03:22:03</description><styleUrl>#w_groc</styleUrl><Point><coordinates>2.0254647731781,41.5681350231171,0</coordinates></Point></Placemark>
<Placemark><name>CER06</name><description>240506 PORT CER (Metro. Nord)
posicio de les: 08/08/2018 03:24:16</description><styleUrl>#w_verdP</styleUrl><Point><coordinates>2.11163878440857,41.5025067329407,0</coordinates></Point></Placemark>
<Placemark><name>40660</name><description>240660 AEA/AES/ABA GRA (Metro. Nord)
posicio de les: 08/08/2018 03:23:38</description><styleUrl>#w_grocC</styleUrl><Point><coordinates>2.27368712425232,41.5877902507782,0</coordinates></Point></Placemark>
<Placemark><name>MOL03</name><description>241003 PORT MOL (Metro. Nord)
posicio de les: 08/08/2018 03:23:03</description><styleUrl>#w_verdP</styleUrl><Point><coordinates>2.20104217529297,41.5370106697083,0</coordinates></Point></Placemark>
<Placemark><name>41260</name><description>241260 AEA/AES/ABA PIN (Metro. Nord)
posicio de les: 08/08/2018 03:21:41</description><styleUrl>#w_grocC</styleUrl><Point><coordinates>2.27527499198914,41.5909659862518,0</coordinates></Point></Placemark>
<Placemark><name>RUB01</name><description>241301 PORT RUB (Metro. Nord)
posicio de les: 08/08/2018 03:24:38</description><styleUrl>#w_verdP</styleUrl><Point><coordinates>2.03760981559753,41.4736783504486,0</coordinates></Point></Placemark>
<Placemark><name>41340</name><description>241340 BUP RUB (Metro. Nord)
posicio de les: 08/08/2018 03:24:45</description><styleUrl>#w_verdC</styleUrl><Point><coordinates>2.03824281692505,41.4731311798096,0</coordinates></Point></Placemark>
<Placemark><name>SAB01</name><description>241401 PORT SAB (Metro. Nord)
posicio de les: 08/08/2018 03:21:10</description><styleUrl>#w_verdP</styleUrl><Point><coordinates>2.10404276847839,41.5426540374756,0</coordinates></Point></Placemark>
<Placemark><name>SAB14</name><description>241414 PORT SAB (Metro. Nord)
posicio de les: 08/08/2018 03:22:40</description><styleUrl>#w_verdP</styleUrl><Point><coordinates>2.10399985313416,41.5422999858856,0</coordinates></Point></Placemark>
<Placemark><name>41640</name><description>241640 BUP SCE (Metro. Nord)
posicio de les: 08/08/2018 03:20:17</description><styleUrl>#w_grocC</styleUrl><Point><coordinates>2.50698566436768,41.6951858997345,0</coordinates></Point></Placemark>
<Placemark><name>TER09</name><description>242009 PORT TER (Metro. Nord)
posicio de les: 08/08/2018 03:24:42</description><styleUrl>#w_verdP</styleUrl><Point><coordinates>2.0258617401123,41.5679848194122,0</coordinates></Point></Placemark>
<Placemark><name>TOD56</name><description>242156 PORT.COM TOD (Metro. Nord)
posicio de les: 08/08/2018 03:24:15</description><styleUrl>#w_verdP</styleUrl><Point><coordinates>2.71671295166016,41.6913986206055,0</coordinates></Point></Placemark>
<Placemark><name>50071</name><description>250071  REGIÓ
posicio de les: 08/08/2018 03:23:47</description><styleUrl>#w_groc</styleUrl><Point><coordinates>2.03400492668152,41.3227343559265,0</coordinates></Point></Placemark>
<Placemark><name>50093</name><description>250093  REGIÓ
posicio de les: 08/08/2018 03:22:48</description><styleUrl>#w_groc</styleUrl><Point><coordinates>2.0343804359436,41.3230454921722,0</coordinates></Point></Placemark>
<Placemark><name>GAV11</name><description>250511 PORT GAV (Metro. Sud)
posicio de les: 08/08/2018 03:23:56</description><styleUrl>#w_verdP</styleUrl><Point><coordinates>1.99046730995178,41.3001501560211,0</coordinates></Point></Placemark>
<Placemark><name>GAV57</name><description>250557 PORT.COM GAV (Metro. Sud)
posicio de les: 08/08/2018 03:24:33</description><styleUrl>#w_verdP</styleUrl><Point><coordinates>1.99055314064026,41.3001179695129,0</coordinates></Point></Placemark>
<Placemark><name>HOS06</name><description>250706 PORT HOS (Metro. Sud)
posicio de les: 08/08/2018 03:23:06</description><styleUrl>#w_verdP</styleUrl><Point><coordinates>2.10221886634827,41.373610496521,0</coordinates></Point></Placemark>
<Placemark><name>HOS14</name><description>250714 PORT HOS (Metro. Sud)
posicio de les: 08/08/2018 03:23:06</description><styleUrl>#w_grocP</styleUrl><Point><coordinates>2.10217595100403,41.3734924793243,0</coordinates></Point></Placemark>
<Placemark><name>51030</name><description>251030 BRP MAR (Metro. Sud)
posicio de les: 08/08/2018 03:23:30</description><styleUrl>#w_grocC</styleUrl><Point><coordinates>1.90797328948975,41.4988696575165,0</coordinates></Point></Placemark>
<Placemark><name>MAR56</name><description>251056 PORT.COM MAR (Metro. Sud)
posicio de les: 08/08/2018 03:23:13</description><styleUrl>#w_verdP</styleUrl><Point><coordinates>1.90778017044067,41.4987730979919,0</coordinates></Point></Placemark>
<Placemark><name>MAR57</name><description>251057 PORT.COM MAR (Metro. Sud)
posicio de les: 08/08/2018 03:24:31</description><styleUrl>#w_verdP</styleUrl><Point><coordinates>1.90784454345703,41.4985692501068,0</coordinates></Point></Placemark>
<Placemark><name>SBOI02</name><description>251302 PORT SBOI (Metro. Sud)
posicio de les: 08/08/2018 03:23:51</description><styleUrl>#w_grocP</styleUrl><Point><coordinates>2.03411221504211,41.3228631019592,0</coordinates></Point></Placemark>
<Placemark><name>SBOI04</name><description>251304 PORT SBOI (Metro. Sud)
posicio de les: 08/08/2018 03:23:24</description><styleUrl>#w_verdP</styleUrl><Point><coordinates>2.03431606292725,41.3229060173035,0</coordinates></Point></Placemark>
<Placemark><name>SBOI07</name><description>251307 PORT SBOI (Metro. Sud)
posicio de les: 08/08/2018 03:23:01</description><styleUrl>#w_grocP</styleUrl><Point><coordinates>2.03440189361572,41.3226056098938,0</coordinates></Point></Placemark>
<Placemark><name>SBOI56</name><description>251356 PORT.COM SBOI (Metro. Sud)
posicio de les: 08/08/2018 03:23:51</description><styleUrl>#w_verdP</styleUrl><Point><coordinates>2.0345413684845,41.3230669498444,0</coordinates></Point></Placemark>
<Placemark><name>SFE56</name><description>251556 PORT.COM SFE (Metro. Sud)
posicio de les: 08/08/2018 03:23:50</description><styleUrl>#w_verdP</styleUrl><Point><coordinates>2.0430600643158,41.3884699344635,0</coordinates></Point></Placemark>
<Placemark><name>SVIC04</name><description>251604 PORT SCC (Metro. Sud)
posicio de les: 08/08/2018 03:24:39</description><styleUrl>#w_verdP</styleUrl><Point><coordinates>2.00629234313965,41.3848435878754,0</coordinates></Point></Placemark>
<Placemark><name>51780</name><description>251780 UPCL/USL SIT (Metro. Sud)
posicio de les: 08/08/2018 03:21:33</description><styleUrl>#w_groc</styleUrl><Point><coordinates>1.71345949172974,41.2200593948364,0</coordinates></Point></Placemark>
<Placemark><name>D1REMS</name><description>258041  SERVEIS REGIÓ
posicio de les: 08/08/2018 03:21:02</description><styleUrl>#w_verd</styleUrl><Point><coordinates>2.03367233276367,41.3222515583038,0</coordinates></Point></Placemark>
<Placemark><name>60850</name><description>260850 FSV/FRQ/FER/FRM/FRA/FSA REUS (Tarragona)
posicio de les: 08/08/2018 03:22:39</description><styleUrl>#w_grocC</styleUrl><Point><coordinates>1.06332421302795,41.136782169342,0</coordinates></Point></Placemark>
<Placemark><name>TARR03</name><description>261203 PORT TARR (Tarragona)
posicio de les: 08/08/2018 03:23:52</description><styleUrl>#w_grocP</styleUrl><Point><coordinates>1.22714281082153,41.0976219177246,0</coordinates></Point></Placemark>
<Placemark><name>E00RETE</name><description>270014 P.Tec REGIÓ
posicio de les: 08/08/2018 03:21:04</description><styleUrl>#w_verdP</styleUrl><Point><coordinates>0.513331890106201,40.8194768428802,0</coordinates></Point></Placemark>
<Placemark><name>AMPO57</name><description>272157 PORT.COM AMPO (Terres de l'Ebre)
posicio de les: 08/08/2018 03:22:39</description><styleUrl>#w_grocP</styleUrl><Point><coordinates>0.579571723937988,40.6894969940186,0</coordinates></Point></Placemark>
<Placemark><name>ASCO05</name><description>272205 PORT ASCO (Terres de l'Ebre)
posicio de les: 08/08/2018 03:23:47</description><styleUrl>#w_verdP</styleUrl><Point><coordinates>0.568917989730835,41.1877226829529,0</coordinates></Point></Placemark>
<Placemark><name>ULLD08</name><description>273108 PORT ULLD (Terres de l'Ebre)
posicio de les: 08/08/2018 03:23:13</description><styleUrl>#w_verdP</styleUrl><Point><coordinates>0.358225107192993,40.6088590621948,0</coordinates></Point></Placemark>
<Placemark><name>CMTE56</name><description>274556 PORT.COM Parc X
posicio de les: 08/08/2018 03:24:31</description><styleUrl>#w_grocP</styleUrl><Point><coordinates>0.579421520233154,40.689400434494,0</coordinates></Point></Placemark>
<Placemark><name>92078</name><description>292078 UE SST
posicio de les: 08/08/2018 03:23:27</description><styleUrl>#w_groc</styleUrl><Point><coordinates>1.92694187164307,41.482218503952,0</coordinates></Point></Placemark>
<Placemark><name>93080</name><description>293080 UPCL/USL ESC
posicio de les: 08/08/2018 03:24:19</description><styleUrl>#w_groc</styleUrl><Point><coordinates>2.11264729499817,41.5016055107117,0</coordinates></Point></Placemark>
</Folder>
<Folder>
<name>Descarregues</name>
</Folder>
<Style id="w_verdP_n"><IconStyle><color>ff00ff00</color><scale>1.0</scale><Icon><href>http://maps.google.com/mapfiles/kml/shapes/man.png</href></Icon><hotSpot x="0.5" y="0" xunits="fraction" yunits="fraction"/></IconStyle><LabelStyle><scale>0.7</scale></LabelStyle></Style>
<Style id="w_verdP_s"><IconStyle><color>ff00ff00</color><scale>1.4</scale><Icon><href>http://maps.google.com/mapfiles/kml/shapes/man.png</href></Icon><hotSpot x="0.5" y="0" xunits="fraction" yunits="fraction"/></IconStyle><LabelStyle><scale>0.7</scale></LabelStyle></Style>
<StyleMap id="w_verdP"><Pair><key>normal</key><styleUrl>#w_verdP_n</styleUrl></Pair><Pair><key>highlight</key><styleUrl>#w_verdP_s</styleUrl></Pair></StyleMap>
<Style id="w_verd_n"><IconStyle><color>ff00ff00</color><scale>0.7</scale><Icon><href>http://maps.google.com/mapfiles/kml/shapes/cabs.png</href></Icon><hotSpot x="0.5" y="0" xunits="fraction" yunits="fraction"/></IconStyle><LabelStyle><scale>0.7</scale></LabelStyle></Style>
<Style id="w_verd_s"><IconStyle><color>ff00ff00</color><scale>1.0</scale><Icon><href>http://maps.google.com/mapfiles/kml/shapes/cabs.png</href></Icon><hotSpot x="0.5" y="0" xunits="fraction" yunits="fraction"/></IconStyle><LabelStyle><scale>0.7</scale></LabelStyle></Style>
<StyleMap id="w_verd"><Pair><key>normal</key><styleUrl>#w_verd_n</styleUrl></Pair><Pair><key>highlight</key><styleUrl>#w_verd_s</styleUrl></Pair></StyleMap>
<Style id="w_verdC_n"><IconStyle><color>ff00ff00</color><scale>1.0</scale><Icon><href>http://maps.google.com/mapfiles/kml/shapes/truck.png</href></Icon><hotSpot x="0.5" y="0" xunits="fraction" yunits="fraction"/></IconStyle><LabelStyle><scale>0.7</scale></LabelStyle></Style>
<Style id="w_verdC_s"><IconStyle><color>ff00ff00</color><scale>1.4</scale><Icon><href>http://maps.google.com/mapfiles/kml/shapes/truck.png</href></Icon><hotSpot x="0.5" y="0" xunits="fraction" yunits="fraction"/></IconStyle><LabelStyle><scale>0.7</scale></LabelStyle></Style>
<StyleMap id="w_verdC"><Pair><key>normal</key><styleUrl>#w_verdC_n</styleUrl></Pair><Pair><key>highlight</key><styleUrl>#w_verdC_s</styleUrl></Pair></StyleMap>
<Style id="w_verdH_n"><IconStyle><color>ff0000ff</color><scale>1.2</scale><Icon><href>http://maps.google.com/mapfiles/kml/shapes/heliport.png</href></Icon><hotSpot x="0.5" y="0" xunits="fraction" yunits="fraction"/></IconStyle><LabelStyle><scale>0.7</scale></LabelStyle></Style>
<Style id="w_verdH_s"><IconStyle><color>ff0000ff</color><scale>1.4</scale><Icon><href>http://maps.google.com/mapfiles/kml/shapes/heliport.png</href></Icon><hotSpot x="0.5" y="0" xunits="fraction" yunits="fraction"/></IconStyle><LabelStyle><scale>0.7</scale></LabelStyle></Style>
<StyleMap id="w_verdH"><Pair><key>normal</key><styleUrl>#w_verdH_n</styleUrl></Pair><Pair><key>highlight</key><styleUrl>#w_verdH_s</styleUrl></Pair></StyleMap>
<Style id="w_verdA_n"><IconStyle><color>ff0000ff</color><scale>1.2</scale><Icon><href>http://maps.google.com/mapfiles/kml/shapes/airports.png</href></Icon><hotSpot x="0.5" y="0" xunits="fraction" yunits="fraction"/></IconStyle><LabelStyle><scale>0.7</scale></LabelStyle></Style>
<Style id="w_verdA_s"><IconStyle><color>ff0000ff</color><scale>1.4</scale><Icon><href>http://maps.google.com/mapfiles/kml/shapes/airports.png</href></Icon><hotSpot x="0.5" y="0" xunits="fraction" yunits="fraction"/></IconStyle><LabelStyle><scale>0.7</scale></LabelStyle></Style>
<StyleMap id="w_verdA"><Pair><key>normal</key><styleUrl>#w_verdA_n</styleUrl></Pair><Pair><key>highlight</key><styleUrl>#w_verdA_s</styleUrl></Pair></StyleMap>
<Style id="w_verdB_n"><IconStyle><color>ff00ff00</color><scale>1.0</scale><Icon><href>http://maps.google.com/mapfiles/kml/shapes/sailing.png</href></Icon><hotSpot x="0.5" y="0" xunits="fraction" yunits="fraction"/></IconStyle><LabelStyle><scale>0.7</scale></LabelStyle></Style>
<Style id="w_verdB_s"><IconStyle><color>ff00ff00</color><scale>1.4</scale><Icon><href>http://maps.google.com/mapfiles/kml/shapes/sailing.png</href></Icon><hotSpot x="0.5" y="0" xunits="fraction" yunits="fraction"/></IconStyle><LabelStyle><scale>0.7</scale></LabelStyle></Style>
<StyleMap id="w_verdB"><Pair><key>normal</key><styleUrl>#w_verdBAR_n</styleUrl></Pair><Pair><key>highlight</key><styleUrl>#w_verdBAR_s</styleUrl></Pair></StyleMap>
<Style id="w_grocP_n"><IconStyle><color>ff00ffff</color><scale>1.0</scale><Icon><href>http://maps.google.com/mapfiles/kml/shapes/man.png</href></Icon><hotSpot x="0.5" y="0" xunits="fraction" yunits="fraction"/></IconStyle><LabelStyle><scale>0.7</scale></LabelStyle></Style>
<Style id="w_grocP_s"><IconStyle><color>ff00ffff</color><scale>1.4</scale><Icon><href>http://maps.google.com/mapfiles/kml/shapes/man.png</href></Icon><hotSpot x="0.5" y="0" xunits="fraction" yunits="fraction"/></IconStyle><LabelStyle><scale>0.7</scale></LabelStyle></Style>
<StyleMap id="w_grocP"><Pair><key>normal</key><styleUrl>#w_grocP_n</styleUrl></Pair><Pair><key>highlight</key><styleUrl>#w_grocP_s</styleUrl></Pair></StyleMap>
<Style id="w_groc_n"><IconStyle><color>ff00ffff</color><scale>0.7</scale><Icon><href>http://maps.google.com/mapfiles/kml/shapes/cabs.png</href></Icon><hotSpot x="0.5" y="0" xunits="fraction" yunits="fraction"/></IconStyle><LabelStyle><scale>0.7</scale></LabelStyle></Style>
<Style id="w_groc_s"><IconStyle><color>ff00ffff</color><scale>1.0</scale><Icon><href>http://maps.google.com/mapfiles/kml/shapes/cabs.png</href></Icon><hotSpot x="0.5" y="0" xunits="fraction" yunits="fraction"/></IconStyle><LabelStyle><scale>0.7</scale></LabelStyle></Style>
<StyleMap id="w_groc"><Pair><key>normal</key><styleUrl>#w_groc_n</styleUrl></Pair><Pair><key>highlight</key><styleUrl>#w_groc_s</styleUrl></Pair></StyleMap>
<Style id="w_grocC_n"><IconStyle><color>ff00ffff</color><scale>1.0</scale><Icon><href>http://maps.google.com/mapfiles/kml/shapes/truck.png</href></Icon><hotSpot x="0.5" y="0" xunits="fraction" yunits="fraction"/></IconStyle><LabelStyle><scale>0.7</scale></LabelStyle></Style>
<Style id="w_grocC_s"><IconStyle><color>ff00ffff</color><scale>1.4</scale><Icon><href>http://maps.google.com/mapfiles/kml/shapes/truck.png</href></Icon><hotSpot x="0.5" y="0" xunits="fraction" yunits="fraction"/></IconStyle><LabelStyle><scale>0.7</scale></LabelStyle></Style>
<StyleMap id="w_grocC"><Pair><key>normal</key><styleUrl>#w_grocC_n</styleUrl></Pair><Pair><key>highlight</key><styleUrl>#w_grocC_s</styleUrl></Pair></StyleMap>
<Style id="w_grocH_n"><IconStyle><color>ff0000ff</color><scale>1.2</scale><Icon><href>http://maps.google.com/mapfiles/kml/shapes/heliport.png</href></Icon><hotSpot x="0.5" y="0" xunits="fraction" yunits="fraction"/></IconStyle><LabelStyle><scale>0.7</scale></LabelStyle></Style>
<Style id="w_grocH_s"><IconStyle><color>ff0000ff</color><scale>1.4</scale><Icon><href>http://maps.google.com/mapfiles/kml/shapes/heliport.png</href></Icon><hotSpot x="0.5" y="0" xunits="fraction" yunits="fraction"/></IconStyle><LabelStyle><scale>0.7</scale></LabelStyle></Style>
<StyleMap id="w_grocH"><Pair><key>normal</key><styleUrl>#w_grocH_n</styleUrl></Pair><Pair><key>highlight</key><styleUrl>#w_grocH_s</styleUrl></Pair></StyleMap>
<Style id="w_grocA_n"><IconStyle><color>ff0000ff</color><scale>1.2</scale><Icon><href>http://maps.google.com/mapfiles/kml/shapes/airports.png</href></Icon><hotSpot x="0.5" y="0" xunits="fraction" yunits="fraction"/></IconStyle><LabelStyle><scale>0.7</scale></LabelStyle></Style>
<Style id="w_grocA_s"><IconStyle><color>ff0000ff</color><scale>1.4</scale><Icon><href>http://maps.google.com/mapfiles/kml/shapes/airports.png</href></Icon><hotSpot x="0.5" y="0" xunits="fraction" yunits="fraction"/></IconStyle><LabelStyle><scale>0.7</scale></LabelStyle></Style>
<StyleMap id="w_grocA"><Pair><key>normal</key><styleUrl>#w_grocA_n</styleUrl></Pair><Pair><key>highlight</key><styleUrl>#w_grocA_s</styleUrl></Pair></StyleMap>
<Style id="w_grocB_n"><IconStyle><color>ff00ffff</color><scale>1.0</scale><Icon><href>http://maps.google.com/mapfiles/kml/shapes/sailing.png</href></Icon><hotSpot x="0.5" y="0" xunits="fraction" yunits="fraction"/></IconStyle><LabelStyle><scale>0.7</scale></LabelStyle></Style>
<Style id="w_grocB_s"><IconStyle><color>ff00ffff</color><scale>1.4</scale><Icon><href>http://maps.google.com/mapfiles/kml/shapes/sailing.png</href></Icon><hotSpot x="0.5" y="0" xunits="fraction" yunits="fraction"/></IconStyle><LabelStyle><scale>0.7</scale></LabelStyle></Style>
<StyleMap id="w_grocB"><Pair><key>normal</key><styleUrl>#w_grocBAR_n</styleUrl></Pair><Pair><key>highlight</key><styleUrl>#w_grocBAR_s</styleUrl></Pair></StyleMap>
<Style id="w_vermellP_n"><IconStyle><color>ff0000ff</color><scale>1.0</scale><Icon><href>http://maps.google.com/mapfiles/kml/shapes/man.png</href></Icon><hotSpot x="0.5" y="0" xunits="fraction" yunits="fraction"/></IconStyle><LabelStyle><scale>0.7</scale></LabelStyle></Style>
<Style id="w_vermellP_s"><IconStyle><color>ff0000ff</color><scale>1.4</scale><Icon><href>http://maps.google.com/mapfiles/kml/shapes/man.png</href></Icon><hotSpot x="0.5" y="0" xunits="fraction" yunits="fraction"/></IconStyle><LabelStyle><scale>0.7</scale></LabelStyle></Style>
<StyleMap id="w_vermellP"><Pair><key>normal</key><styleUrl>#w_vermellP_n</styleUrl></Pair><Pair><key>highlight</key><styleUrl>#w_vermellP_s</styleUrl></Pair></StyleMap>
<Style id="w_vermell_n"><IconStyle><color>ff0000ff</color><scale>0.7</scale><Icon><href>http://maps.google.com/mapfiles/kml/shapes/cabs.png</href></Icon><hotSpot x="0.5" y="0" xunits="fraction" yunits="fraction"/></IconStyle><LabelStyle><scale>0.7</scale></LabelStyle></Style>
<Style id="w_vermell_s"><IconStyle><color>ff0000ff</color><scale>1.0</scale><Icon><href>http://maps.google.com/mapfiles/kml/shapes/cabs.png</href></Icon><hotSpot x="0.5" y="0" xunits="fraction" yunits="fraction"/></IconStyle><LabelStyle><scale>0.7</scale></LabelStyle></Style>
<StyleMap id="w_vermell"><Pair><key>normal</key><styleUrl>#w_vermell_n</styleUrl></Pair><Pair><key>highlight</key><styleUrl>#w_vermell_s</styleUrl></Pair></StyleMap>
<Style id="w_vermellC_n"><IconStyle><color>ff0000ff</color><scale>1.0</scale><Icon><href>http://maps.google.com/mapfiles/kml/shapes/truck.png</href></Icon><hotSpot x="0.5" y="0" xunits="fraction" yunits="fraction"/></IconStyle><LabelStyle><scale>0.7</scale></LabelStyle></Style>
<Style id="w_vermellC_s"><IconStyle><color>ff0000ff</color><scale>1.4</scale><Icon><href>http://maps.google.com/mapfiles/kml/shapes/truck.png</href></Icon><hotSpot x="0.5" y="0" xunits="fraction" yunits="fraction"/></IconStyle><LabelStyle><scale>0.7</scale></LabelStyle></Style>
<StyleMap id="w_vermellC"><Pair><key>normal</key><styleUrl>#w_vermellC_n</styleUrl></Pair><Pair><key>highlight</key><styleUrl>#w_vermellC_s</styleUrl></Pair></StyleMap>
<Style id="w_vermellH_n"><IconStyle><color>ff0000ff</color><scale>1.2</scale><Icon><href>http://maps.google.com/mapfiles/kml/shapes/heliport.png</href></Icon><hotSpot x="0.5" y="0" xunits="fraction" yunits="fraction"/></IconStyle><LabelStyle><scale>0.7</scale></LabelStyle></Style>
<Style id="w_vermellH_s"><IconStyle><color>ff0000ff</color><scale>1.4</scale><Icon><href>http://maps.google.com/mapfiles/kml/shapes/heliport.png</href></Icon><hotSpot x="0.5" y="0" xunits="fraction" yunits="fraction"/></IconStyle><LabelStyle><scale>0.7</scale></LabelStyle></Style>
<StyleMap id="w_vermellH"><Pair><key>normal</key><styleUrl>#w_vermellH_n</styleUrl></Pair><Pair><key>highlight</key><styleUrl>#w_vermellH_s</styleUrl></Pair></StyleMap>
<Style id="w_vermellA_n"><IconStyle><color>ff0000ff</color><scale>1.2</scale><Icon><href>http://maps.google.com/mapfiles/kml/shapes/airports.png</href></Icon><hotSpot x="0.5" y="0" xunits="fraction" yunits="fraction"/></IconStyle><LabelStyle><scale>0.7</scale></LabelStyle></Style>
<Style id="w_vermellA_s"><IconStyle><color>ff0000ff</color><scale>1.4</scale><Icon><href>http://maps.google.com/mapfiles/kml/shapes/airports.png</href></Icon><hotSpot x="0.5" y="0" xunits="fraction" yunits="fraction"/></IconStyle><LabelStyle><scale>0.7</scale></LabelStyle></Style>
<StyleMap id="w_vermellA"><Pair><key>normal</key><styleUrl>#w_vermellA_n</styleUrl></Pair><Pair><key>highlight</key><styleUrl>#w_vermellA_s</styleUrl></Pair></StyleMap>
<Style id="w_vermellB_n"><IconStyle><color>ff0000ff</color><scale>1.0</scale><Icon><href>http://maps.google.com/mapfiles/kml/shapes/sailing.png</href></Icon><hotSpot x="0.5" y="0" xunits="fraction" yunits="fraction"/></IconStyle><LabelStyle><scale>0.7</scale></LabelStyle></Style>
<Style id="w_vermellB_s"><IconStyle><color>ff0000ff</color><scale>1.4</scale><Icon><href>http://maps.google.com/mapfiles/kml/shapes/sailing.png</href></Icon><hotSpot x="0.5" y="0" xunits="fraction" yunits="fraction"/></IconStyle><LabelStyle><scale>0.7</scale></LabelStyle></Style>
<StyleMap id="w_vermellB"><Pair><key>normal</key><styleUrl>#w_vermellBAR_n</styleUrl></Pair><Pair><key>highlight</key><styleUrl>#w_vermellBAR_s</styleUrl></Pair></StyleMap>
<Style id="w_descarrega"><IconStyle><color>ff00ffff</color><scale>0.5</scale><Icon><href>http://maps.google.com/mapfiles/kml/shapes/road_shield3.png</href></Icon></IconStyle><LabelStyle><scale>0.7</scale></LabelStyle></Style><Style id="actuacio"><IconStyle><color>ff00ffff</color><scale>0.8</scale><Icon><href>http://maps.google.com/mapfiles/kml/shapes/caution.png</href></Icon></IconStyle><LabelStyle><scale>0.7</scale></LabelStyle></Style></Document></kml>