<?xml version="1.0" encoding="UTF-8"?>
<kml xmlns="http://www.opengis.net/kml/2.2" xmlns:gx="http://www.google.com/kml/ext/2.2" xmlns:kml="http://www.opengis.net/kml/2.2" xmlns:atom="http://www.w3.org/2005/Atom">
<Document>
<name>Terminals</name>
<Snippet maxLines="2">Created 05/08/2018 04:38:11</Snippet>
<Folder>
<name>Terminals</name>
<Placemark><name>GGRAF12</name><description>204212 P.REC
posicio de les: 05/08/2018 04:36:47</description><styleUrl>#w_verdP</styleUrl><Point><coordinates>2.97451615333557,42.0300221443176,0</coordinates></Point></Placemark>
<Placemark><name>OP05087</name><description>205287 OP.AAV
posicio de les: 05/08/2018 04:37:30</description><styleUrl>#w_grocP</styleUrl><Point><coordinates>1.15821003913879,41.1478221416473,0</coordinates></Point></Placemark>
<Placemark><name>VIEL12</name><description>208012 P.PT VARAN
posicio de les: 05/08/2018 04:37:34</description><styleUrl>#w_grocP</styleUrl><Point><coordinates>0.801186561584473,42.6994264125824,0</coordinates></Point></Placemark>
<Placemark><name>VIEL17</name><description>208017 BASE CCA VARAN
posicio de les: 05/08/2018 04:37:53</description><styleUrl>#w_groc</styleUrl><Point><coordinates>0.796465873718262,42.7080738544464,0</coordinates></Point></Placemark>
<Placemark><name>E0REC</name><description>210012 P.Tec REGIÓ
posicio de les: 05/08/2018 04:37:54</description><styleUrl>#w_grocP</styleUrl><Point><coordinates>1.85129284858704,41.7411375045776,0</coordinates></Point></Placemark>
<Placemark><name>BER57</name><description>210357 PORT.COM BER (Centre)
posicio de les: 05/08/2018 04:37:43</description><styleUrl>#w_verdP</styleUrl><Point><coordinates>1.85771942138672,42.1036005020142,0</coordinates></Point></Placemark>
<Placemark><name>CAF56</name><description>210456 PORT.COM CAF (Centre)
posicio de les: 05/08/2018 04:36:28</description><styleUrl>#w_verdP</styleUrl><Point><coordinates>1.52820467948914,41.7309129238129,0</coordinates></Point></Placemark>
<Placemark><name>CAB56</name><description>210656 PORT.COM CAB (Centre)
posicio de les: 05/08/2018 04:37:30</description><styleUrl>#w_grocP</styleUrl><Point><coordinates>1.68588638305664,41.6661536693573,0</coordinates></Point></Placemark>
<Placemark><name>GUA56</name><description>210856 PORT.COM GUA (Centre)
posicio de les: 05/08/2018 04:36:40</description><styleUrl>#w_grocP</styleUrl><Point><coordinates>1.87049746513367,42.2195041179657,0</coordinates></Point></Placemark>
<Placemark><name>PRA07</name><description>211407 PORT PRA (Centre)
posicio de les: 05/08/2018 04:35:14</description><styleUrl>#w_grocP</styleUrl><Point><coordinates>2.03632235527039,42.0082533359528,0</coordinates></Point></Placemark>
<Placemark><name>PUIG01</name><description>211501 PORT PUIG (Centre)
posicio de les: 05/08/2018 04:37:03</description><styleUrl>#w_verdP</styleUrl><Point><coordinates>1.92228555679321,42.4202728271484,0</coordinates></Point></Placemark>
<Placemark><name>12031</name><description>212031 BRP TOR (Centre)
posicio de les: 05/08/2018 04:38:04</description><styleUrl>#w_verdC</styleUrl><Point><coordinates>2.27863311767578,42.0094442367554,0</coordinates></Point></Placemark>
<Placemark><name>20134</name><description>220134 BFP AMER (Girona)
posicio de les: 05/08/2018 04:35:07</description><styleUrl>#w_grocC</styleUrl><Point><coordinates>3.15355896949768,42.3576164245605,0</coordinates></Point></Placemark>
<Placemark><name>20330</name><description>220330 BRP BANY (Girona)
posicio de les: 05/08/2018 04:36:18</description><styleUrl>#w_grocC</styleUrl><Point><coordinates>2.78545260429382,42.1179342269897,0</coordinates></Point></Placemark>
<Placemark><name>CASS56</name><description>220856 PORT.COM CASS (Girona)
posicio de les: 05/08/2018 04:36:49</description><styleUrl>#w_verdP</styleUrl><Point><coordinates>2.88413643836975,41.8796682357788,0</coordinates></Point></Placemark>
<Placemark><name>FIGU56</name><description>221056 PORT.COM FIGU (Girona)
posicio de les: 05/08/2018 04:36:47</description><styleUrl>#w_verdP</styleUrl><Point><coordinates>2.97060012817383,42.2719037532806,0</coordinates></Point></Placemark>
<Placemark><name>21131</name><description>221131 BRP GIRO (Girona)
posicio de les: 05/08/2018 04:37:41</description><styleUrl>#w_verdC</styleUrl><Point><coordinates>2.80142784118652,41.9765818119049,0</coordinates></Point></Placemark>
<Placemark><name>GIRO56</name><description>221156 PORT.COM GIRO (Girona)
posicio de les: 05/08/2018 04:37:46</description><styleUrl>#w_verdP</styleUrl><Point><coordinates>2.80186772346497,41.9765388965607,0</coordinates></Point></Placemark>
<Placemark><name>HOST05</name><description>221205 PORT HOST (Girona)
posicio de les: 05/08/2018 04:36:19</description><styleUrl>#w_verdP</styleUrl><Point><coordinates>2.6242733001709,41.7481863498688,0</coordinates></Point></Placemark>
<Placemark><name>HOST57</name><description>221257 PORT.COM HOST (Girona)
posicio de les: 05/08/2018 04:36:37</description><styleUrl>#w_verdP</styleUrl><Point><coordinates>2.62482047080994,41.7483150959015,0</coordinates></Point></Placemark>
<Placemark><name>JONQ56</name><description>221356 PORT.COM JONQ (Girona)
posicio de les: 05/08/2018 04:37:17</description><styleUrl>#w_grocP</styleUrl><Point><coordinates>2.87644386291504,42.4118828773499,0</coordinates></Point></Placemark>
<Placemark><name>LLAN57</name><description>221457 PORT.COM LLAN (Girona)
posicio de les: 05/08/2018 04:33:22</description><styleUrl>#w_verdP</styleUrl><Point><coordinates>3.1531834602356,42.3568654060364,0</coordinates></Point></Placemark>
<Placemark><name>LLOR56</name><description>221556 PORT.COM LLOR (Girona)
posicio de les: 05/08/2018 04:35:22</description><styleUrl>#w_verdP</styleUrl><Point><coordinates>2.83625364303589,41.6988551616669,0</coordinates></Point></Placemark>
<Placemark><name>21630</name><description>221630 BRP MACA (Girona)
posicio de les: 05/08/2018 04:33:45</description><styleUrl>#w_grocC</styleUrl><Point><coordinates>2.75300860404968,41.7795360088348,0</coordinates></Point></Placemark>
<Placemark><name>MAÇA57</name><description>221657 PORT.COM MACA (Girona)
posicio de les: 05/08/2018 04:37:50</description><styleUrl>#w_grocP</styleUrl><Point><coordinates>2.75304079055786,41.7793643474579,0</coordinates></Point></Placemark>
<Placemark><name>OLOT56</name><description>221756 PORT.COM OLOT (Girona)
posicio de les: 05/08/2018 04:35:08</description><styleUrl>#w_verdP</styleUrl><Point><coordinates>2.47512102127075,42.1896779537201,0</coordinates></Point></Placemark>
<Placemark><name>PALA56</name><description>221856 PORT.COM PALA (Girona)
posicio de les: 05/08/2018 04:36:24</description><styleUrl>#w_grocP</styleUrl><Point><coordinates>3.15627336502075,41.9257700443268,0</coordinates></Point></Placemark>
<Placemark><name>PALA57</name><description>221857 PORT.COM PALA (Girona)
posicio de les: 05/08/2018 04:37:36</description><styleUrl>#w_grocP</styleUrl><Point><coordinates>3.1559944152832,41.9256842136383,0</coordinates></Point></Placemark>
<Placemark><name>RIPO03</name><description>222103 PORT RIPO (Girona)
posicio de les: 05/08/2018 04:35:09</description><styleUrl>#w_verdP</styleUrl><Point><coordinates>2.16831922531128,42.2149336338043,0</coordinates></Point></Placemark>
<Placemark><name>22130</name><description>222130 BRP RIPO (Girona)
posicio de les: 05/08/2018 04:38:05</description><styleUrl>#w_verdC</styleUrl><Point><coordinates>2.16913461685181,42.2151803970337,0</coordinates></Point></Placemark>
<Placemark><name>ROSE56</name><description>222256 PORT.COM ROSE (Girona)
posicio de les: 05/08/2018 04:36:55</description><styleUrl>#w_verdP</styleUrl><Point><coordinates>3.16100478172302,42.2763669490814,0</coordinates></Point></Placemark>
<Placemark><name>TORR56</name><description>222656 PORT.COM TORR (Girona)
posicio de les: 05/08/2018 04:38:00</description><styleUrl>#w_grocP</styleUrl><Point><coordinates>3.16746354103088,42.0476388931274,0</coordinates></Point></Placemark>
<Placemark><name>VALL57</name><description>222857 PORT.COM VALL (Girona)
posicio de les: 05/08/2018 04:37:14</description><styleUrl>#w_grocP</styleUrl><Point><coordinates>3.03163647651672,41.8087291717529,0</coordinates></Point></Placemark>
<Placemark><name>D0REL</name><description>230010 P.CG REGIÓ
posicio de les: 05/08/2018 04:36:21</description><styleUrl>#w_verdP</styleUrl><Point><coordinates>0.604537725448608,41.6237425804138,0</coordinates></Point></Placemark>
<Placemark><name>ALMA02</name><description>230302 PORT ALMA (Lleida)
posicio de les: 05/08/2018 04:37:13</description><styleUrl>#w_grocP</styleUrl><Point><coordinates>0.433831214904785,41.731663942337,0</coordinates></Point></Placemark>
<Placemark><name>ALMA07</name><description>230307 PORT ALMA (Lleida)
posicio de les: 05/08/2018 04:36:03</description><styleUrl>#w_verdP</styleUrl><Point><coordinates>0.442854166030884,41.7295610904694,0</coordinates></Point></Placemark>
<Placemark><name>BORG05</name><description>230705 PORT BORG (Lleida)
posicio de les: 05/08/2018 04:37:19</description><styleUrl>#w_grocP</styleUrl><Point><coordinates>0.844917297363281,41.5073025226593,0</coordinates></Point></Placemark>
<Placemark><name>BORG06</name><description>230706 PORT BORG (Lleida)
posicio de les: 05/08/2018 04:37:57</description><styleUrl>#w_grocP</styleUrl><Point><coordinates>0.84496021270752,41.5070986747742,0</coordinates></Point></Placemark>
<Placemark><name>BORG56</name><description>230756 PORT.COM BORG (Lleida)
posicio de les: 05/08/2018 04:33:47</description><styleUrl>#w_verdP</styleUrl><Point><coordinates>0.844606161117554,41.5074634552002,0</coordinates></Point></Placemark>
<Placemark><name>POBL01</name><description>232401 PORT POBL (Lleida)
posicio de les: 05/08/2018 04:36:19</description><styleUrl>#w_grocP</styleUrl><Point><coordinates>0.963889360427856,42.2391700744629,0</coordinates></Point></Placemark>
<Placemark><name>POBL03</name><description>232403 PORT POBL (Lleida)
posicio de les: 05/08/2018 04:37:44</description><styleUrl>#w_verdP</styleUrl><Point><coordinates>0.965466499328613,42.2377967834473,0</coordinates></Point></Placemark>
<Placemark><name>POBL04</name><description>232404 PORT POBL (Lleida)
posicio de les: 05/08/2018 04:37:49</description><styleUrl>#w_verdP</styleUrl><Point><coordinates>0.965434312820435,42.238107919693,0</coordinates></Point></Placemark>
<Placemark><name>32431</name><description>232431 BRP POBL (Lleida)
posicio de les: 05/08/2018 04:37:58</description><styleUrl>#w_verdC</styleUrl><Point><coordinates>0.965530872344971,42.2385907173157,0</coordinates></Point></Placemark>
<Placemark><name>PONT56</name><description>232556 PORT.COM PONT (Lleida)
posicio de les: 05/08/2018 04:36:24</description><styleUrl>#w_verdP</styleUrl><Point><coordinates>0.739645957946777,42.4104988574982,0</coordinates></Point></Placemark>
<Placemark><name>SEU09</name><description>232909 PORT SEU (Lleida)
posicio de les: 05/08/2018 04:38:04</description><styleUrl>#w_verdP</styleUrl><Point><coordinates>1.47157788276672,42.3604381084442,0</coordinates></Point></Placemark>
<Placemark><name>40081</name><description>240081  REGIÓ
posicio de les: 05/08/2018 04:36:53</description><styleUrl>#w_groc</styleUrl><Point><coordinates>2.11263656616211,41.5023994445801,0</coordinates></Point></Placemark>
<Placemark><name>40290</name><description>240290 UPC BAD (Metro. Nord)
posicio de les: 05/08/2018 04:37:44</description><styleUrl>#w_groc</styleUrl><Point><coordinates>2.03427314758301,41.4738070964813,0</coordinates></Point></Placemark>
<Placemark><name>CER03</name><description>240503 PORT CER (Metro. Nord)
posicio de les: 05/08/2018 04:35:51</description><styleUrl>#w_verdP</styleUrl><Point><coordinates>2.11171388626099,41.5023458003998,0</coordinates></Point></Placemark>
<Placemark><name>GRA05</name><description>240605 PORT GRA (Metro. Nord)
posicio de les: 05/08/2018 04:37:17</description><styleUrl>#w_verdP</styleUrl><Point><coordinates>2.27442741394043,41.5905368328094,0</coordinates></Point></Placemark>
<Placemark><name>GRA07</name><description>240607 PORT GRA (Metro. Nord)
posicio de les: 05/08/2018 04:38:08</description><styleUrl>#w_verdP</styleUrl><Point><coordinates>2.2746205329895,41.5908586978912,0</coordinates></Point></Placemark>
<Placemark><name>MOL03</name><description>241003 PORT MOL (Metro. Nord)
posicio de les: 05/08/2018 04:36:38</description><styleUrl>#w_verdP</styleUrl><Point><coordinates>2.20160007476807,41.5372145175934,0</coordinates></Point></Placemark>
<Placemark><name>241040</name><description>241040 BUP MOL (Metro. Nord)
posicio de les: 05/08/2018 04:36:37</description><styleUrl>#w_grocC</styleUrl><Point><coordinates>2.24981546401978,41.574958562851,0</coordinates></Point></Placemark>
<Placemark><name>241048</name><description>241048 BUL MOL (Metro. Nord)
posicio de les: 05/08/2018 04:36:08</description><styleUrl>#w_grocC</styleUrl><Point><coordinates>2.24964380264282,41.5745401382446,0</coordinates></Point></Placemark>
<Placemark><name>MFI01</name><description>241101 PORT MFI (Metro. Nord)
posicio de les: 05/08/2018 04:37:19</description><styleUrl>#w_verdP</styleUrl><Point><coordinates>2.27188467979431,41.7162573337555,0</coordinates></Point></Placemark>
<Placemark><name>SAB01</name><description>241401 PORT SAB (Metro. Nord)
posicio de les: 05/08/2018 04:38:05</description><styleUrl>#w_verdP</styleUrl><Point><coordinates>2.10435390472412,41.5420317649841,0</coordinates></Point></Placemark>
<Placemark><name>241440</name><description>241440 BUP SAB (Metro. Nord)
posicio de les: 05/08/2018 04:35:36</description><styleUrl>#w_grocC</styleUrl><Point><coordinates>2.10396766662598,41.5424072742462,0</coordinates></Point></Placemark>
<Placemark><name>SCE08</name><description>241608 PORT SCE (Metro. Nord)
posicio de les: 05/08/2018 04:35:57</description><styleUrl>#w_verdP</styleUrl><Point><coordinates>2.50703930854797,41.6948962211609,0</coordinates></Point></Placemark>
<Placemark><name>SCG07</name><description>241807 PORT SCG (Metro. Nord)
posicio de les: 05/08/2018 04:36:44</description><styleUrl>#w_verdP</styleUrl><Point><coordinates>2.20952868461609,41.4630353450775,0</coordinates></Point></Placemark>
<Placemark><name>TER56</name><description>242056 PORT.COM TER (Metro. Nord)
posicio de les: 05/08/2018 04:38:08</description><styleUrl>#w_verdP</styleUrl><Point><coordinates>2.02618360519409,41.5676522254944,0</coordinates></Point></Placemark>
<Placemark><name>GE00REMS</name><description>250015 P.Tec REGIÓ
posicio de les: 05/08/2018 04:37:00</description><styleUrl>#w_grocP</styleUrl><Point><coordinates>2.10625290870667,41.3701128959656,0</coordinates></Point></Placemark>
<Placemark><name>50093</name><description>250093  REGIÓ
posicio de les: 05/08/2018 04:36:00</description><styleUrl>#w_verd</styleUrl><Point><coordinates>2.10581302642822,41.3700699806213,0</coordinates></Point></Placemark>
<Placemark><name>COR07</name><description>250407 PORT COR (Metro. Sud)
posicio de les: 05/08/2018 04:37:04</description><styleUrl>#w_verdP</styleUrl><Point><coordinates>1.9736123085022,41.336145401001,0</coordinates></Point></Placemark>
<Placemark><name>50490</name><description>250490 UPC COR (Metro. Sud)
posicio de les: 05/08/2018 04:37:41</description><styleUrl>#w_groc</styleUrl><Point><coordinates>2.07046151161194,41.3616371154785,0</coordinates></Point></Placemark>
<Placemark><name>GAV56</name><description>250556 PORT.COM GAV (Metro. Sud)
posicio de les: 05/08/2018 04:34:45</description><styleUrl>#w_verdP</styleUrl><Point><coordinates>1.99004888534546,41.3001501560211,0</coordinates></Point></Placemark>
<Placemark><name>HOS06</name><description>250706 PORT HOS (Metro. Sud)
posicio de les: 05/08/2018 04:33:19</description><styleUrl>#w_verdP</styleUrl><Point><coordinates>2.10597395896912,41.3701128959656,0</coordinates></Point></Placemark>
<Placemark><name>50790</name><description>250790 UPC HOS (Metro. Sud)
posicio de les: 05/08/2018 04:33:41</description><styleUrl>#w_verd</styleUrl><Point><coordinates>2.10697174072266,41.3701772689819,0</coordinates></Point></Placemark>
<Placemark><name>MAR57</name><description>251057 PORT.COM MAR (Metro. Sud)
posicio de les: 05/08/2018 04:36:55</description><styleUrl>#w_verdP</styleUrl><Point><coordinates>1.90789818763733,41.4987194538116,0</coordinates></Point></Placemark>
<Placemark><name>FALS06</name><description>260406 PORT FALS (Tarragona)
posicio de les: 05/08/2018 04:37:55</description><styleUrl>#w_grocP</styleUrl><Point><coordinates>0.823566913604736,41.1476182937622,0</coordinates></Point></Placemark>
<Placemark><name>260508</name><description>260508 PORT HOSP (Tarragona)
posicio de les: 05/08/2018 04:36:43</description><styleUrl>#w_grocP</styleUrl><Point><coordinates>0.919933319091797,40.9935307502747,0</coordinates></Point></Placemark>
<Placemark><name>REUS06</name><description>260806 PORT REUS (Tarragona)
posicio de les: 05/08/2018 04:35:10</description><styleUrl>#w_grocP</styleUrl><Point><coordinates>1.11854553222656,41.1509013175964,0</coordinates></Point></Placemark>
<Placemark><name>REUS56</name><description>260856 PORT.COM REUS (Tarragona)
posicio de les: 05/08/2018 04:35:13</description><styleUrl>#w_verdP</styleUrl><Point><coordinates>1.14078640937805,41.1733675003052,0</coordinates></Point></Placemark>
<Placemark><name>E00RETE</name><description>270014 P.Tec REGIÓ
posicio de les: 05/08/2018 04:36:49</description><styleUrl>#w_grocP</styleUrl><Point><coordinates>0.513278245925903,40.8191764354706,0</coordinates></Point></Placemark>
<Placemark><name>AMET06</name><description>272006 PORT AMET (Terres de l'Ebre)
posicio de les: 05/08/2018 04:37:59</description><styleUrl>#w_verdP</styleUrl><Point><coordinates>0.797613859176636,40.8901476860046,0</coordinates></Point></Placemark>
<Placemark><name>GAND56</name><description>272656 PORT.COM GAND (Terres de l'Ebre)
posicio de les: 05/08/2018 04:37:18</description><styleUrl>#w_grocP</styleUrl><Point><coordinates>0.43920636177063,41.0585796833038,0</coordinates></Point></Placemark>
<Placemark><name>E_93</name><description>278031  SERVEIS REGIÓ
posicio de les: 05/08/2018 04:34:53</description><styleUrl>#w_verd</styleUrl><Point><coordinates>0.513471364974976,40.8191013336182,0</coordinates></Point></Placemark>
</Folder>
<Folder>
<name>Descarregues</name>
</Folder>
<Style id="w_verdP_n"><IconStyle><color>ff00ff00</color><scale>1.0</scale><Icon><href>http://maps.google.com/mapfiles/kml/shapes/man.png</href></Icon><hotSpot x="0.5" y="0" xunits="fraction" yunits="fraction"/></IconStyle><LabelStyle><scale>0.7</scale></LabelStyle></Style>
<Style id="w_verdP_s"><IconStyle><color>ff00ff00</color><scale>1.4</scale><Icon><href>http://maps.google.com/mapfiles/kml/shapes/man.png</href></Icon><hotSpot x="0.5" y="0" xunits="fraction" yunits="fraction"/></IconStyle><LabelStyle><scale>0.7</scale></LabelStyle></Style>
<StyleMap id="w_verdP"><Pair><key>normal</key><styleUrl>#w_verdP_n</styleUrl></Pair><Pair><key>highlight</key><styleUrl>#w_verdP_s</styleUrl></Pair></StyleMap>
<Style id="w_verd_n"><IconStyle><color>ff00ff00</color><scale>0.7</scale><Icon><href>http://maps.google.com/mapfiles/kml/shapes/cabs.png</href></Icon><hotSpot x="0.5" y="0" xunits="fraction" yunits="fraction"/></IconStyle><LabelStyle><scale>0.7</scale></LabelStyle></Style>
<Style id="w_verd_s"><IconStyle><color>ff00ff00</color><scale>1.0</scale><Icon><href>http://maps.google.com/mapfiles/kml/shapes/cabs.png</href></Icon><hotSpot x="0.5" y="0" xunits="fraction" yunits="fraction"/></IconStyle><LabelStyle><scale>0.7</scale></LabelStyle></Style>
<StyleMap id="w_verd"><Pair><key>normal</key><styleUrl>#w_verd_n</styleUrl></Pair><Pair><key>highlight</key><styleUrl>#w_verd_s</styleUrl></Pair></StyleMap>
<Style id="w_verdC_n"><IconStyle><color>ff00ff00</color><scale>1.0</scale><Icon><href>http://maps.google.com/mapfiles/kml/shapes/truck.png</href></Icon><hotSpot x="0.5" y="0" xunits="fraction" yunits="fraction"/></IconStyle><LabelStyle><scale>0.7</scale></LabelStyle></Style>
<Style id="w_verdC_s"><IconStyle><color>ff00ff00</color><scale>1.4</scale><Icon><href>http://maps.google.com/mapfiles/kml/shapes/truck.png</href></Icon><hotSpot x="0.5" y="0" xunits="fraction" yunits="fraction"/></IconStyle><LabelStyle><scale>0.7</scale></LabelStyle></Style>
<StyleMap id="w_verdC"><Pair><key>normal</key><styleUrl>#w_verdC_n</styleUrl></Pair><Pair><key>highlight</key><styleUrl>#w_verdC_s</styleUrl></Pair></StyleMap>
<Style id="w_verdH_n"><IconStyle><color>ff0000ff</color><scale>1.2</scale><Icon><href>http://maps.google.com/mapfiles/kml/shapes/heliport.png</href></Icon><hotSpot x="0.5" y="0" xunits="fraction" yunits="fraction"/></IconStyle><LabelStyle><scale>0.7</scale></LabelStyle></Style>
<Style id="w_verdH_s"><IconStyle><color>ff0000ff</color><scale>1.4</scale><Icon><href>http://maps.google.com/mapfiles/kml/shapes/heliport.png</href></Icon><hotSpot x="0.5" y="0" xunits="fraction" yunits="fraction"/></IconStyle><LabelStyle><scale>0.7</scale></LabelStyle></Style>
<StyleMap id="w_verdH"><Pair><key>normal</key><styleUrl>#w_verdH_n</styleUrl></Pair><Pair><key>highlight</key><styleUrl>#w_verdH_s</styleUrl></Pair></StyleMap>
<Style id="w_verdA_n"><IconStyle><color>ff0000ff</color><scale>1.2</scale><Icon><href>http://maps.google.com/mapfiles/kml/shapes/airports.png</href></Icon><hotSpot x="0.5" y="0" xunits="fraction" yunits="fraction"/></IconStyle><LabelStyle><scale>0.7</scale></LabelStyle></Style>
<Style id="w_verdA_s"><IconStyle><color>ff0000ff</color><scale>1.4</scale><Icon><href>http://maps.google.com/mapfiles/kml/shapes/airports.png</href></Icon><hotSpot x="0.5" y="0" xunits="fraction" yunits="fraction"/></IconStyle><LabelStyle><scale>0.7</scale></LabelStyle></Style>
<StyleMap id="w_verdA"><Pair><key>normal</key><styleUrl>#w_verdA_n</styleUrl></Pair><Pair><key>highlight</key><styleUrl>#w_verdA_s</styleUrl></Pair></StyleMap>
<Style id="w_verdB_n"><IconStyle><color>ff00ff00</color><scale>1.0</scale><Icon><href>http://maps.google.com/mapfiles/kml/shapes/sailing.png</href></Icon><hotSpot x="0.5" y="0" xunits="fraction" yunits="fraction"/></IconStyle><LabelStyle><scale>0.7</scale></LabelStyle></Style>
<Style id="w_verdB_s"><IconStyle><color>ff00ff00</color><scale>1.4</scale><Icon><href>http://maps.google.com/mapfiles/kml/shapes/sailing.png</href></Icon><hotSpot x="0.5" y="0" xunits="fraction" yunits="fraction"/></IconStyle><LabelStyle><scale>0.7</scale></LabelStyle></Style>
<StyleMap id="w_verdB"><Pair><key>normal</key><styleUrl>#w_verdBAR_n</styleUrl></Pair><Pair><key>highlight</key><styleUrl>#w_verdBAR_s</styleUrl></Pair></StyleMap>
<Style id="w_grocP_n"><IconStyle><color>ff00ffff</color><scale>1.0</scale><Icon><href>http://maps.google.com/mapfiles/kml/shapes/man.png</href></Icon><hotSpot x="0.5" y="0" xunits="fraction" yunits="fraction"/></IconStyle><LabelStyle><scale>0.7</scale></LabelStyle></Style>
<Style id="w_grocP_s"><IconStyle><color>ff00ffff</color><scale>1.4</scale><Icon><href>http://maps.google.com/mapfiles/kml/shapes/man.png</href></Icon><hotSpot x="0.5" y="0" xunits="fraction" yunits="fraction"/></IconStyle><LabelStyle><scale>0.7</scale></LabelStyle></Style>
<StyleMap id="w_grocP"><Pair><key>normal</key><styleUrl>#w_grocP_n</styleUrl></Pair><Pair><key>highlight</key><styleUrl>#w_grocP_s</styleUrl></Pair></StyleMap>
<Style id="w_groc_n"><IconStyle><color>ff00ffff</color><scale>0.7</scale><Icon><href>http://maps.google.com/mapfiles/kml/shapes/cabs.png</href></Icon><hotSpot x="0.5" y="0" xunits="fraction" yunits="fraction"/></IconStyle><LabelStyle><scale>0.7</scale></LabelStyle></Style>
<Style id="w_groc_s"><IconStyle><color>ff00ffff</color><scale>1.0</scale><Icon><href>http://maps.google.com/mapfiles/kml/shapes/cabs.png</href></Icon><hotSpot x="0.5" y="0" xunits="fraction" yunits="fraction"/></IconStyle><LabelStyle><scale>0.7</scale></LabelStyle></Style>
<StyleMap id="w_groc"><Pair><key>normal</key><styleUrl>#w_groc_n</styleUrl></Pair><Pair><key>highlight</key><styleUrl>#w_groc_s</styleUrl></Pair></StyleMap>
<Style id="w_grocC_n"><IconStyle><color>ff00ffff</color><scale>1.0</scale><Icon><href>http://maps.google.com/mapfiles/kml/shapes/truck.png</href></Icon><hotSpot x="0.5" y="0" xunits="fraction" yunits="fraction"/></IconStyle><LabelStyle><scale>0.7</scale></LabelStyle></Style>
<Style id="w_grocC_s"><IconStyle><color>ff00ffff</color><scale>1.4</scale><Icon><href>http://maps.google.com/mapfiles/kml/shapes/truck.png</href></Icon><hotSpot x="0.5" y="0" xunits="fraction" yunits="fraction"/></IconStyle><LabelStyle><scale>0.7</scale></LabelStyle></Style>
<StyleMap id="w_grocC"><Pair><key>normal</key><styleUrl>#w_grocC_n</styleUrl></Pair><Pair><key>highlight</key><styleUrl>#w_grocC_s</styleUrl></Pair></StyleMap>
<Style id="w_grocH_n"><IconStyle><color>ff0000ff</color><scale>1.2</scale><Icon><href>http://maps.google.com/mapfiles/kml/shapes/heliport.png</href></Icon><hotSpot x="0.5" y="0" xunits="fraction" yunits="fraction"/></IconStyle><LabelStyle><scale>0.7</scale></LabelStyle></Style>
<Style id="w_grocH_s"><IconStyle><color>ff0000ff</color><scale>1.4</scale><Icon><href>http://maps.google.com/mapfiles/kml/shapes/heliport.png</href></Icon><hotSpot x="0.5" y="0" xunits="fraction" yunits="fraction"/></IconStyle><LabelStyle><scale>0.7</scale></LabelStyle></Style>
<StyleMap id="w_grocH"><Pair><key>normal</key><styleUrl>#w_grocH_n</styleUrl></Pair><Pair><key>highlight</key><styleUrl>#w_grocH_s</styleUrl></Pair></StyleMap>
<Style id="w_grocA_n"><IconStyle><color>ff0000ff</color><scale>1.2</scale><Icon><href>http://maps.google.com/mapfiles/kml/shapes/airports.png</href></Icon><hotSpot x="0.5" y="0" xunits="fraction" yunits="fraction"/></IconStyle><LabelStyle><scale>0.7</scale></LabelStyle></Style>
<Style id="w_grocA_s"><IconStyle><color>ff0000ff</color><scale>1.4</scale><Icon><href>http://maps.google.com/mapfiles/kml/shapes/airports.png</href></Icon><hotSpot x="0.5" y="0" xunits="fraction" yunits="fraction"/></IconStyle><LabelStyle><scale>0.7</scale></LabelStyle></Style>
<StyleMap id="w_grocA"><Pair><key>normal</key><styleUrl>#w_grocA_n</styleUrl></Pair><Pair><key>highlight</key><styleUrl>#w_grocA_s</styleUrl></Pair></StyleMap>
<Style id="w_grocB_n"><IconStyle><color>ff00ffff</color><scale>1.0</scale><Icon><href>http://maps.google.com/mapfiles/kml/shapes/sailing.png</href></Icon><hotSpot x="0.5" y="0" xunits="fraction" yunits="fraction"/></IconStyle><LabelStyle><scale>0.7</scale></LabelStyle></Style>
<Style id="w_grocB_s"><IconStyle><color>ff00ffff</color><scale>1.4</scale><Icon><href>http://maps.google.com/mapfiles/kml/shapes/sailing.png</href></Icon><hotSpot x="0.5" y="0" xunits="fraction" yunits="fraction"/></IconStyle><LabelStyle><scale>0.7</scale></LabelStyle></Style>
<StyleMap id="w_grocB"><Pair><key>normal</key><styleUrl>#w_grocBAR_n</styleUrl></Pair><Pair><key>highlight</key><styleUrl>#w_grocBAR_s</styleUrl></Pair></StyleMap>
<Style id="w_vermellP_n"><IconStyle><color>ff0000ff</color><scale>1.0</scale><Icon><href>http://maps.google.com/mapfiles/kml/shapes/man.png</href></Icon><hotSpot x="0.5" y="0" xunits="fraction" yunits="fraction"/></IconStyle><LabelStyle><scale>0.7</scale></LabelStyle></Style>
<Style id="w_vermellP_s"><IconStyle><color>ff0000ff</color><scale>1.4</scale><Icon><href>http://maps.google.com/mapfiles/kml/shapes/man.png</href></Icon><hotSpot x="0.5" y="0" xunits="fraction" yunits="fraction"/></IconStyle><LabelStyle><scale>0.7</scale></LabelStyle></Style>
<StyleMap id="w_vermellP"><Pair><key>normal</key><styleUrl>#w_vermellP_n</styleUrl></Pair><Pair><key>highlight</key><styleUrl>#w_vermellP_s</styleUrl></Pair></StyleMap>
<Style id="w_vermell_n"><IconStyle><color>ff0000ff</color><scale>0.7</scale><Icon><href>http://maps.google.com/mapfiles/kml/shapes/cabs.png</href></Icon><hotSpot x="0.5" y="0" xunits="fraction" yunits="fraction"/></IconStyle><LabelStyle><scale>0.7</scale></LabelStyle></Style>
<Style id="w_vermell_s"><IconStyle><color>ff0000ff</color><scale>1.0</scale><Icon><href>http://maps.google.com/mapfiles/kml/shapes/cabs.png</href></Icon><hotSpot x="0.5" y="0" xunits="fraction" yunits="fraction"/></IconStyle><LabelStyle><scale>0.7</scale></LabelStyle></Style>
<StyleMap id="w_vermell"><Pair><key>normal</key><styleUrl>#w_vermell_n</styleUrl></Pair><Pair><key>highlight</key><styleUrl>#w_vermell_s</styleUrl></Pair></StyleMap>
<Style id="w_vermellC_n"><IconStyle><color>ff0000ff</color><scale>1.0</scale><Icon><href>http://maps.google.com/mapfiles/kml/shapes/truck.png</href></Icon><hotSpot x="0.5" y="0" xunits="fraction" yunits="fraction"/></IconStyle><LabelStyle><scale>0.7</scale></LabelStyle></Style>
<Style id="w_vermellC_s"><IconStyle><color>ff0000ff</color><scale>1.4</scale><Icon><href>http://maps.google.com/mapfiles/kml/shapes/truck.png</href></Icon><hotSpot x="0.5" y="0" xunits="fraction" yunits="fraction"/></IconStyle><LabelStyle><scale>0.7</scale></LabelStyle></Style>
<StyleMap id="w_vermellC"><Pair><key>normal</key><styleUrl>#w_vermellC_n</styleUrl></Pair><Pair><key>highlight</key><styleUrl>#w_vermellC_s</styleUrl></Pair></StyleMap>
<Style id="w_vermellH_n"><IconStyle><color>ff0000ff</color><scale>1.2</scale><Icon><href>http://maps.google.com/mapfiles/kml/shapes/heliport.png</href></Icon><hotSpot x="0.5" y="0" xunits="fraction" yunits="fraction"/></IconStyle><LabelStyle><scale>0.7</scale></LabelStyle></Style>
<Style id="w_vermellH_s"><IconStyle><color>ff0000ff</color><scale>1.4</scale><Icon><href>http://maps.google.com/mapfiles/kml/shapes/heliport.png</href></Icon><hotSpot x="0.5" y="0" xunits="fraction" yunits="fraction"/></IconStyle><LabelStyle><scale>0.7</scale></LabelStyle></Style>
<StyleMap id="w_vermellH"><Pair><key>normal</key><styleUrl>#w_vermellH_n</styleUrl></Pair><Pair><key>highlight</key><styleUrl>#w_vermellH_s</styleUrl></Pair></StyleMap>
<Style id="w_vermellA_n"><IconStyle><color>ff0000ff</color><scale>1.2</scale><Icon><href>http://maps.google.com/mapfiles/kml/shapes/airports.png</href></Icon><hotSpot x="0.5" y="0" xunits="fraction" yunits="fraction"/></IconStyle><LabelStyle><scale>0.7</scale></LabelStyle></Style>
<Style id="w_vermellA_s"><IconStyle><color>ff0000ff</color><scale>1.4</scale><Icon><href>http://maps.google.com/mapfiles/kml/shapes/airports.png</href></Icon><hotSpot x="0.5" y="0" xunits="fraction" yunits="fraction"/></IconStyle><LabelStyle><scale>0.7</scale></LabelStyle></Style>
<StyleMap id="w_vermellA"><Pair><key>normal</key><styleUrl>#w_vermellA_n</styleUrl></Pair><Pair><key>highlight</key><styleUrl>#w_vermellA_s</styleUrl></Pair></StyleMap>
<Style id="w_vermellB_n"><IconStyle><color>ff0000ff</color><scale>1.0</scale><Icon><href>http://maps.google.com/mapfiles/kml/shapes/sailing.png</href></Icon><hotSpot x="0.5" y="0" xunits="fraction" yunits="fraction"/></IconStyle><LabelStyle><scale>0.7</scale></LabelStyle></Style>
<Style id="w_vermellB_s"><IconStyle><color>ff0000ff</color><scale>1.4</scale><Icon><href>http://maps.google.com/mapfiles/kml/shapes/sailing.png</href></Icon><hotSpot x="0.5" y="0" xunits="fraction" yunits="fraction"/></IconStyle><LabelStyle><scale>0.7</scale></LabelStyle></Style>
<StyleMap id="w_vermellB"><Pair><key>normal</key><styleUrl>#w_vermellBAR_n</styleUrl></Pair><Pair><key>highlight</key><styleUrl>#w_vermellBAR_s</styleUrl></Pair></StyleMap>
<Style id="w_descarrega"><IconStyle><color>ff00ffff</color><scale>0.5</scale><Icon><href>http://maps.google.com/mapfiles/kml/shapes/road_shield3.png</href></Icon></IconStyle><LabelStyle><scale>0.7</scale></LabelStyle></Style><Style id="actuacio"><IconStyle><color>ff00ffff</color><scale>0.8</scale><Icon><href>http://maps.google.com/mapfiles/kml/shapes/caution.png</href></Icon></IconStyle><LabelStyle><scale>0.7</scale></LabelStyle></Style></Document></kml>