<?xml version="1.0" encoding="UTF-8"?>
<kml xmlns="http://www.opengis.net/kml/2.2" xmlns:gx="http://www.google.com/kml/ext/2.2" xmlns:kml="http://www.opengis.net/kml/2.2" xmlns:atom="http://www.w3.org/2005/Atom">
<Document>
<name>Terminals</name>
<Snippet maxLines="2">Created 03/08/2018 23:59:25</Snippet>
<Folder>
<name>Terminals</name>
<Placemark><name>GGRAF03</name><description>204203 P.UT
posicio de les: 03/08/2018 23:58:53</description><styleUrl>#w_verdP</styleUrl><Point><coordinates>2.80624508857727,41.9607138633728,0</coordinates></Point></Placemark>
<Placemark><name>OP05081</name><description>205281 OP.AAV
posicio de les: 03/08/2018 23:57:51</description><styleUrl>#w_verdP</styleUrl><Point><coordinates>2.10823774337769,41.5180635452271,0</coordinates></Point></Placemark>
<Placemark><name>VIEL12</name><description>208012 P.PT VARAN
posicio de les: 03/08/2018 23:58:49</description><styleUrl>#w_grocP</styleUrl><Point><coordinates>0.801218748092651,42.6995766162872,0</coordinates></Point></Placemark>
<Placemark><name>VIEL17</name><description>208017 BASE CCA VARAN
posicio de les: 03/08/2018 23:57:56</description><styleUrl>#w_verd</styleUrl><Point><coordinates>0.796723365783691,42.7081167697906,0</coordinates></Point></Placemark>
<Placemark><name>GE100</name><description>210017 P.Tec REGIÓ
posicio de les: 03/08/2018 23:58:41</description><styleUrl>#w_verdP</styleUrl><Point><coordinates>1.85115337371826,41.7417061328888,0</coordinates></Point></Placemark>
<Placemark><name>10071</name><description>210071  REGIÓ
posicio de les: 03/08/2018 23:57:13</description><styleUrl>#w_groc</styleUrl><Point><coordinates>1.8528163433075,41.7415130138397,0</coordinates></Point></Placemark>
<Placemark><name>BER57</name><description>210357 PORT.COM BER (Centre)
posicio de les: 03/08/2018 23:57:41</description><styleUrl>#w_verdP</styleUrl><Point><coordinates>1.85799837112427,42.1042227745056,0</coordinates></Point></Placemark>
<Placemark><name>CAR56</name><description>210556 PORT.COM CAR (Centre)
posicio de les: 03/08/2018 23:57:47</description><styleUrl>#w_verdP</styleUrl><Point><coordinates>1.70466184616089,41.9003856182098,0</coordinates></Point></Placemark>
<Placemark><name>211130</name><description>211130 BRP MOI (Centre)
posicio de les: 03/08/2018 23:59:29</description><styleUrl>#w_grocC</styleUrl><Point><coordinates>2.08612561225891,41.811797618866,0</coordinates></Point></Placemark>
<Placemark><name>PRA03</name><description>211403 PORT PRA (Centre)
posicio de les: 03/08/2018 23:57:55</description><styleUrl>#w_verdP</styleUrl><Point><coordinates>2.03618288040161,42.0080709457397,0</coordinates></Point></Placemark>
<Placemark><name>PRA07</name><description>211407 PORT PRA (Centre)
posicio de les: 03/08/2018 23:58:26</description><styleUrl>#w_verdP</styleUrl><Point><coordinates>2.03603267669678,42.0080709457397,0</coordinates></Point></Placemark>
<Placemark><name>PUIG08</name><description>211508 PORT PUIG (Centre)
posicio de les: 03/08/2018 23:58:53</description><styleUrl>#w_verdP</styleUrl><Point><coordinates>1.90292000770569,42.4301648139954,0</coordinates></Point></Placemark>
<Placemark><name>SOLS05</name><description>211905 PORT SOLS (Centre)
posicio de les: 03/08/2018 23:57:34</description><styleUrl>#w_grocP</styleUrl><Point><coordinates>1.51243329048157,41.9899606704712,0</coordinates></Point></Placemark>
<Placemark><name>VIC04</name><description>212104 PORT VIC (Centre)
posicio de les: 03/08/2018 23:58:49</description><styleUrl>#w_verdP</styleUrl><Point><coordinates>2.26925611495972,41.9417881965637,0</coordinates></Point></Placemark>
<Placemark><name>CMC01</name><description>214501 PORT Parc X
posicio de les: 03/08/2018 23:58:59</description><styleUrl>#w_grocP</styleUrl><Point><coordinates>1.85196876525879,41.7416524887085,0</coordinates></Point></Placemark>
<Placemark><name>20091</name><description>220091  REGIÓ
posicio de les: 03/08/2018 23:55:59</description><styleUrl>#w_verd</styleUrl><Point><coordinates>2.80573010444641,41.962730884552,0</coordinates></Point></Placemark>
<Placemark><name>20134</name><description>220134 BFP AMER (Girona)
posicio de les: 03/08/2018 23:57:55</description><styleUrl>#w_grocC</styleUrl><Point><coordinates>3.15332293510437,42.3576056957245,0</coordinates></Point></Placemark>
<Placemark><name>BANY56</name><description>220356 PORT.COM BANY (Girona)
posicio de les: 03/08/2018 23:57:46</description><styleUrl>#w_verdP</styleUrl><Point><coordinates>2.78565645217896,42.1176874637604,0</coordinates></Point></Placemark>
<Placemark><name>220656</name><description>220656 PORT.COM CALO (Girona)
posicio de les: 03/08/2018 23:58:55</description><styleUrl>#w_verdP</styleUrl><Point><coordinates>3.07345747947693,41.8450677394867,0</coordinates></Point></Placemark>
<Placemark><name>CASS04</name><description>220804 PORT CASS (Girona)
posicio de les: 03/08/2018 23:56:12</description><styleUrl>#w_verdP</styleUrl><Point><coordinates>2.88356781005859,41.8797218799591,0</coordinates></Point></Placemark>
<Placemark><name>20830</name><description>220830 BRP CASS (Girona)
posicio de les: 03/08/2018 23:55:00</description><styleUrl>#w_verdC</styleUrl><Point><coordinates>2.88620710372925,41.8773078918457,0</coordinates></Point></Placemark>
<Placemark><name>FIGU56</name><description>221056 PORT.COM FIGU (Girona)
posicio de les: 03/08/2018 23:57:45</description><styleUrl>#w_verdP</styleUrl><Point><coordinates>3.00162792205811,42.3464691638947,0</coordinates></Point></Placemark>
<Placemark><name>GIRO06</name><description>221106 PORT GIRO (Girona)
posicio de les: 03/08/2018 23:57:42</description><styleUrl>#w_verdP</styleUrl><Point><coordinates>2.80570864677429,41.9606065750122,0</coordinates></Point></Placemark>
<Placemark><name>JONQ56</name><description>221356 PORT.COM JONQ (Girona)
posicio de les: 03/08/2018 23:58:10</description><styleUrl>#w_verdP</styleUrl><Point><coordinates>2.87586450576782,42.4117434024811,0</coordinates></Point></Placemark>
<Placemark><name>LLOR56</name><description>221556 PORT.COM LLOR (Girona)
posicio de les: 03/08/2018 23:59:15</description><styleUrl>#w_verdP</styleUrl><Point><coordinates>2.83659696578979,41.6993594169617,0</coordinates></Point></Placemark>
<Placemark><name>MAÇA57</name><description>221657 PORT.COM MACA (Girona)
posicio de les: 03/08/2018 23:57:26</description><styleUrl>#w_grocP</styleUrl><Point><coordinates>2.75296568870544,41.779750585556,0</coordinates></Point></Placemark>
<Placemark><name>OLOT01</name><description>221701 PORT OLOT (Girona)
posicio de les: 03/08/2018 23:57:58</description><styleUrl>#w_grocP</styleUrl><Point><coordinates>3.16085457801819,42.2764956951141,0</coordinates></Point></Placemark>
<Placemark><name>OLOT56</name><description>221756 PORT.COM OLOT (Girona)
posicio de les: 03/08/2018 23:57:17</description><styleUrl>#w_verdP</styleUrl><Point><coordinates>2.47456312179565,42.190203666687,0</coordinates></Point></Placemark>
<Placemark><name>OLOT57</name><description>221757 PORT.COM OLOT (Girona)
posicio de les: 03/08/2018 23:55:40</description><styleUrl>#w_verdP</styleUrl><Point><coordinates>2.47368335723877,42.1907722949982,0</coordinates></Point></Placemark>
<Placemark><name>PALA56</name><description>221856 PORT.COM PALA (Girona)
posicio de les: 03/08/2018 23:58:23</description><styleUrl>#w_verdP</styleUrl><Point><coordinates>3.15603733062744,41.9257593154907,0</coordinates></Point></Placemark>
<Placemark><name>RIPO56</name><description>222156 PORT.COM RIPO (Girona)
posicio de les: 03/08/2018 23:58:00</description><styleUrl>#w_verdP</styleUrl><Point><coordinates>2.16856598854065,42.21524477005,0</coordinates></Point></Placemark>
<Placemark><name>ROSE57</name><description>222257 PORT.COM ROSE (Girona)
posicio de les: 03/08/2018 23:59:00</description><styleUrl>#w_verdP</styleUrl><Point><coordinates>3.16102623939514,42.2763669490814,0</coordinates></Point></Placemark>
<Placemark><name>22430</name><description>222430 BRP SHIL (Girona)
posicio de les: 03/08/2018 23:58:05</description><styleUrl>#w_grocC</styleUrl><Point><coordinates>3.0317759513855,41.8086969852448,0</coordinates></Point></Placemark>
<Placemark><name>VALL56</name><description>222856 PORT.COM VALL (Girona)
posicio de les: 03/08/2018 23:58:58</description><styleUrl>#w_verdP</styleUrl><Point><coordinates>3.03147554397583,41.8092119693756,0</coordinates></Point></Placemark>
<Placemark><name>22890</name><description>222890 UPC VALL (Girona)
posicio de les: 03/08/2018 23:56:11</description><styleUrl>#w_verd</styleUrl><Point><coordinates>3.03415775299072,41.8095982074738,0</coordinates></Point></Placemark>
<Placemark><name>D6REG</name><description>228046  SERVEIS REGIÓ
posicio de les: 03/08/2018 23:58:03</description><styleUrl>#w_verd</styleUrl><Point><coordinates>2.8065025806427,41.9603383541107,0</coordinates></Point></Placemark>
<Placemark><name>D0REL</name><description>230010 P.CG REGIÓ
posicio de les: 03/08/2018 23:58:58</description><styleUrl>#w_verdP</styleUrl><Point><coordinates>0.605084896087646,41.6235065460205,0</coordinates></Point></Placemark>
<Placemark><name>RELL11</name><description>230011 P.Tec REGIÓ
posicio de les: 03/08/2018 23:57:18</description><styleUrl>#w_verdP</styleUrl><Point><coordinates>0.604097843170166,41.6237318515778,0</coordinates></Point></Placemark>
<Placemark><name>E00RELL</name><description>230014 P.Tec REGIÓ
posicio de les: 03/08/2018 23:59:10</description><styleUrl>#w_grocP</styleUrl><Point><coordinates>1.129070520401,42.408846616745,0</coordinates></Point></Placemark>
<Placemark><name>30082</name><description>230082  REGIÓ
posicio de les: 03/08/2018 23:55:44</description><styleUrl>#w_groc</styleUrl><Point><coordinates>0.805649757385254,41.799384355545,0</coordinates></Point></Placemark>
<Placemark><name>ALMA01</name><description>230301 PORT ALMA (Lleida)
posicio de les: 03/08/2018 23:58:24</description><styleUrl>#w_grocP</styleUrl><Point><coordinates>0.43370246887207,41.7320287227631,0</coordinates></Point></Placemark>
<Placemark><name>ALMA02</name><description>230302 PORT ALMA (Lleida)
posicio de les: 03/08/2018 23:58:08</description><styleUrl>#w_grocP</styleUrl><Point><coordinates>0.433777570724487,41.7319536209106,0</coordinates></Point></Placemark>
<Placemark><name>BALA57</name><description>230657 PORT.COM BALA (Lleida)
posicio de les: 03/08/2018 23:58:39</description><styleUrl>#w_grocP</styleUrl><Point><coordinates>0.805424451828003,41.7994272708893,0</coordinates></Point></Placemark>
<Placemark><name>BORG01</name><description>230701 PORT BORG (Lleida)
posicio de les: 03/08/2018 23:57:03</description><styleUrl>#w_verdP</styleUrl><Point><coordinates>0.844777822494507,41.5077209472656,0</coordinates></Point></Placemark>
<Placemark><name>BORG02</name><description>230702 PORT BORG (Lleida)
posicio de les: 03/08/2018 23:56:49</description><styleUrl>#w_verdP</styleUrl><Point><coordinates>0.877372026443481,41.5127205848694,0</coordinates></Point></Placemark>
<Placemark><name>230704</name><description>230704 PORT BORG (Lleida)
posicio de les: 03/08/2018 23:58:28</description><styleUrl>#w_grocP</styleUrl><Point><coordinates>0.877747535705566,41.5126132965088,0</coordinates></Point></Placemark>
<Placemark><name>BORG06</name><description>230706 PORT BORG (Lleida)
posicio de les: 03/08/2018 23:59:09</description><styleUrl>#w_grocP</styleUrl><Point><coordinates>0.877565145492554,41.5125703811646,0</coordinates></Point></Placemark>
<Placemark><name>BORG07</name><description>230707 PORT BORG (Lleida)
posicio de les: 03/08/2018 23:58:30</description><styleUrl>#w_grocP</styleUrl><Point><coordinates>0.877350568771362,41.5125918388367,0</coordinates></Point></Placemark>
<Placemark><name>30730</name><description>230730 BRP BORG (Lleida)
posicio de les: 03/08/2018 23:57:55</description><styleUrl>#w_grocC</styleUrl><Point><coordinates>0.877672433853149,41.5125381946564,0</coordinates></Point></Placemark>
<Placemark><name>30748</name><description>230748 BUL BORG (Lleida)
posicio de les: 03/08/2018 23:57:54</description><styleUrl>#w_grocC</styleUrl><Point><coordinates>0.877575874328613,41.5126240253448,0</coordinates></Point></Placemark>
<Placemark><name>BORG56</name><description>230756 PORT.COM BORG (Lleida)
posicio de les: 03/08/2018 23:58:54</description><styleUrl>#w_grocP</styleUrl><Point><coordinates>0.844563245773315,41.507248878479,0</coordinates></Point></Placemark>
<Placemark><name>CERV08</name><description>230908 PORT CERV (Lleida)
posicio de les: 03/08/2018 23:56:43</description><styleUrl>#w_verdP</styleUrl><Point><coordinates>1.26513361930847,41.6712605953217,0</coordinates></Point></Placemark>
<Placemark><name>ISON56</name><description>231556 PORT.COM ISON (Lleida)
posicio de les: 03/08/2018 23:57:57</description><styleUrl>#w_verdP</styleUrl><Point><coordinates>1.04846477508545,42.119060754776,0</coordinates></Point></Placemark>
<Placemark><name>LLEI13</name><description>231913 PORT LLEI (Lleida)
posicio de les: 03/08/2018 23:59:16</description><styleUrl>#w_verdP</styleUrl><Point><coordinates>0.527611970901489,41.6534721851349,0</coordinates></Point></Placemark>
<Placemark><name>MOLL07</name><description>232007 PORT MOLL (Lleida)
posicio de les: 03/08/2018 23:58:36</description><styleUrl>#w_verdP</styleUrl><Point><coordinates>0.898293256759644,41.6365313529968,0</coordinates></Point></Placemark>
<Placemark><name>32031</name><description>232031 BRP MOLL (Lleida)
posicio de les: 03/08/2018 23:54:51</description><styleUrl>#w_grocC</styleUrl><Point><coordinates>0.898185968399048,41.6363918781281,0</coordinates></Point></Placemark>
<Placemark><name>POBL01</name><description>232401 PORT POBL (Lleida)
posicio de les: 03/08/2018 23:58:25</description><styleUrl>#w_grocP</styleUrl><Point><coordinates>0.952988862991333,42.246025800705,0</coordinates></Point></Placemark>
<Placemark><name>SORT02</name><description>233002 PORT SORT (Lleida)
posicio de les: 03/08/2018 23:58:11</description><styleUrl>#w_verdP</styleUrl><Point><coordinates>1.12909197807312,42.4088144302368,0</coordinates></Point></Placemark>
<Placemark><name>E0REMN</name><description>240012 P.Tec REGIÓ
posicio de les: 03/08/2018 23:55:07</description><styleUrl>#w_grocP</styleUrl><Point><coordinates>2.198885679245,41.5376543998718,0</coordinates></Point></Placemark>
<Placemark><name>GE0REMN</name><description>240013 P.Tec REGIÓ
posicio de les: 03/08/2018 23:58:28</description><styleUrl>#w_verdP</styleUrl><Point><coordinates>2.19969034194946,41.5372467041016,0</coordinates></Point></Placemark>
<Placemark><name>40081</name><description>240081  REGIÓ
posicio de les: 03/08/2018 23:56:53</description><styleUrl>#w_groc</styleUrl><Point><coordinates>2.11236834526062,41.5022492408752,0</coordinates></Point></Placemark>
<Placemark><name>40091</name><description>240091  REGIÓ
posicio de les: 03/08/2018 23:56:53</description><styleUrl>#w_verd</styleUrl><Point><coordinates>2.11190700531006,41.5023243427277,0</coordinates></Point></Placemark>
<Placemark><name>40093</name><description>240093  REGIÓ
posicio de les: 03/08/2018 23:57:06</description><styleUrl>#w_groc</styleUrl><Point><coordinates>2.19975471496582,41.5372252464294,0</coordinates></Point></Placemark>
<Placemark><name>40290</name><description>240290 UPC BAD (Metro. Nord)
posicio de les: 03/08/2018 23:57:24</description><styleUrl>#w_groc</styleUrl><Point><coordinates>2.20918536186218,41.4632821083069,0</coordinates></Point></Placemark>
<Placemark><name>CER06</name><description>240506 PORT CER (Metro. Nord)
posicio de les: 03/08/2018 23:57:34</description><styleUrl>#w_verdP</styleUrl><Point><coordinates>2.11159586906433,41.5025389194489,0</coordinates></Point></Placemark>
<Placemark><name>40690</name><description>240690 UPC GRA (Metro. Nord)
posicio de les: 03/08/2018 23:58:21</description><styleUrl>#w_verd</styleUrl><Point><coordinates>2.42261409759521,41.532096862793,0</coordinates></Point></Placemark>
<Placemark><name>MTD03</name><description>240803 PORT MTD (Metro. Nord)
posicio de les: 03/08/2018 23:57:40</description><styleUrl>#w_verdP</styleUrl><Point><coordinates>2.01266527175903,41.6436660289764,0</coordinates></Point></Placemark>
<Placemark><name>MAT03</name><description>240903 PORT MAT (Metro. Nord)
posicio de les: 03/08/2018 23:58:51</description><styleUrl>#w_verdP</styleUrl><Point><coordinates>2.42269992828369,41.5321183204651,0</coordinates></Point></Placemark>
<Placemark><name>MAT07</name><description>240907 PORT MAT (Metro. Nord)
posicio de les: 03/08/2018 23:55:01</description><styleUrl>#w_grocP</styleUrl><Point><coordinates>2.42265701293945,41.5321290493011,0</coordinates></Point></Placemark>
<Placemark><name>40940</name><description>240940 BUP MAT (Metro. Nord)
posicio de les: 03/08/2018 23:57:52</description><styleUrl>#w_verdC</styleUrl><Point><coordinates>2.4228823184967,41.5324079990387,0</coordinates></Point></Placemark>
<Placemark><name>MOL03</name><description>241003 PORT MOL (Metro. Nord)
posicio de les: 03/08/2018 23:57:58</description><styleUrl>#w_verdP</styleUrl><Point><coordinates>2.20136404037476,41.537150144577,0</coordinates></Point></Placemark>
<Placemark><name>241040</name><description>241040 BUP MOL (Metro. Nord)
posicio de les: 03/08/2018 23:56:15</description><styleUrl>#w_grocC</styleUrl><Point><coordinates>2.202308177948,41.5364742279053,0</coordinates></Point></Placemark>
<Placemark><name>241048</name><description>241048 BUL MOL (Metro. Nord)
posicio de les: 03/08/2018 23:59:01</description><styleUrl>#w_verdC</styleUrl><Point><coordinates>2.20199704170227,41.5367424488068,0</coordinates></Point></Placemark>
<Placemark><name>MOL56</name><description>241056 PORT.COM MOL (Metro. Nord)
posicio de les: 03/08/2018 23:57:22</description><styleUrl>#w_verdP</styleUrl><Point><coordinates>2.20199704170227,41.5367960929871,0</coordinates></Point></Placemark>
<Placemark><name>RUB01</name><description>241301 PORT RUB (Metro. Nord)
posicio de les: 03/08/2018 23:58:15</description><styleUrl>#w_verdP</styleUrl><Point><coordinates>2.03513145446777,41.4732813835144,0</coordinates></Point></Placemark>
<Placemark><name>241440</name><description>241440 BUP SAB (Metro. Nord)
posicio de les: 03/08/2018 23:55:52</description><styleUrl>#w_grocC</styleUrl><Point><coordinates>2.10404276847839,41.5425145626068,0</coordinates></Point></Placemark>
<Placemark><name>SCE07</name><description>241607 PORT SCE (Metro. Nord)
posicio de les: 03/08/2018 23:58:41</description><styleUrl>#w_verdP</styleUrl><Point><coordinates>2.50699639320374,41.6952073574066,0</coordinates></Point></Placemark>
<Placemark><name>241858</name><description>241858 BSAL SCG (Metro. Nord)
posicio de les: 03/08/2018 23:59:06</description><styleUrl>#w_grocB</styleUrl><Point><coordinates>2.20933556556702,41.4633786678314,0</coordinates></Point></Placemark>
<Placemark><name>242040</name><description>242040 BUP TER (Metro. Nord)
posicio de les: 03/08/2018 23:56:37</description><styleUrl>#w_grocC</styleUrl><Point><coordinates>2.02592611312866,41.5680491924286,0</coordinates></Point></Placemark>
<Placemark><name>D3REMN</name><description>248043  SERVEIS REGIÓ
posicio de les: 03/08/2018 23:57:58</description><styleUrl>#w_verd</styleUrl><Point><coordinates>2.11232542991638,41.5023994445801,0</coordinates></Point></Placemark>
<Placemark><name>REMS14</name><description>250014 P.Tec REGIÓ
posicio de les: 03/08/2018 23:55:30</description><styleUrl>#w_verdP</styleUrl><Point><coordinates>2.03418731689453,41.3232171535492,0</coordinates></Point></Placemark>
<Placemark><name>50092</name><description>250092  REGIÓ
posicio de les: 03/08/2018 23:57:24</description><styleUrl>#w_verd</styleUrl><Point><coordinates>1.71384572982788,41.2196087837219,0</coordinates></Point></Placemark>
<Placemark><name>50093</name><description>250093  REGIÓ
posicio de les: 03/08/2018 23:57:38</description><styleUrl>#w_groc</styleUrl><Point><coordinates>2.03432679176331,41.3229703903198,0</coordinates></Point></Placemark>
<Placemark><name>COR03</name><description>250403 PORT COR (Metro. Sud)
posicio de les: 03/08/2018 23:58:48</description><styleUrl>#w_verdP</styleUrl><Point><coordinates>2.07046151161194,41.3605427742004,0</coordinates></Point></Placemark>
<Placemark><name>COR07</name><description>250407 PORT COR (Metro. Sud)
posicio de les: 03/08/2018 23:56:00</description><styleUrl>#w_verdP</styleUrl><Point><coordinates>2.07111597061157,41.3605642318726,0</coordinates></Point></Placemark>
<Placemark><name>COR56</name><description>250456 PORT.COM COR (Metro. Sud)
posicio de les: 03/08/2018 23:57:12</description><styleUrl>#w_verdP</styleUrl><Point><coordinates>2.07051515579224,41.3607251644135,0</coordinates></Point></Placemark>
<Placemark><name>GAV57</name><description>250557 PORT.COM GAV (Metro. Sud)
posicio de les: 03/08/2018 23:57:11</description><styleUrl>#w_grocP</styleUrl><Point><coordinates>1.99029564857483,41.3000965118408,0</coordinates></Point></Placemark>
<Placemark><name>250740</name><description>250740 BUP HOS (Metro. Sud)
posicio de les: 03/08/2018 23:59:22</description><styleUrl>#w_verdC</styleUrl><Point><coordinates>2.11967468261719,41.3391065597534,0</coordinates></Point></Placemark>
<Placemark><name>IGU20E</name><description>250820 PORT IGU (Metro. Sud)
posicio de les: 03/08/2018 23:57:51</description><styleUrl>#w_grocP</styleUrl><Point><coordinates>1.61011934280396,41.5893888473511,0</coordinates></Point></Placemark>
<Placemark><name>MAR01</name><description>251001 PORT MAR (Metro. Sud)
posicio de les: 03/08/2018 23:55:36</description><styleUrl>#w_verdP</styleUrl><Point><coordinates>1.9080913066864,41.4987516403198,0</coordinates></Point></Placemark>
<Placemark><name>MAR10</name><description>251010 PORT MAR (Metro. Sud)
posicio de les: 03/08/2018 23:59:22</description><styleUrl>#w_verdP</styleUrl><Point><coordinates>1.90779089927673,41.498783826828,0</coordinates></Point></Placemark>
<Placemark><name>MAR11</name><description>251011 PORT MAR (Metro. Sud)
posicio de les: 03/08/2018 23:58:57</description><styleUrl>#w_verdP</styleUrl><Point><coordinates>1.90802693367004,41.4989984035492,0</coordinates></Point></Placemark>
<Placemark><name>51030</name><description>251030 BRP MAR (Metro. Sud)
posicio de les: 03/08/2018 23:58:35</description><styleUrl>#w_grocC</styleUrl><Point><coordinates>1.90802693367004,41.4988267421722,0</coordinates></Point></Placemark>
<Placemark><name>251040</name><description>251040 BUP MAR (Metro. Sud)
posicio de les: 03/08/2018 23:59:18</description><styleUrl>#w_grocC</styleUrl><Point><coordinates>1.88454151153564,41.5502393245697,0</coordinates></Point></Placemark>
<Placemark><name>MAR56</name><description>251056 PORT.COM MAR (Metro. Sud)
posicio de les: 03/08/2018 23:58:52</description><styleUrl>#w_verdP</styleUrl><Point><coordinates>1.88454151153564,41.5502715110779,0</coordinates></Point></Placemark>
<Placemark><name>PLL03</name><description>251203 PORT PLL (Metro. Sud)
posicio de les: 03/08/2018 23:58:59</description><styleUrl>#w_grocP</styleUrl><Point><coordinates>2.08138346672058,41.3173806667328,0</coordinates></Point></Placemark>
<Placemark><name>PLL57</name><description>251257 PORT.COM PLL (Metro. Sud)
posicio de les: 03/08/2018 23:58:44</description><styleUrl>#w_verdP</styleUrl><Point><coordinates>2.08165168762207,41.3175415992737,0</coordinates></Point></Placemark>
<Placemark><name>SBOI02</name><description>251302 PORT SBOI (Metro. Sud)
posicio de les: 03/08/2018 23:57:30</description><styleUrl>#w_grocP</styleUrl><Point><coordinates>2.03405857086182,41.3227021694183,0</coordinates></Point></Placemark>
<Placemark><name>SFE03</name><description>251503 PORT SFE (Metro. Sud)
posicio de les: 03/08/2018 23:58:02</description><styleUrl>#w_verdP</styleUrl><Point><coordinates>2.0425021648407,41.388566493988,0</coordinates></Point></Placemark>
<Placemark><name>VIF03</name><description>251803 PORT VIF (Metro. Sud)
posicio de les: 03/08/2018 23:57:48</description><styleUrl>#w_verdP</styleUrl><Point><coordinates>1.70406103134155,41.3547599315643,0</coordinates></Point></Placemark>
<Placemark><name>51860</name><description>251860 AEA/AES/ABA VIF (Metro. Sud)
posicio de les: 03/08/2018 23:56:35</description><styleUrl>#w_verdC</styleUrl><Point><coordinates>1.70446872711182,41.3541162014008,0</coordinates></Point></Placemark>
<Placemark><name>SCREMS3</name><description>258003 P.COMODIN SERVEIS REGIÓ
posicio de les: 03/08/2018 23:58:10</description><styleUrl>#w_verdP</styleUrl><Point><coordinates>2.03350067138672,41.3229167461395,0</coordinates></Point></Placemark>
<Placemark><name>260508</name><description>260508 PORT HOSP (Tarragona)
posicio de les: 03/08/2018 23:59:14</description><styleUrl>#w_grocP</styleUrl><Point><coordinates>0.919944047927856,40.9937024116516,0</coordinates></Point></Placemark>
<Placemark><name>260530</name><description>260530 BRP HOSP (Tarragona)
posicio de les: 03/08/2018 23:59:21</description><styleUrl>#w_verdC</styleUrl><Point><coordinates>0.841162204742432,40.9349513053894,0</coordinates></Point></Placemark>
<Placemark><name>HOSP56</name><description>260556 PORT.COM HOSP (Tarragona)
posicio de les: 03/08/2018 23:59:13</description><styleUrl>#w_verdP</styleUrl><Point><coordinates>0.840378999710083,40.933974981308,0</coordinates></Point></Placemark>
<Placemark><name>60890</name><description>260890 UPC REUS (Tarragona)
posicio de les: 03/08/2018 23:55:53</description><styleUrl>#w_groc</styleUrl><Point><coordinates>1.11825585365295,41.1512124538422,0</coordinates></Point></Placemark>
<Placemark><name>TARR01</name><description>261201 PORT TARR (Tarragona)
posicio de les: 03/08/2018 23:58:06</description><styleUrl>#w_verdP</styleUrl><Point><coordinates>1.18577241897583,41.134432554245,0</coordinates></Point></Placemark>
<Placemark><name>TARR04</name><description>261204 PORT TARR (Tarragona)
posicio de les: 03/08/2018 23:58:52</description><styleUrl>#w_verdP</styleUrl><Point><coordinates>1.22202515602112,41.1137473583221,0</coordinates></Point></Placemark>
<Placemark><name>61460</name><description>261460 AEA/AES/ABA VEND (Tarragona)
posicio de les: 03/08/2018 23:56:26</description><styleUrl>#w_verdC</styleUrl><Point><coordinates>0.512312650680542,40.8191013336182,0</coordinates></Point></Placemark>
<Placemark><name>SCRET</name><description>268001 P.COMODIN SERVEIS REGIÓ
posicio de les: 03/08/2018 23:57:39</description><styleUrl>#w_verdP</styleUrl><Point><coordinates>1.18493556976318,41.1353230476379,0</coordinates></Point></Placemark>
<Placemark><name>E00RETE</name><description>270014 P.Tec REGIÓ
posicio de les: 03/08/2018 23:58:18</description><styleUrl>#w_verdP</styleUrl><Point><coordinates>0.513042211532593,40.8196592330933,0</coordinates></Point></Placemark>
<Placemark><name>70092</name><description>270092  REGIÓ
posicio de les: 03/08/2018 23:56:16</description><styleUrl>#w_verd</styleUrl><Point><coordinates>0.512334108352661,40.8192944526672,0</coordinates></Point></Placemark>
<Placemark><name>AMET02</name><description>272002 PORT AMET (Terres de l'Ebre)
posicio de les: 03/08/2018 23:58:55</description><styleUrl>#w_verdP</styleUrl><Point><coordinates>0.830090045928955,40.9273445606232,0</coordinates></Point></Placemark>
<Placemark><name>AMET06</name><description>272006 PORT AMET (Terres de l'Ebre)
posicio de les: 03/08/2018 23:59:04</description><styleUrl>#w_grocP</styleUrl><Point><coordinates>0.830358266830444,40.9274625778198,0</coordinates></Point></Placemark>
<Placemark><name>72031</name><description>272031 BRP AMET (Terres de l'Ebre)
posicio de les: 03/08/2018 23:55:59</description><styleUrl>#w_grocC</styleUrl><Point><coordinates>0.830175876617432,40.9272480010986,0</coordinates></Point></Placemark>
<Placemark><name>272130</name><description>272130 BRP AMPO (Terres de l'Ebre)
posicio de les: 03/08/2018 23:55:27</description><styleUrl>#w_grocC</styleUrl><Point><coordinates>0.57853102684021,40.702908039093,0</coordinates></Point></Placemark>
<Placemark><name>AMPO57</name><description>272157 PORT.COM AMPO (Terres de l'Ebre)
posicio de les: 03/08/2018 23:58:11</description><styleUrl>#w_verdP</styleUrl><Point><coordinates>0.579603910446167,40.6890034675598,0</coordinates></Point></Placemark>
<Placemark><name>ASCO56</name><description>272256 PORT.COM ASCO (Terres de l'Ebre)
posicio de les: 03/08/2018 23:58:35</description><styleUrl>#w_grocP</styleUrl><Point><coordinates>0.568896532058716,41.1879050731659,0</coordinates></Point></Placemark>
<Placemark><name>MORA06</name><description>272806 PORT MORA (Terres de l'Ebre)
posicio de les: 03/08/2018 23:57:57</description><styleUrl>#w_verdP</styleUrl><Point><coordinates>0.629074573516846,41.0862171649933,0</coordinates></Point></Placemark>
<Placemark><name>ULLD08</name><description>273108 PORT ULLD (Terres de l'Ebre)
posicio de les: 03/08/2018 23:58:06</description><styleUrl>#w_grocP</styleUrl><Point><coordinates>0.358085632324219,40.6087946891785,0</coordinates></Point></Placemark>
</Folder>
<Folder>
<name>Descarregues</name>
</Folder>
<Style id="w_verdP_n"><IconStyle><color>ff00ff00</color><scale>1.0</scale><Icon><href>http://maps.google.com/mapfiles/kml/shapes/man.png</href></Icon><hotSpot x="0.5" y="0" xunits="fraction" yunits="fraction"/></IconStyle><LabelStyle><scale>0.7</scale></LabelStyle></Style>
<Style id="w_verdP_s"><IconStyle><color>ff00ff00</color><scale>1.4</scale><Icon><href>http://maps.google.com/mapfiles/kml/shapes/man.png</href></Icon><hotSpot x="0.5" y="0" xunits="fraction" yunits="fraction"/></IconStyle><LabelStyle><scale>0.7</scale></LabelStyle></Style>
<StyleMap id="w_verdP"><Pair><key>normal</key><styleUrl>#w_verdP_n</styleUrl></Pair><Pair><key>highlight</key><styleUrl>#w_verdP_s</styleUrl></Pair></StyleMap>
<Style id="w_verd_n"><IconStyle><color>ff00ff00</color><scale>0.7</scale><Icon><href>http://maps.google.com/mapfiles/kml/shapes/cabs.png</href></Icon><hotSpot x="0.5" y="0" xunits="fraction" yunits="fraction"/></IconStyle><LabelStyle><scale>0.7</scale></LabelStyle></Style>
<Style id="w_verd_s"><IconStyle><color>ff00ff00</color><scale>1.0</scale><Icon><href>http://maps.google.com/mapfiles/kml/shapes/cabs.png</href></Icon><hotSpot x="0.5" y="0" xunits="fraction" yunits="fraction"/></IconStyle><LabelStyle><scale>0.7</scale></LabelStyle></Style>
<StyleMap id="w_verd"><Pair><key>normal</key><styleUrl>#w_verd_n</styleUrl></Pair><Pair><key>highlight</key><styleUrl>#w_verd_s</styleUrl></Pair></StyleMap>
<Style id="w_verdC_n"><IconStyle><color>ff00ff00</color><scale>1.0</scale><Icon><href>http://maps.google.com/mapfiles/kml/shapes/truck.png</href></Icon><hotSpot x="0.5" y="0" xunits="fraction" yunits="fraction"/></IconStyle><LabelStyle><scale>0.7</scale></LabelStyle></Style>
<Style id="w_verdC_s"><IconStyle><color>ff00ff00</color><scale>1.4</scale><Icon><href>http://maps.google.com/mapfiles/kml/shapes/truck.png</href></Icon><hotSpot x="0.5" y="0" xunits="fraction" yunits="fraction"/></IconStyle><LabelStyle><scale>0.7</scale></LabelStyle></Style>
<StyleMap id="w_verdC"><Pair><key>normal</key><styleUrl>#w_verdC_n</styleUrl></Pair><Pair><key>highlight</key><styleUrl>#w_verdC_s</styleUrl></Pair></StyleMap>
<Style id="w_verdH_n"><IconStyle><color>ff0000ff</color><scale>1.2</scale><Icon><href>http://maps.google.com/mapfiles/kml/shapes/heliport.png</href></Icon><hotSpot x="0.5" y="0" xunits="fraction" yunits="fraction"/></IconStyle><LabelStyle><scale>0.7</scale></LabelStyle></Style>
<Style id="w_verdH_s"><IconStyle><color>ff0000ff</color><scale>1.4</scale><Icon><href>http://maps.google.com/mapfiles/kml/shapes/heliport.png</href></Icon><hotSpot x="0.5" y="0" xunits="fraction" yunits="fraction"/></IconStyle><LabelStyle><scale>0.7</scale></LabelStyle></Style>
<StyleMap id="w_verdH"><Pair><key>normal</key><styleUrl>#w_verdH_n</styleUrl></Pair><Pair><key>highlight</key><styleUrl>#w_verdH_s</styleUrl></Pair></StyleMap>
<Style id="w_verdA_n"><IconStyle><color>ff0000ff</color><scale>1.2</scale><Icon><href>http://maps.google.com/mapfiles/kml/shapes/airports.png</href></Icon><hotSpot x="0.5" y="0" xunits="fraction" yunits="fraction"/></IconStyle><LabelStyle><scale>0.7</scale></LabelStyle></Style>
<Style id="w_verdA_s"><IconStyle><color>ff0000ff</color><scale>1.4</scale><Icon><href>http://maps.google.com/mapfiles/kml/shapes/airports.png</href></Icon><hotSpot x="0.5" y="0" xunits="fraction" yunits="fraction"/></IconStyle><LabelStyle><scale>0.7</scale></LabelStyle></Style>
<StyleMap id="w_verdA"><Pair><key>normal</key><styleUrl>#w_verdA_n</styleUrl></Pair><Pair><key>highlight</key><styleUrl>#w_verdA_s</styleUrl></Pair></StyleMap>
<Style id="w_verdB_n"><IconStyle><color>ff00ff00</color><scale>1.0</scale><Icon><href>http://maps.google.com/mapfiles/kml/shapes/sailing.png</href></Icon><hotSpot x="0.5" y="0" xunits="fraction" yunits="fraction"/></IconStyle><LabelStyle><scale>0.7</scale></LabelStyle></Style>
<Style id="w_verdB_s"><IconStyle><color>ff00ff00</color><scale>1.4</scale><Icon><href>http://maps.google.com/mapfiles/kml/shapes/sailing.png</href></Icon><hotSpot x="0.5" y="0" xunits="fraction" yunits="fraction"/></IconStyle><LabelStyle><scale>0.7</scale></LabelStyle></Style>
<StyleMap id="w_verdB"><Pair><key>normal</key><styleUrl>#w_verdBAR_n</styleUrl></Pair><Pair><key>highlight</key><styleUrl>#w_verdBAR_s</styleUrl></Pair></StyleMap>
<Style id="w_grocP_n"><IconStyle><color>ff00ffff</color><scale>1.0</scale><Icon><href>http://maps.google.com/mapfiles/kml/shapes/man.png</href></Icon><hotSpot x="0.5" y="0" xunits="fraction" yunits="fraction"/></IconStyle><LabelStyle><scale>0.7</scale></LabelStyle></Style>
<Style id="w_grocP_s"><IconStyle><color>ff00ffff</color><scale>1.4</scale><Icon><href>http://maps.google.com/mapfiles/kml/shapes/man.png</href></Icon><hotSpot x="0.5" y="0" xunits="fraction" yunits="fraction"/></IconStyle><LabelStyle><scale>0.7</scale></LabelStyle></Style>
<StyleMap id="w_grocP"><Pair><key>normal</key><styleUrl>#w_grocP_n</styleUrl></Pair><Pair><key>highlight</key><styleUrl>#w_grocP_s</styleUrl></Pair></StyleMap>
<Style id="w_groc_n"><IconStyle><color>ff00ffff</color><scale>0.7</scale><Icon><href>http://maps.google.com/mapfiles/kml/shapes/cabs.png</href></Icon><hotSpot x="0.5" y="0" xunits="fraction" yunits="fraction"/></IconStyle><LabelStyle><scale>0.7</scale></LabelStyle></Style>
<Style id="w_groc_s"><IconStyle><color>ff00ffff</color><scale>1.0</scale><Icon><href>http://maps.google.com/mapfiles/kml/shapes/cabs.png</href></Icon><hotSpot x="0.5" y="0" xunits="fraction" yunits="fraction"/></IconStyle><LabelStyle><scale>0.7</scale></LabelStyle></Style>
<StyleMap id="w_groc"><Pair><key>normal</key><styleUrl>#w_groc_n</styleUrl></Pair><Pair><key>highlight</key><styleUrl>#w_groc_s</styleUrl></Pair></StyleMap>
<Style id="w_grocC_n"><IconStyle><color>ff00ffff</color><scale>1.0</scale><Icon><href>http://maps.google.com/mapfiles/kml/shapes/truck.png</href></Icon><hotSpot x="0.5" y="0" xunits="fraction" yunits="fraction"/></IconStyle><LabelStyle><scale>0.7</scale></LabelStyle></Style>
<Style id="w_grocC_s"><IconStyle><color>ff00ffff</color><scale>1.4</scale><Icon><href>http://maps.google.com/mapfiles/kml/shapes/truck.png</href></Icon><hotSpot x="0.5" y="0" xunits="fraction" yunits="fraction"/></IconStyle><LabelStyle><scale>0.7</scale></LabelStyle></Style>
<StyleMap id="w_grocC"><Pair><key>normal</key><styleUrl>#w_grocC_n</styleUrl></Pair><Pair><key>highlight</key><styleUrl>#w_grocC_s</styleUrl></Pair></StyleMap>
<Style id="w_grocH_n"><IconStyle><color>ff0000ff</color><scale>1.2</scale><Icon><href>http://maps.google.com/mapfiles/kml/shapes/heliport.png</href></Icon><hotSpot x="0.5" y="0" xunits="fraction" yunits="fraction"/></IconStyle><LabelStyle><scale>0.7</scale></LabelStyle></Style>
<Style id="w_grocH_s"><IconStyle><color>ff0000ff</color><scale>1.4</scale><Icon><href>http://maps.google.com/mapfiles/kml/shapes/heliport.png</href></Icon><hotSpot x="0.5" y="0" xunits="fraction" yunits="fraction"/></IconStyle><LabelStyle><scale>0.7</scale></LabelStyle></Style>
<StyleMap id="w_grocH"><Pair><key>normal</key><styleUrl>#w_grocH_n</styleUrl></Pair><Pair><key>highlight</key><styleUrl>#w_grocH_s</styleUrl></Pair></StyleMap>
<Style id="w_grocA_n"><IconStyle><color>ff0000ff</color><scale>1.2</scale><Icon><href>http://maps.google.com/mapfiles/kml/shapes/airports.png</href></Icon><hotSpot x="0.5" y="0" xunits="fraction" yunits="fraction"/></IconStyle><LabelStyle><scale>0.7</scale></LabelStyle></Style>
<Style id="w_grocA_s"><IconStyle><color>ff0000ff</color><scale>1.4</scale><Icon><href>http://maps.google.com/mapfiles/kml/shapes/airports.png</href></Icon><hotSpot x="0.5" y="0" xunits="fraction" yunits="fraction"/></IconStyle><LabelStyle><scale>0.7</scale></LabelStyle></Style>
<StyleMap id="w_grocA"><Pair><key>normal</key><styleUrl>#w_grocA_n</styleUrl></Pair><Pair><key>highlight</key><styleUrl>#w_grocA_s</styleUrl></Pair></StyleMap>
<Style id="w_grocB_n"><IconStyle><color>ff00ffff</color><scale>1.0</scale><Icon><href>http://maps.google.com/mapfiles/kml/shapes/sailing.png</href></Icon><hotSpot x="0.5" y="0" xunits="fraction" yunits="fraction"/></IconStyle><LabelStyle><scale>0.7</scale></LabelStyle></Style>
<Style id="w_grocB_s"><IconStyle><color>ff00ffff</color><scale>1.4</scale><Icon><href>http://maps.google.com/mapfiles/kml/shapes/sailing.png</href></Icon><hotSpot x="0.5" y="0" xunits="fraction" yunits="fraction"/></IconStyle><LabelStyle><scale>0.7</scale></LabelStyle></Style>
<StyleMap id="w_grocB"><Pair><key>normal</key><styleUrl>#w_grocBAR_n</styleUrl></Pair><Pair><key>highlight</key><styleUrl>#w_grocBAR_s</styleUrl></Pair></StyleMap>
<Style id="w_vermellP_n"><IconStyle><color>ff0000ff</color><scale>1.0</scale><Icon><href>http://maps.google.com/mapfiles/kml/shapes/man.png</href></Icon><hotSpot x="0.5" y="0" xunits="fraction" yunits="fraction"/></IconStyle><LabelStyle><scale>0.7</scale></LabelStyle></Style>
<Style id="w_vermellP_s"><IconStyle><color>ff0000ff</color><scale>1.4</scale><Icon><href>http://maps.google.com/mapfiles/kml/shapes/man.png</href></Icon><hotSpot x="0.5" y="0" xunits="fraction" yunits="fraction"/></IconStyle><LabelStyle><scale>0.7</scale></LabelStyle></Style>
<StyleMap id="w_vermellP"><Pair><key>normal</key><styleUrl>#w_vermellP_n</styleUrl></Pair><Pair><key>highlight</key><styleUrl>#w_vermellP_s</styleUrl></Pair></StyleMap>
<Style id="w_vermell_n"><IconStyle><color>ff0000ff</color><scale>0.7</scale><Icon><href>http://maps.google.com/mapfiles/kml/shapes/cabs.png</href></Icon><hotSpot x="0.5" y="0" xunits="fraction" yunits="fraction"/></IconStyle><LabelStyle><scale>0.7</scale></LabelStyle></Style>
<Style id="w_vermell_s"><IconStyle><color>ff0000ff</color><scale>1.0</scale><Icon><href>http://maps.google.com/mapfiles/kml/shapes/cabs.png</href></Icon><hotSpot x="0.5" y="0" xunits="fraction" yunits="fraction"/></IconStyle><LabelStyle><scale>0.7</scale></LabelStyle></Style>
<StyleMap id="w_vermell"><Pair><key>normal</key><styleUrl>#w_vermell_n</styleUrl></Pair><Pair><key>highlight</key><styleUrl>#w_vermell_s</styleUrl></Pair></StyleMap>
<Style id="w_vermellC_n"><IconStyle><color>ff0000ff</color><scale>1.0</scale><Icon><href>http://maps.google.com/mapfiles/kml/shapes/truck.png</href></Icon><hotSpot x="0.5" y="0" xunits="fraction" yunits="fraction"/></IconStyle><LabelStyle><scale>0.7</scale></LabelStyle></Style>
<Style id="w_vermellC_s"><IconStyle><color>ff0000ff</color><scale>1.4</scale><Icon><href>http://maps.google.com/mapfiles/kml/shapes/truck.png</href></Icon><hotSpot x="0.5" y="0" xunits="fraction" yunits="fraction"/></IconStyle><LabelStyle><scale>0.7</scale></LabelStyle></Style>
<StyleMap id="w_vermellC"><Pair><key>normal</key><styleUrl>#w_vermellC_n</styleUrl></Pair><Pair><key>highlight</key><styleUrl>#w_vermellC_s</styleUrl></Pair></StyleMap>
<Style id="w_vermellH_n"><IconStyle><color>ff0000ff</color><scale>1.2</scale><Icon><href>http://maps.google.com/mapfiles/kml/shapes/heliport.png</href></Icon><hotSpot x="0.5" y="0" xunits="fraction" yunits="fraction"/></IconStyle><LabelStyle><scale>0.7</scale></LabelStyle></Style>
<Style id="w_vermellH_s"><IconStyle><color>ff0000ff</color><scale>1.4</scale><Icon><href>http://maps.google.com/mapfiles/kml/shapes/heliport.png</href></Icon><hotSpot x="0.5" y="0" xunits="fraction" yunits="fraction"/></IconStyle><LabelStyle><scale>0.7</scale></LabelStyle></Style>
<StyleMap id="w_vermellH"><Pair><key>normal</key><styleUrl>#w_vermellH_n</styleUrl></Pair><Pair><key>highlight</key><styleUrl>#w_vermellH_s</styleUrl></Pair></StyleMap>
<Style id="w_vermellA_n"><IconStyle><color>ff0000ff</color><scale>1.2</scale><Icon><href>http://maps.google.com/mapfiles/kml/shapes/airports.png</href></Icon><hotSpot x="0.5" y="0" xunits="fraction" yunits="fraction"/></IconStyle><LabelStyle><scale>0.7</scale></LabelStyle></Style>
<Style id="w_vermellA_s"><IconStyle><color>ff0000ff</color><scale>1.4</scale><Icon><href>http://maps.google.com/mapfiles/kml/shapes/airports.png</href></Icon><hotSpot x="0.5" y="0" xunits="fraction" yunits="fraction"/></IconStyle><LabelStyle><scale>0.7</scale></LabelStyle></Style>
<StyleMap id="w_vermellA"><Pair><key>normal</key><styleUrl>#w_vermellA_n</styleUrl></Pair><Pair><key>highlight</key><styleUrl>#w_vermellA_s</styleUrl></Pair></StyleMap>
<Style id="w_vermellB_n"><IconStyle><color>ff0000ff</color><scale>1.0</scale><Icon><href>http://maps.google.com/mapfiles/kml/shapes/sailing.png</href></Icon><hotSpot x="0.5" y="0" xunits="fraction" yunits="fraction"/></IconStyle><LabelStyle><scale>0.7</scale></LabelStyle></Style>
<Style id="w_vermellB_s"><IconStyle><color>ff0000ff</color><scale>1.4</scale><Icon><href>http://maps.google.com/mapfiles/kml/shapes/sailing.png</href></Icon><hotSpot x="0.5" y="0" xunits="fraction" yunits="fraction"/></IconStyle><LabelStyle><scale>0.7</scale></LabelStyle></Style>
<StyleMap id="w_vermellB"><Pair><key>normal</key><styleUrl>#w_vermellBAR_n</styleUrl></Pair><Pair><key>highlight</key><styleUrl>#w_vermellBAR_s</styleUrl></Pair></StyleMap>
<Style id="w_descarrega"><IconStyle><color>ff00ffff</color><scale>0.5</scale><Icon><href>http://maps.google.com/mapfiles/kml/shapes/road_shield3.png</href></Icon></IconStyle><LabelStyle><scale>0.7</scale></LabelStyle></Style><Style id="actuacio"><IconStyle><color>ff00ffff</color><scale>0.8</scale><Icon><href>http://maps.google.com/mapfiles/kml/shapes/caution.png</href></Icon></IconStyle><LabelStyle><scale>0.7</scale></LabelStyle></Style></Document></kml>