<?xml version="1.0" encoding="UTF-8"?>
<kml xmlns="http://www.opengis.net/kml/2.2" xmlns:gx="http://www.google.com/kml/ext/2.2" xmlns:kml="http://www.opengis.net/kml/2.2" xmlns:atom="http://www.w3.org/2005/Atom">
<Document>
<name>Terminals</name>
<Snippet maxLines="2">Created 04/08/2018 00:09:25</Snippet>
<Folder>
<name>Terminals</name>
<Placemark><name>GGRAF03</name><description>204203 P.UT
posicio de les: 04/08/2018 00:08:53</description><styleUrl>#w_verdP</styleUrl><Point><coordinates>2.80624508857727,41.9607138633728,0</coordinates></Point></Placemark>
<Placemark><name>OP05081</name><description>205281 OP.AAV
posicio de les: 04/08/2018 00:09:11</description><styleUrl>#w_verdP</styleUrl><Point><coordinates>2.10667133331299,41.5173983573914,0</coordinates></Point></Placemark>
<Placemark><name>VIEL12</name><description>208012 P.PT VARAN
posicio de les: 04/08/2018 00:08:51</description><styleUrl>#w_grocP</styleUrl><Point><coordinates>0.801347494125366,42.6994693279266,0</coordinates></Point></Placemark>
<Placemark><name>VIEL17</name><description>208017 BASE CCA VARAN
posicio de les: 04/08/2018 00:07:53</description><styleUrl>#w_verd</styleUrl><Point><coordinates>0.796734094619751,42.7081489562988,0</coordinates></Point></Placemark>
<Placemark><name>GE100</name><description>210017 P.Tec REGIÓ
posicio de les: 04/08/2018 00:08:39</description><styleUrl>#w_verdP</styleUrl><Point><coordinates>1.85146450996399,41.7412447929382,0</coordinates></Point></Placemark>
<Placemark><name>10071</name><description>210071  REGIÓ
posicio de les: 04/08/2018 00:07:13</description><styleUrl>#w_groc</styleUrl><Point><coordinates>1.8528163433075,41.7415130138397,0</coordinates></Point></Placemark>
<Placemark><name>BER57</name><description>210357 PORT.COM BER (Centre)
posicio de les: 04/08/2018 00:05:40</description><styleUrl>#w_verdP</styleUrl><Point><coordinates>1.85799837112427,42.1042227745056,0</coordinates></Point></Placemark>
<Placemark><name>CAR56</name><description>210556 PORT.COM CAR (Centre)
posicio de les: 04/08/2018 00:03:40</description><styleUrl>#w_verdP</styleUrl><Point><coordinates>1.70482277870178,41.9002139568329,0</coordinates></Point></Placemark>
<Placemark><name>10831</name><description>210831 BRP GUA (Centre)
posicio de les: 04/08/2018 00:09:16</description><styleUrl>#w_verdC</styleUrl><Point><coordinates>1.86623811721802,42.2156202793121,0</coordinates></Point></Placemark>
<Placemark><name>211130</name><description>211130 BRP MOI (Centre)
posicio de les: 04/08/2018 00:09:29</description><styleUrl>#w_grocC</styleUrl><Point><coordinates>2.08629727363586,41.8117547035217,0</coordinates></Point></Placemark>
<Placemark><name>PRA07</name><description>211407 PORT PRA (Centre)
posicio de les: 04/08/2018 00:06:59</description><styleUrl>#w_grocP</styleUrl><Point><coordinates>2.0363974571228,42.0078885555267,0</coordinates></Point></Placemark>
<Placemark><name>PUIG08</name><description>211508 PORT PUIG (Centre)
posicio de les: 04/08/2018 00:06:53</description><styleUrl>#w_verdP</styleUrl><Point><coordinates>1.90292000770569,42.4301648139954,0</coordinates></Point></Placemark>
<Placemark><name>SOLS05</name><description>211905 PORT SOLS (Centre)
posicio de les: 04/08/2018 00:07:33</description><styleUrl>#w_grocP</styleUrl><Point><coordinates>1.5125834941864,41.9895851612091,0</coordinates></Point></Placemark>
<Placemark><name>VIC04</name><description>212104 PORT VIC (Centre)
posicio de les: 04/08/2018 00:09:05</description><styleUrl>#w_verdP</styleUrl><Point><coordinates>2.26900935173035,41.9423353672028,0</coordinates></Point></Placemark>
<Placemark><name>CMC01</name><description>214501 PORT Parc X
posicio de les: 04/08/2018 00:09:03</description><styleUrl>#w_grocP</styleUrl><Point><coordinates>1.85196876525879,41.7416524887085,0</coordinates></Point></Placemark>
<Placemark><name>20091</name><description>220091  REGIÓ
posicio de les: 04/08/2018 00:04:56</description><styleUrl>#w_groc</styleUrl><Point><coordinates>2.80682444572449,41.9594049453735,0</coordinates></Point></Placemark>
<Placemark><name>20134</name><description>220134 BFP AMER (Girona)
posicio de les: 04/08/2018 00:07:55</description><styleUrl>#w_grocC</styleUrl><Point><coordinates>3.15365552902222,42.3578202724457,0</coordinates></Point></Placemark>
<Placemark><name>BANY56</name><description>220356 PORT.COM BANY (Girona)
posicio de les: 04/08/2018 00:05:46</description><styleUrl>#w_verdP</styleUrl><Point><coordinates>2.78565645217896,42.1176874637604,0</coordinates></Point></Placemark>
<Placemark><name>220656</name><description>220656 PORT.COM CALO (Girona)
posicio de les: 04/08/2018 00:08:01</description><styleUrl>#w_verdP</styleUrl><Point><coordinates>3.07449817657471,41.8528246879578,0</coordinates></Point></Placemark>
<Placemark><name>CASS04</name><description>220804 PORT CASS (Girona)
posicio de les: 04/08/2018 00:08:12</description><styleUrl>#w_verdP</styleUrl><Point><coordinates>2.88356781005859,41.8797862529755,0</coordinates></Point></Placemark>
<Placemark><name>20830</name><description>220830 BRP CASS (Girona)
posicio de les: 04/08/2018 00:05:00</description><styleUrl>#w_grocC</styleUrl><Point><coordinates>2.8834068775177,41.8804407119751,0</coordinates></Point></Placemark>
<Placemark><name>CASS56</name><description>220856 PORT.COM CASS (Girona)
posicio de les: 04/08/2018 00:07:57</description><styleUrl>#w_verdP</styleUrl><Point><coordinates>2.88400769233704,41.8797969818115,0</coordinates></Point></Placemark>
<Placemark><name>GIRO06</name><description>221106 PORT GIRO (Girona)
posicio de les: 04/08/2018 00:04:45</description><styleUrl>#w_verdP</styleUrl><Point><coordinates>2.80645966529846,41.9605207443237,0</coordinates></Point></Placemark>
<Placemark><name>JONQ56</name><description>221356 PORT.COM JONQ (Girona)
posicio de les: 04/08/2018 00:09:20</description><styleUrl>#w_grocP</styleUrl><Point><coordinates>2.8765082359314,42.4119365215302,0</coordinates></Point></Placemark>
<Placemark><name>LLAN57</name><description>221457 PORT.COM LLAN (Girona)
posicio de les: 04/08/2018 00:05:43</description><styleUrl>#w_verdP</styleUrl><Point><coordinates>3.15203547477722,42.3579275608063,0</coordinates></Point></Placemark>
<Placemark><name>LLOR56</name><description>221556 PORT.COM LLOR (Girona)
posicio de les: 04/08/2018 00:09:02</description><styleUrl>#w_verdP</styleUrl><Point><coordinates>2.83599615097046,41.6995739936829,0</coordinates></Point></Placemark>
<Placemark><name>MAÇA57</name><description>221657 PORT.COM MACA (Girona)
posicio de les: 04/08/2018 00:09:26</description><styleUrl>#w_grocP</styleUrl><Point><coordinates>2.75285840034485,41.7797183990479,0</coordinates></Point></Placemark>
<Placemark><name>OLOT01</name><description>221701 PORT OLOT (Girona)
posicio de les: 04/08/2018 00:08:02</description><styleUrl>#w_verdP</styleUrl><Point><coordinates>3.16075801849365,42.2762596607208,0</coordinates></Point></Placemark>
<Placemark><name>OLOT56</name><description>221756 PORT.COM OLOT (Girona)
posicio de les: 04/08/2018 00:09:17</description><styleUrl>#w_verdP</styleUrl><Point><coordinates>2.47456312179565,42.190203666687,0</coordinates></Point></Placemark>
<Placemark><name>OLOT57</name><description>221757 PORT.COM OLOT (Girona)
posicio de les: 04/08/2018 00:07:40</description><styleUrl>#w_verdP</styleUrl><Point><coordinates>2.47370481491089,42.1903431415558,0</coordinates></Point></Placemark>
<Placemark><name>PALA56</name><description>221856 PORT.COM PALA (Girona)
posicio de les: 04/08/2018 00:08:37</description><styleUrl>#w_verdP</styleUrl><Point><coordinates>3.15613389015198,41.9261133670807,0</coordinates></Point></Placemark>
<Placemark><name>RIPO56</name><description>222156 PORT.COM RIPO (Girona)
posicio de les: 04/08/2018 00:08:43</description><styleUrl>#w_verdP</styleUrl><Point><coordinates>2.16851234436035,42.2148585319519,0</coordinates></Point></Placemark>
<Placemark><name>ROSE57</name><description>222257 PORT.COM ROSE (Girona)
posicio de les: 04/08/2018 00:09:03</description><styleUrl>#w_verdP</styleUrl><Point><coordinates>3.16082239151001,42.2765064239502,0</coordinates></Point></Placemark>
<Placemark><name>22430</name><description>222430 BRP SHIL (Girona)
posicio de les: 04/08/2018 00:05:49</description><styleUrl>#w_verdC</styleUrl><Point><coordinates>3.03052067756653,41.8049204349518,0</coordinates></Point></Placemark>
<Placemark><name>VALL56</name><description>222856 PORT.COM VALL (Girona)
posicio de les: 04/08/2018 00:09:12</description><styleUrl>#w_verdP</styleUrl><Point><coordinates>3.0317759513855,41.8086862564087,0</coordinates></Point></Placemark>
<Placemark><name>22890</name><description>222890 UPC VALL (Girona)
posicio de les: 04/08/2018 00:06:11</description><styleUrl>#w_verd</styleUrl><Point><coordinates>3.03415775299072,41.8095982074738,0</coordinates></Point></Placemark>
<Placemark><name>D6REG</name><description>228046  SERVEIS REGIÓ
posicio de les: 04/08/2018 00:08:05</description><styleUrl>#w_verd</styleUrl><Point><coordinates>2.80667424201965,41.9602525234222,0</coordinates></Point></Placemark>
<Placemark><name>D0REL</name><description>230010 P.CG REGIÓ
posicio de les: 04/08/2018 00:07:49</description><styleUrl>#w_verdP</styleUrl><Point><coordinates>0.606039762496948,41.6241717338562,0</coordinates></Point></Placemark>
<Placemark><name>RELL11</name><description>230011 P.Tec REGIÓ
posicio de les: 04/08/2018 00:09:19</description><styleUrl>#w_verdP</styleUrl><Point><coordinates>0.604097843170166,41.6237318515778,0</coordinates></Point></Placemark>
<Placemark><name>E00RELL</name><description>230014 P.Tec REGIÓ
posicio de les: 04/08/2018 00:09:15</description><styleUrl>#w_verdP</styleUrl><Point><coordinates>1.12894177436829,42.4090719223022,0</coordinates></Point></Placemark>
<Placemark><name>30082</name><description>230082  REGIÓ
posicio de les: 04/08/2018 00:06:12</description><styleUrl>#w_groc</styleUrl><Point><coordinates>0.805649757385254,41.799384355545,0</coordinates></Point></Placemark>
<Placemark><name>ALMA01</name><description>230301 PORT ALMA (Lleida)
posicio de les: 04/08/2018 00:08:24</description><styleUrl>#w_verdP</styleUrl><Point><coordinates>0.433831214904785,41.73184633255,0</coordinates></Point></Placemark>
<Placemark><name>ALMA02</name><description>230302 PORT ALMA (Lleida)
posicio de les: 04/08/2018 00:08:07</description><styleUrl>#w_grocP</styleUrl><Point><coordinates>0.433809757232666,41.7319750785828,0</coordinates></Point></Placemark>
<Placemark><name>BALA57</name><description>230657 PORT.COM BALA (Lleida)
posicio de les: 04/08/2018 00:08:41</description><styleUrl>#w_grocP</styleUrl><Point><coordinates>0.805531740188599,41.7992985248566,0</coordinates></Point></Placemark>
<Placemark><name>BORG01</name><description>230701 PORT BORG (Lleida)
posicio de les: 04/08/2018 00:08:48</description><styleUrl>#w_verdP</styleUrl><Point><coordinates>0.844831466674805,41.5074098110199,0</coordinates></Point></Placemark>
<Placemark><name>BORG02</name><description>230702 PORT BORG (Lleida)
posicio de les: 04/08/2018 00:09:05</description><styleUrl>#w_verdP</styleUrl><Point><coordinates>0.876803398132324,41.5742075443268,0</coordinates></Point></Placemark>
<Placemark><name>230704</name><description>230704 PORT BORG (Lleida)
posicio de les: 04/08/2018 00:09:27</description><styleUrl>#w_verdP</styleUrl><Point><coordinates>0.876824855804443,41.5781128406525,0</coordinates></Point></Placemark>
<Placemark><name>BORG06</name><description>230706 PORT BORG (Lleida)
posicio de les: 04/08/2018 00:09:22</description><styleUrl>#w_verdP</styleUrl><Point><coordinates>0.876502990722656,41.5770828723907,0</coordinates></Point></Placemark>
<Placemark><name>BORG07</name><description>230707 PORT BORG (Lleida)
posicio de les: 04/08/2018 00:08:52</description><styleUrl>#w_verdP</styleUrl><Point><coordinates>0.876857042312622,41.5712571144104,0</coordinates></Point></Placemark>
<Placemark><name>30730</name><description>230730 BRP BORG (Lleida)
posicio de les: 04/08/2018 00:09:29</description><styleUrl>#w_verdC</styleUrl><Point><coordinates>0.877060890197754,41.5785312652588,0</coordinates></Point></Placemark>
<Placemark><name>30748</name><description>230748 BUL BORG (Lleida)
posicio de les: 04/08/2018 00:09:21</description><styleUrl>#w_verdC</styleUrl><Point><coordinates>0.876717567443848,41.5773618221283,0</coordinates></Point></Placemark>
<Placemark><name>BORG56</name><description>230756 PORT.COM BORG (Lleida)
posicio de les: 04/08/2018 00:08:54</description><styleUrl>#w_verdP</styleUrl><Point><coordinates>0.84470272064209,41.507248878479,0</coordinates></Point></Placemark>
<Placemark><name>CERV08</name><description>230908 PORT CERV (Lleida)
posicio de les: 04/08/2018 00:08:42</description><styleUrl>#w_verdP</styleUrl><Point><coordinates>1.26513361930847,41.6712605953217,0</coordinates></Point></Placemark>
<Placemark><name>ISON56</name><description>231556 PORT.COM ISON (Lleida)
posicio de les: 04/08/2018 00:08:09</description><styleUrl>#w_verdP</styleUrl><Point><coordinates>1.04875445365906,42.1191358566284,0</coordinates></Point></Placemark>
<Placemark><name>LLEI13</name><description>231913 PORT LLEI (Lleida)
posicio de les: 04/08/2018 00:08:45</description><styleUrl>#w_verdP</styleUrl><Point><coordinates>0.581856966018677,41.6381406784058,0</coordinates></Point></Placemark>
<Placemark><name>MOLL07</name><description>232007 PORT MOLL (Lleida)
posicio de les: 04/08/2018 00:08:44</description><styleUrl>#w_verdP</styleUrl><Point><coordinates>0.898228883743286,41.6365742683411,0</coordinates></Point></Placemark>
<Placemark><name>32031</name><description>232031 BRP MOLL (Lleida)
posicio de les: 04/08/2018 00:04:51</description><styleUrl>#w_grocC</styleUrl><Point><coordinates>0.898185968399048,41.6363918781281,0</coordinates></Point></Placemark>
<Placemark><name>POBL01</name><description>232401 PORT POBL (Lleida)
posicio de les: 04/08/2018 00:08:30</description><styleUrl>#w_grocP</styleUrl><Point><coordinates>0.964264869689941,42.2390949726105,0</coordinates></Point></Placemark>
<Placemark><name>SORT02</name><description>233002 PORT SORT (Lleida)
posicio de les: 04/08/2018 00:08:11</description><styleUrl>#w_verdP</styleUrl><Point><coordinates>1.12910270690918,42.4089646339417,0</coordinates></Point></Placemark>
<Placemark><name>REMN11</name><description>240011 P.Tec REGIÓ
posicio de les: 04/08/2018 00:08:51</description><styleUrl>#w_verdP</styleUrl><Point><coordinates>2.1117889881134,41.5028178691864,0</coordinates></Point></Placemark>
<Placemark><name>40081</name><description>240081  REGIÓ
posicio de les: 04/08/2018 00:06:53</description><styleUrl>#w_groc</styleUrl><Point><coordinates>2.11236834526062,41.5022492408752,0</coordinates></Point></Placemark>
<Placemark><name>40091</name><description>240091  REGIÓ
posicio de les: 04/08/2018 00:07:53</description><styleUrl>#w_groc</styleUrl><Point><coordinates>2.11153149604797,41.5021848678589,0</coordinates></Point></Placemark>
<Placemark><name>40290</name><description>240290 UPC BAD (Metro. Nord)
posicio de les: 04/08/2018 00:07:25</description><styleUrl>#w_groc</styleUrl><Point><coordinates>2.20934629440308,41.4633679389954,0</coordinates></Point></Placemark>
<Placemark><name>CER06</name><description>240506 PORT CER (Metro. Nord)
posicio de les: 04/08/2018 00:09:20</description><styleUrl>#w_verdP</styleUrl><Point><coordinates>2.11160659790039,41.5023994445801,0</coordinates></Point></Placemark>
<Placemark><name>40690</name><description>240690 UPC GRA (Metro. Nord)
posicio de les: 04/08/2018 00:08:23</description><styleUrl>#w_verd</styleUrl><Point><coordinates>2.42261409759521,41.532096862793,0</coordinates></Point></Placemark>
<Placemark><name>MTD03</name><description>240803 PORT MTD (Metro. Nord)
posicio de les: 04/08/2018 00:09:14</description><styleUrl>#w_verdP</styleUrl><Point><coordinates>2.01015472412109,41.6377544403076,0</coordinates></Point></Placemark>
<Placemark><name>MAT03</name><description>240903 PORT MAT (Metro. Nord)
posicio de les: 04/08/2018 00:07:29</description><styleUrl>#w_verdP</styleUrl><Point><coordinates>2.42269992828369,41.5321183204651,0</coordinates></Point></Placemark>
<Placemark><name>MAT07</name><description>240907 PORT MAT (Metro. Nord)
posicio de les: 04/08/2018 00:07:01</description><styleUrl>#w_grocP</styleUrl><Point><coordinates>2.42252826690674,41.53191447258,0</coordinates></Point></Placemark>
<Placemark><name>40940</name><description>240940 BUP MAT (Metro. Nord)
posicio de les: 04/08/2018 00:07:52</description><styleUrl>#w_verdC</styleUrl><Point><coordinates>2.4228823184967,41.5324079990387,0</coordinates></Point></Placemark>
<Placemark><name>240950</name><description>240950 FSV/FRQ/FER/FRM/FRA/FSA MAT (Metro. Nord)
posicio de les: 04/08/2018 00:08:53</description><styleUrl>#w_verdC</styleUrl><Point><coordinates>2.54049181938171,41.6044199466705,0</coordinates></Point></Placemark>
<Placemark><name>MOL03</name><description>241003 PORT MOL (Metro. Nord)
posicio de les: 04/08/2018 00:08:12</description><styleUrl>#w_verdP</styleUrl><Point><coordinates>2.20156788825989,41.5374183654785,0</coordinates></Point></Placemark>
<Placemark><name>241040</name><description>241040 BUP MOL (Metro. Nord)
posicio de les: 04/08/2018 00:06:15</description><styleUrl>#w_grocC</styleUrl><Point><coordinates>2.202308177948,41.5364742279053,0</coordinates></Point></Placemark>
<Placemark><name>241048</name><description>241048 BUL MOL (Metro. Nord)
posicio de les: 04/08/2018 00:09:01</description><styleUrl>#w_verdC</styleUrl><Point><coordinates>2.20199704170227,41.5367424488068,0</coordinates></Point></Placemark>
<Placemark><name>MOL56</name><description>241056 PORT.COM MOL (Metro. Nord)
posicio de les: 04/08/2018 00:03:28</description><styleUrl>#w_verdP</styleUrl><Point><coordinates>2.20199704170227,41.5367960929871,0</coordinates></Point></Placemark>
<Placemark><name>RUB01</name><description>241301 PORT RUB (Metro. Nord)
posicio de les: 04/08/2018 00:07:23</description><styleUrl>#w_verdP</styleUrl><Point><coordinates>2.03545331954956,41.4736032485962,0</coordinates></Point></Placemark>
<Placemark><name>241440</name><description>241440 BUP SAB (Metro. Nord)
posicio de les: 04/08/2018 00:05:52</description><styleUrl>#w_grocC</styleUrl><Point><coordinates>2.10397839546204,41.5426754951477,0</coordinates></Point></Placemark>
<Placemark><name>SCE07</name><description>241607 PORT SCE (Metro. Nord)
posicio de les: 04/08/2018 00:06:44</description><styleUrl>#w_verdP</styleUrl><Point><coordinates>2.50698566436768,41.6953682899475,0</coordinates></Point></Placemark>
<Placemark><name>41640</name><description>241640 BUP SCE (Metro. Nord)
posicio de les: 04/08/2018 00:09:12</description><styleUrl>#w_verdC</styleUrl><Point><coordinates>2.49098896980286,41.6926538944244,0</coordinates></Point></Placemark>
<Placemark><name>241858</name><description>241858 BSAL SCG (Metro. Nord)
posicio de les: 04/08/2018 00:09:17</description><styleUrl>#w_grocB</styleUrl><Point><coordinates>2.20917463302612,41.463303565979,0</coordinates></Point></Placemark>
<Placemark><name>242040</name><description>242040 BUP TER (Metro. Nord)
posicio de les: 04/08/2018 00:07:34</description><styleUrl>#w_grocC</styleUrl><Point><coordinates>2.0259690284729,41.5680491924286,0</coordinates></Point></Placemark>
<Placemark><name>D3REMN</name><description>248043  SERVEIS REGIÓ
posicio de les: 04/08/2018 00:08:09</description><styleUrl>#w_groc</styleUrl><Point><coordinates>2.11261510848999,41.5024530887604,0</coordinates></Point></Placemark>
<Placemark><name>REMS14</name><description>250014 P.Tec REGIÓ
posicio de les: 04/08/2018 00:07:31</description><styleUrl>#w_verdP</styleUrl><Point><coordinates>2.03402638435364,41.323002576828,0</coordinates></Point></Placemark>
<Placemark><name>50092</name><description>250092  REGIÓ
posicio de les: 04/08/2018 00:07:24</description><styleUrl>#w_verd</styleUrl><Point><coordinates>1.71384572982788,41.2196087837219,0</coordinates></Point></Placemark>
<Placemark><name>50093</name><description>250093  REGIÓ
posicio de les: 04/08/2018 00:07:35</description><styleUrl>#w_groc</styleUrl><Point><coordinates>2.0344340801239,41.3227880001068,0</coordinates></Point></Placemark>
<Placemark><name>COR07</name><description>250407 PORT COR (Metro. Sud)
posicio de les: 04/08/2018 00:06:38</description><styleUrl>#w_grocP</styleUrl><Point><coordinates>2.07094430923462,41.3606822490692,0</coordinates></Point></Placemark>
<Placemark><name>COR56</name><description>250456 PORT.COM COR (Metro. Sud)
posicio de les: 04/08/2018 00:09:12</description><styleUrl>#w_verdP</styleUrl><Point><coordinates>2.07051515579224,41.3607251644135,0</coordinates></Point></Placemark>
<Placemark><name>GAV09</name><description>250509 PORT GAV (Metro. Sud)
posicio de les: 04/08/2018 00:05:56</description><styleUrl>#w_verdP</styleUrl><Point><coordinates>1.98970556259155,41.3005042076111,0</coordinates></Point></Placemark>
<Placemark><name>GAV57</name><description>250557 PORT.COM GAV (Metro. Sud)
posicio de les: 04/08/2018 00:08:12</description><styleUrl>#w_verdP</styleUrl><Point><coordinates>1.99018836021423,41.3003647327423,0</coordinates></Point></Placemark>
<Placemark><name>250740</name><description>250740 BUP HOS (Metro. Sud)
posicio de les: 04/08/2018 00:09:09</description><styleUrl>#w_verdC</styleUrl><Point><coordinates>2.12576866149902,41.3576781749725,0</coordinates></Point></Placemark>
<Placemark><name>IGU06</name><description>250806 PORT IGU (Metro. Sud)
posicio de les: 04/08/2018 00:03:37</description><styleUrl>#w_verdP</styleUrl><Point><coordinates>1.60608530044556,41.5924251079559,0</coordinates></Point></Placemark>
<Placemark><name>IGU20E</name><description>250820 PORT IGU (Metro. Sud)
posicio de les: 04/08/2018 00:07:51</description><styleUrl>#w_grocP</styleUrl><Point><coordinates>1.61015152931213,41.5894639492035,0</coordinates></Point></Placemark>
<Placemark><name>MAR01</name><description>251001 PORT MAR (Metro. Sud)
posicio de les: 04/08/2018 00:07:49</description><styleUrl>#w_verdP</styleUrl><Point><coordinates>1.90797328948975,41.4985477924347,0</coordinates></Point></Placemark>
<Placemark><name>MAR10</name><description>251010 PORT MAR (Metro. Sud)
posicio de les: 04/08/2018 00:08:22</description><styleUrl>#w_verdP</styleUrl><Point><coordinates>1.90781235694885,41.4990520477295,0</coordinates></Point></Placemark>
<Placemark><name>MAR11</name><description>251011 PORT MAR (Metro. Sud)
posicio de les: 04/08/2018 00:08:57</description><styleUrl>#w_verdP</styleUrl><Point><coordinates>1.90565586090088,41.497882604599,0</coordinates></Point></Placemark>
<Placemark><name>51030</name><description>251030 BRP MAR (Metro. Sud)
posicio de les: 04/08/2018 00:08:35</description><styleUrl>#w_grocC</styleUrl><Point><coordinates>1.90802693367004,41.4986765384674,0</coordinates></Point></Placemark>
<Placemark><name>251040</name><description>251040 BUP MAR (Metro. Sud)
posicio de les: 04/08/2018 00:09:20</description><styleUrl>#w_verdC</styleUrl><Point><coordinates>1.88238501548767,41.5447461605072,0</coordinates></Point></Placemark>
<Placemark><name>MAR56</name><description>251056 PORT.COM MAR (Metro. Sud)
posicio de les: 04/08/2018 00:08:52</description><styleUrl>#w_verdP</styleUrl><Point><coordinates>1.88405871391296,41.5459907054901,0</coordinates></Point></Placemark>
<Placemark><name>PLL03</name><description>251203 PORT PLL (Metro. Sud)
posicio de les: 04/08/2018 00:08:55</description><styleUrl>#w_verdP</styleUrl><Point><coordinates>2.08159804344177,41.3171339035034,0</coordinates></Point></Placemark>
<Placemark><name>PLL57</name><description>251257 PORT.COM PLL (Metro. Sud)
posicio de les: 04/08/2018 00:09:23</description><styleUrl>#w_verdP</styleUrl><Point><coordinates>2.08174824714661,41.3180029392242,0</coordinates></Point></Placemark>
<Placemark><name>SBOI02</name><description>251302 PORT SBOI (Metro. Sud)
posicio de les: 04/08/2018 00:09:29</description><styleUrl>#w_grocP</styleUrl><Point><coordinates>2.03413367271423,41.322820186615,0</coordinates></Point></Placemark>
<Placemark><name>SFE03</name><description>251503 PORT SFE (Metro. Sud)
posicio de les: 04/08/2018 00:08:00</description><styleUrl>#w_verdP</styleUrl><Point><coordinates>2.04268455505371,41.3885772228241,0</coordinates></Point></Placemark>
<Placemark><name>VIF03</name><description>251803 PORT VIF (Metro. Sud)
posicio de les: 04/08/2018 00:07:50</description><styleUrl>#w_verdP</styleUrl><Point><coordinates>1.70393228530884,41.3548135757446,0</coordinates></Point></Placemark>
<Placemark><name>51860</name><description>251860 AEA/AES/ABA VIF (Metro. Sud)
posicio de les: 04/08/2018 00:06:35</description><styleUrl>#w_verdC</styleUrl><Point><coordinates>1.70446872711182,41.3541162014008,0</coordinates></Point></Placemark>
<Placemark><name>SCREMS3</name><description>258003 P.COMODIN SERVEIS REGIÓ
posicio de les: 04/08/2018 00:06:47</description><styleUrl>#w_verdP</styleUrl><Point><coordinates>2.03388690948486,41.3224768638611,0</coordinates></Point></Placemark>
<Placemark><name>260508</name><description>260508 PORT HOSP (Tarragona)
posicio de les: 04/08/2018 00:09:16</description><styleUrl>#w_grocP</styleUrl><Point><coordinates>0.919783115386963,40.9936058521271,0</coordinates></Point></Placemark>
<Placemark><name>260530</name><description>260530 BRP HOSP (Tarragona)
posicio de les: 04/08/2018 00:09:19</description><styleUrl>#w_verdC</styleUrl><Point><coordinates>0.91984748840332,40.9942603111267,0</coordinates></Point></Placemark>
<Placemark><name>60890</name><description>260890 UPC REUS (Tarragona)
posicio de les: 04/08/2018 00:05:53</description><styleUrl>#w_groc</styleUrl><Point><coordinates>1.11825585365295,41.1512124538422,0</coordinates></Point></Placemark>
<Placemark><name>TARR01</name><description>261201 PORT TARR (Tarragona)
posicio de les: 04/08/2018 00:04:28</description><styleUrl>#w_grocP</styleUrl><Point><coordinates>1.18493556976318,41.1345398426056,0</coordinates></Point></Placemark>
<Placemark><name>TARR04</name><description>261204 PORT TARR (Tarragona)
posicio de les: 04/08/2018 00:08:33</description><styleUrl>#w_verdP</styleUrl><Point><coordinates>1.22218608856201,41.1129319667816,0</coordinates></Point></Placemark>
<Placemark><name>SCRET</name><description>268001 P.COMODIN SERVEIS REGIÓ
posicio de les: 04/08/2018 00:07:32</description><styleUrl>#w_verdP</styleUrl><Point><coordinates>1.18524670600891,41.1348187923431,0</coordinates></Point></Placemark>
<Placemark><name>E00RETE</name><description>270014 P.Tec REGIÓ
posicio de les: 04/08/2018 00:08:28</description><styleUrl>#w_verdP</styleUrl><Point><coordinates>0.513310432434082,40.8192837238312,0</coordinates></Point></Placemark>
<Placemark><name>AMET02</name><description>272002 PORT AMET (Terres de l'Ebre)
posicio de les: 04/08/2018 00:04:56</description><styleUrl>#w_verdP</styleUrl><Point><coordinates>0.830057859420776,40.927312374115,0</coordinates></Point></Placemark>
<Placemark><name>72031</name><description>272031 BRP AMET (Terres de l'Ebre)
posicio de les: 04/08/2018 00:09:27</description><styleUrl>#w_verdC</styleUrl><Point><coordinates>0.821206569671631,40.9194803237915,0</coordinates></Point></Placemark>
<Placemark><name>272130</name><description>272130 BRP AMPO (Terres de l'Ebre)
posicio de les: 04/08/2018 00:08:25</description><styleUrl>#w_verdC</styleUrl><Point><coordinates>0.579936504364014,40.6900227069855,0</coordinates></Point></Placemark>
<Placemark><name>AMPO57</name><description>272157 PORT.COM AMPO (Terres de l'Ebre)
posicio de les: 04/08/2018 00:06:12</description><styleUrl>#w_verdP</styleUrl><Point><coordinates>0.579603910446167,40.6890034675598,0</coordinates></Point></Placemark>
<Placemark><name>ASCO56</name><description>272256 PORT.COM ASCO (Terres de l'Ebre)
posicio de les: 04/08/2018 00:08:38</description><styleUrl>#w_verdP</styleUrl><Point><coordinates>0.568885803222656,41.1878836154938,0</coordinates></Point></Placemark>
<Placemark><name>MORA06</name><description>272806 PORT MORA (Terres de l'Ebre)
posicio de les: 04/08/2018 00:07:57</description><styleUrl>#w_verdP</styleUrl><Point><coordinates>0.62971830368042,41.0862064361572,0</coordinates></Point></Placemark>
<Placemark><name>ULLD08</name><description>273108 PORT ULLD (Terres de l'Ebre)
posicio de les: 04/08/2018 00:09:28</description><styleUrl>#w_verdP</styleUrl><Point><coordinates>0.35804271697998,40.6087732315063,0</coordinates></Point></Placemark>
</Folder>
<Folder>
<name>Descarregues</name>
</Folder>
<Style id="w_verdP_n"><IconStyle><color>ff00ff00</color><scale>1.0</scale><Icon><href>http://maps.google.com/mapfiles/kml/shapes/man.png</href></Icon><hotSpot x="0.5" y="0" xunits="fraction" yunits="fraction"/></IconStyle><LabelStyle><scale>0.7</scale></LabelStyle></Style>
<Style id="w_verdP_s"><IconStyle><color>ff00ff00</color><scale>1.4</scale><Icon><href>http://maps.google.com/mapfiles/kml/shapes/man.png</href></Icon><hotSpot x="0.5" y="0" xunits="fraction" yunits="fraction"/></IconStyle><LabelStyle><scale>0.7</scale></LabelStyle></Style>
<StyleMap id="w_verdP"><Pair><key>normal</key><styleUrl>#w_verdP_n</styleUrl></Pair><Pair><key>highlight</key><styleUrl>#w_verdP_s</styleUrl></Pair></StyleMap>
<Style id="w_verd_n"><IconStyle><color>ff00ff00</color><scale>0.7</scale><Icon><href>http://maps.google.com/mapfiles/kml/shapes/cabs.png</href></Icon><hotSpot x="0.5" y="0" xunits="fraction" yunits="fraction"/></IconStyle><LabelStyle><scale>0.7</scale></LabelStyle></Style>
<Style id="w_verd_s"><IconStyle><color>ff00ff00</color><scale>1.0</scale><Icon><href>http://maps.google.com/mapfiles/kml/shapes/cabs.png</href></Icon><hotSpot x="0.5" y="0" xunits="fraction" yunits="fraction"/></IconStyle><LabelStyle><scale>0.7</scale></LabelStyle></Style>
<StyleMap id="w_verd"><Pair><key>normal</key><styleUrl>#w_verd_n</styleUrl></Pair><Pair><key>highlight</key><styleUrl>#w_verd_s</styleUrl></Pair></StyleMap>
<Style id="w_verdC_n"><IconStyle><color>ff00ff00</color><scale>1.0</scale><Icon><href>http://maps.google.com/mapfiles/kml/shapes/truck.png</href></Icon><hotSpot x="0.5" y="0" xunits="fraction" yunits="fraction"/></IconStyle><LabelStyle><scale>0.7</scale></LabelStyle></Style>
<Style id="w_verdC_s"><IconStyle><color>ff00ff00</color><scale>1.4</scale><Icon><href>http://maps.google.com/mapfiles/kml/shapes/truck.png</href></Icon><hotSpot x="0.5" y="0" xunits="fraction" yunits="fraction"/></IconStyle><LabelStyle><scale>0.7</scale></LabelStyle></Style>
<StyleMap id="w_verdC"><Pair><key>normal</key><styleUrl>#w_verdC_n</styleUrl></Pair><Pair><key>highlight</key><styleUrl>#w_verdC_s</styleUrl></Pair></StyleMap>
<Style id="w_verdH_n"><IconStyle><color>ff0000ff</color><scale>1.2</scale><Icon><href>http://maps.google.com/mapfiles/kml/shapes/heliport.png</href></Icon><hotSpot x="0.5" y="0" xunits="fraction" yunits="fraction"/></IconStyle><LabelStyle><scale>0.7</scale></LabelStyle></Style>
<Style id="w_verdH_s"><IconStyle><color>ff0000ff</color><scale>1.4</scale><Icon><href>http://maps.google.com/mapfiles/kml/shapes/heliport.png</href></Icon><hotSpot x="0.5" y="0" xunits="fraction" yunits="fraction"/></IconStyle><LabelStyle><scale>0.7</scale></LabelStyle></Style>
<StyleMap id="w_verdH"><Pair><key>normal</key><styleUrl>#w_verdH_n</styleUrl></Pair><Pair><key>highlight</key><styleUrl>#w_verdH_s</styleUrl></Pair></StyleMap>
<Style id="w_verdA_n"><IconStyle><color>ff0000ff</color><scale>1.2</scale><Icon><href>http://maps.google.com/mapfiles/kml/shapes/airports.png</href></Icon><hotSpot x="0.5" y="0" xunits="fraction" yunits="fraction"/></IconStyle><LabelStyle><scale>0.7</scale></LabelStyle></Style>
<Style id="w_verdA_s"><IconStyle><color>ff0000ff</color><scale>1.4</scale><Icon><href>http://maps.google.com/mapfiles/kml/shapes/airports.png</href></Icon><hotSpot x="0.5" y="0" xunits="fraction" yunits="fraction"/></IconStyle><LabelStyle><scale>0.7</scale></LabelStyle></Style>
<StyleMap id="w_verdA"><Pair><key>normal</key><styleUrl>#w_verdA_n</styleUrl></Pair><Pair><key>highlight</key><styleUrl>#w_verdA_s</styleUrl></Pair></StyleMap>
<Style id="w_verdB_n"><IconStyle><color>ff00ff00</color><scale>1.0</scale><Icon><href>http://maps.google.com/mapfiles/kml/shapes/sailing.png</href></Icon><hotSpot x="0.5" y="0" xunits="fraction" yunits="fraction"/></IconStyle><LabelStyle><scale>0.7</scale></LabelStyle></Style>
<Style id="w_verdB_s"><IconStyle><color>ff00ff00</color><scale>1.4</scale><Icon><href>http://maps.google.com/mapfiles/kml/shapes/sailing.png</href></Icon><hotSpot x="0.5" y="0" xunits="fraction" yunits="fraction"/></IconStyle><LabelStyle><scale>0.7</scale></LabelStyle></Style>
<StyleMap id="w_verdB"><Pair><key>normal</key><styleUrl>#w_verdBAR_n</styleUrl></Pair><Pair><key>highlight</key><styleUrl>#w_verdBAR_s</styleUrl></Pair></StyleMap>
<Style id="w_grocP_n"><IconStyle><color>ff00ffff</color><scale>1.0</scale><Icon><href>http://maps.google.com/mapfiles/kml/shapes/man.png</href></Icon><hotSpot x="0.5" y="0" xunits="fraction" yunits="fraction"/></IconStyle><LabelStyle><scale>0.7</scale></LabelStyle></Style>
<Style id="w_grocP_s"><IconStyle><color>ff00ffff</color><scale>1.4</scale><Icon><href>http://maps.google.com/mapfiles/kml/shapes/man.png</href></Icon><hotSpot x="0.5" y="0" xunits="fraction" yunits="fraction"/></IconStyle><LabelStyle><scale>0.7</scale></LabelStyle></Style>
<StyleMap id="w_grocP"><Pair><key>normal</key><styleUrl>#w_grocP_n</styleUrl></Pair><Pair><key>highlight</key><styleUrl>#w_grocP_s</styleUrl></Pair></StyleMap>
<Style id="w_groc_n"><IconStyle><color>ff00ffff</color><scale>0.7</scale><Icon><href>http://maps.google.com/mapfiles/kml/shapes/cabs.png</href></Icon><hotSpot x="0.5" y="0" xunits="fraction" yunits="fraction"/></IconStyle><LabelStyle><scale>0.7</scale></LabelStyle></Style>
<Style id="w_groc_s"><IconStyle><color>ff00ffff</color><scale>1.0</scale><Icon><href>http://maps.google.com/mapfiles/kml/shapes/cabs.png</href></Icon><hotSpot x="0.5" y="0" xunits="fraction" yunits="fraction"/></IconStyle><LabelStyle><scale>0.7</scale></LabelStyle></Style>
<StyleMap id="w_groc"><Pair><key>normal</key><styleUrl>#w_groc_n</styleUrl></Pair><Pair><key>highlight</key><styleUrl>#w_groc_s</styleUrl></Pair></StyleMap>
<Style id="w_grocC_n"><IconStyle><color>ff00ffff</color><scale>1.0</scale><Icon><href>http://maps.google.com/mapfiles/kml/shapes/truck.png</href></Icon><hotSpot x="0.5" y="0" xunits="fraction" yunits="fraction"/></IconStyle><LabelStyle><scale>0.7</scale></LabelStyle></Style>
<Style id="w_grocC_s"><IconStyle><color>ff00ffff</color><scale>1.4</scale><Icon><href>http://maps.google.com/mapfiles/kml/shapes/truck.png</href></Icon><hotSpot x="0.5" y="0" xunits="fraction" yunits="fraction"/></IconStyle><LabelStyle><scale>0.7</scale></LabelStyle></Style>
<StyleMap id="w_grocC"><Pair><key>normal</key><styleUrl>#w_grocC_n</styleUrl></Pair><Pair><key>highlight</key><styleUrl>#w_grocC_s</styleUrl></Pair></StyleMap>
<Style id="w_grocH_n"><IconStyle><color>ff0000ff</color><scale>1.2</scale><Icon><href>http://maps.google.com/mapfiles/kml/shapes/heliport.png</href></Icon><hotSpot x="0.5" y="0" xunits="fraction" yunits="fraction"/></IconStyle><LabelStyle><scale>0.7</scale></LabelStyle></Style>
<Style id="w_grocH_s"><IconStyle><color>ff0000ff</color><scale>1.4</scale><Icon><href>http://maps.google.com/mapfiles/kml/shapes/heliport.png</href></Icon><hotSpot x="0.5" y="0" xunits="fraction" yunits="fraction"/></IconStyle><LabelStyle><scale>0.7</scale></LabelStyle></Style>
<StyleMap id="w_grocH"><Pair><key>normal</key><styleUrl>#w_grocH_n</styleUrl></Pair><Pair><key>highlight</key><styleUrl>#w_grocH_s</styleUrl></Pair></StyleMap>
<Style id="w_grocA_n"><IconStyle><color>ff0000ff</color><scale>1.2</scale><Icon><href>http://maps.google.com/mapfiles/kml/shapes/airports.png</href></Icon><hotSpot x="0.5" y="0" xunits="fraction" yunits="fraction"/></IconStyle><LabelStyle><scale>0.7</scale></LabelStyle></Style>
<Style id="w_grocA_s"><IconStyle><color>ff0000ff</color><scale>1.4</scale><Icon><href>http://maps.google.com/mapfiles/kml/shapes/airports.png</href></Icon><hotSpot x="0.5" y="0" xunits="fraction" yunits="fraction"/></IconStyle><LabelStyle><scale>0.7</scale></LabelStyle></Style>
<StyleMap id="w_grocA"><Pair><key>normal</key><styleUrl>#w_grocA_n</styleUrl></Pair><Pair><key>highlight</key><styleUrl>#w_grocA_s</styleUrl></Pair></StyleMap>
<Style id="w_grocB_n"><IconStyle><color>ff00ffff</color><scale>1.0</scale><Icon><href>http://maps.google.com/mapfiles/kml/shapes/sailing.png</href></Icon><hotSpot x="0.5" y="0" xunits="fraction" yunits="fraction"/></IconStyle><LabelStyle><scale>0.7</scale></LabelStyle></Style>
<Style id="w_grocB_s"><IconStyle><color>ff00ffff</color><scale>1.4</scale><Icon><href>http://maps.google.com/mapfiles/kml/shapes/sailing.png</href></Icon><hotSpot x="0.5" y="0" xunits="fraction" yunits="fraction"/></IconStyle><LabelStyle><scale>0.7</scale></LabelStyle></Style>
<StyleMap id="w_grocB"><Pair><key>normal</key><styleUrl>#w_grocBAR_n</styleUrl></Pair><Pair><key>highlight</key><styleUrl>#w_grocBAR_s</styleUrl></Pair></StyleMap>
<Style id="w_vermellP_n"><IconStyle><color>ff0000ff</color><scale>1.0</scale><Icon><href>http://maps.google.com/mapfiles/kml/shapes/man.png</href></Icon><hotSpot x="0.5" y="0" xunits="fraction" yunits="fraction"/></IconStyle><LabelStyle><scale>0.7</scale></LabelStyle></Style>
<Style id="w_vermellP_s"><IconStyle><color>ff0000ff</color><scale>1.4</scale><Icon><href>http://maps.google.com/mapfiles/kml/shapes/man.png</href></Icon><hotSpot x="0.5" y="0" xunits="fraction" yunits="fraction"/></IconStyle><LabelStyle><scale>0.7</scale></LabelStyle></Style>
<StyleMap id="w_vermellP"><Pair><key>normal</key><styleUrl>#w_vermellP_n</styleUrl></Pair><Pair><key>highlight</key><styleUrl>#w_vermellP_s</styleUrl></Pair></StyleMap>
<Style id="w_vermell_n"><IconStyle><color>ff0000ff</color><scale>0.7</scale><Icon><href>http://maps.google.com/mapfiles/kml/shapes/cabs.png</href></Icon><hotSpot x="0.5" y="0" xunits="fraction" yunits="fraction"/></IconStyle><LabelStyle><scale>0.7</scale></LabelStyle></Style>
<Style id="w_vermell_s"><IconStyle><color>ff0000ff</color><scale>1.0</scale><Icon><href>http://maps.google.com/mapfiles/kml/shapes/cabs.png</href></Icon><hotSpot x="0.5" y="0" xunits="fraction" yunits="fraction"/></IconStyle><LabelStyle><scale>0.7</scale></LabelStyle></Style>
<StyleMap id="w_vermell"><Pair><key>normal</key><styleUrl>#w_vermell_n</styleUrl></Pair><Pair><key>highlight</key><styleUrl>#w_vermell_s</styleUrl></Pair></StyleMap>
<Style id="w_vermellC_n"><IconStyle><color>ff0000ff</color><scale>1.0</scale><Icon><href>http://maps.google.com/mapfiles/kml/shapes/truck.png</href></Icon><hotSpot x="0.5" y="0" xunits="fraction" yunits="fraction"/></IconStyle><LabelStyle><scale>0.7</scale></LabelStyle></Style>
<Style id="w_vermellC_s"><IconStyle><color>ff0000ff</color><scale>1.4</scale><Icon><href>http://maps.google.com/mapfiles/kml/shapes/truck.png</href></Icon><hotSpot x="0.5" y="0" xunits="fraction" yunits="fraction"/></IconStyle><LabelStyle><scale>0.7</scale></LabelStyle></Style>
<StyleMap id="w_vermellC"><Pair><key>normal</key><styleUrl>#w_vermellC_n</styleUrl></Pair><Pair><key>highlight</key><styleUrl>#w_vermellC_s</styleUrl></Pair></StyleMap>
<Style id="w_vermellH_n"><IconStyle><color>ff0000ff</color><scale>1.2</scale><Icon><href>http://maps.google.com/mapfiles/kml/shapes/heliport.png</href></Icon><hotSpot x="0.5" y="0" xunits="fraction" yunits="fraction"/></IconStyle><LabelStyle><scale>0.7</scale></LabelStyle></Style>
<Style id="w_vermellH_s"><IconStyle><color>ff0000ff</color><scale>1.4</scale><Icon><href>http://maps.google.com/mapfiles/kml/shapes/heliport.png</href></Icon><hotSpot x="0.5" y="0" xunits="fraction" yunits="fraction"/></IconStyle><LabelStyle><scale>0.7</scale></LabelStyle></Style>
<StyleMap id="w_vermellH"><Pair><key>normal</key><styleUrl>#w_vermellH_n</styleUrl></Pair><Pair><key>highlight</key><styleUrl>#w_vermellH_s</styleUrl></Pair></StyleMap>
<Style id="w_vermellA_n"><IconStyle><color>ff0000ff</color><scale>1.2</scale><Icon><href>http://maps.google.com/mapfiles/kml/shapes/airports.png</href></Icon><hotSpot x="0.5" y="0" xunits="fraction" yunits="fraction"/></IconStyle><LabelStyle><scale>0.7</scale></LabelStyle></Style>
<Style id="w_vermellA_s"><IconStyle><color>ff0000ff</color><scale>1.4</scale><Icon><href>http://maps.google.com/mapfiles/kml/shapes/airports.png</href></Icon><hotSpot x="0.5" y="0" xunits="fraction" yunits="fraction"/></IconStyle><LabelStyle><scale>0.7</scale></LabelStyle></Style>
<StyleMap id="w_vermellA"><Pair><key>normal</key><styleUrl>#w_vermellA_n</styleUrl></Pair><Pair><key>highlight</key><styleUrl>#w_vermellA_s</styleUrl></Pair></StyleMap>
<Style id="w_vermellB_n"><IconStyle><color>ff0000ff</color><scale>1.0</scale><Icon><href>http://maps.google.com/mapfiles/kml/shapes/sailing.png</href></Icon><hotSpot x="0.5" y="0" xunits="fraction" yunits="fraction"/></IconStyle><LabelStyle><scale>0.7</scale></LabelStyle></Style>
<Style id="w_vermellB_s"><IconStyle><color>ff0000ff</color><scale>1.4</scale><Icon><href>http://maps.google.com/mapfiles/kml/shapes/sailing.png</href></Icon><hotSpot x="0.5" y="0" xunits="fraction" yunits="fraction"/></IconStyle><LabelStyle><scale>0.7</scale></LabelStyle></Style>
<StyleMap id="w_vermellB"><Pair><key>normal</key><styleUrl>#w_vermellBAR_n</styleUrl></Pair><Pair><key>highlight</key><styleUrl>#w_vermellBAR_s</styleUrl></Pair></StyleMap>
<Style id="w_descarrega"><IconStyle><color>ff00ffff</color><scale>0.5</scale><Icon><href>http://maps.google.com/mapfiles/kml/shapes/road_shield3.png</href></Icon></IconStyle><LabelStyle><scale>0.7</scale></LabelStyle></Style><Style id="actuacio"><IconStyle><color>ff00ffff</color><scale>0.8</scale><Icon><href>http://maps.google.com/mapfiles/kml/shapes/caution.png</href></Icon></IconStyle><LabelStyle><scale>0.7</scale></LabelStyle></Style></Document></kml>