<?xml version="1.0" encoding="UTF-8"?>
<kml xmlns="http://www.opengis.net/kml/2.2" xmlns:gx="http://www.google.com/kml/ext/2.2" xmlns:kml="http://www.opengis.net/kml/2.2" xmlns:atom="http://www.w3.org/2005/Atom">
<Document>
<name>Terminals</name>
<Snippet maxLines="2">Created 04/08/2018 23:56:49</Snippet>
<Folder>
<name>Terminals</name>
<Placemark><name>03373</name><description>203373 GRAE
posicio de les: 04/08/2018 23:56:24</description><styleUrl>#w_verd</styleUrl><Point><coordinates>1.4152193069458,42.5563895702362,0</coordinates></Point></Placemark>
<Placemark><name>GGRAF12</name><description>204212 P.REC
posicio de les: 04/08/2018 23:56:51</description><styleUrl>#w_verdP</styleUrl><Point><coordinates>2.97493457794189,42.0296466350555,0</coordinates></Point></Placemark>
<Placemark><name>OP05087</name><description>205287 OP.AAV
posicio de les: 04/08/2018 23:56:26</description><styleUrl>#w_verdP</styleUrl><Point><coordinates>1.1581563949585,41.1477899551392,0</coordinates></Point></Placemark>
<Placemark><name>VIEL12</name><description>208012 P.PT VARAN
posicio de les: 04/08/2018 23:55:36</description><styleUrl>#w_grocP</styleUrl><Point><coordinates>0.801111459732056,42.6995444297791,0</coordinates></Point></Placemark>
<Placemark><name>VIEL17</name><description>208017 BASE CCA VARAN
posicio de les: 04/08/2018 23:56:37</description><styleUrl>#w_verd</styleUrl><Point><coordinates>0.79649806022644,42.7077841758728,0</coordinates></Point></Placemark>
<Placemark><name>E0REC</name><description>210012 P.Tec REGIÓ
posicio de les: 04/08/2018 23:54:59</description><styleUrl>#w_grocP</styleUrl><Point><coordinates>1.85131430625916,41.7414700984955,0</coordinates></Point></Placemark>
<Placemark><name>BER57</name><description>210357 PORT.COM BER (Centre)
posicio de les: 04/08/2018 23:56:27</description><styleUrl>#w_verdP</styleUrl><Point><coordinates>1.85755848884583,42.1039760112762,0</coordinates></Point></Placemark>
<Placemark><name>CAF56</name><description>210456 PORT.COM CAF (Centre)
posicio de les: 04/08/2018 23:56:52</description><styleUrl>#w_verdP</styleUrl><Point><coordinates>1.52730345726013,41.7308163642883,0</coordinates></Point></Placemark>
<Placemark><name>PRA07</name><description>211407 PORT PRA (Centre)
posicio de les: 04/08/2018 23:56:07</description><styleUrl>#w_verdP</styleUrl><Point><coordinates>2.03595757484436,42.0080065727234,0</coordinates></Point></Placemark>
<Placemark><name>PUIG01</name><description>211501 PORT PUIG (Centre)
posicio de les: 04/08/2018 23:56:52</description><styleUrl>#w_verdP</styleUrl><Point><coordinates>1.92152380943298,42.4205732345581,0</coordinates></Point></Placemark>
<Placemark><name>12130</name><description>212130 BRP VIC (Centre)
posicio de les: 04/08/2018 23:56:12</description><styleUrl>#w_verdC</styleUrl><Point><coordinates>2.26483583450317,41.92706823349,0</coordinates></Point></Placemark>
<Placemark><name>12160</name><description>212160 AEA/AES/ABA VIC (Centre)
posicio de les: 04/08/2018 23:56:47</description><styleUrl>#w_verdC</styleUrl><Point><coordinates>2.26830124855042,41.9409191608429,0</coordinates></Point></Placemark>
<Placemark><name>20092</name><description>220092  REGIÓ
posicio de les: 04/08/2018 23:56:48</description><styleUrl>#w_verd</styleUrl><Point><coordinates>3.15672397613525,42.2752404212952,0</coordinates></Point></Placemark>
<Placemark><name>20134</name><description>220134 BFP AMER (Girona)
posicio de les: 04/08/2018 23:55:06</description><styleUrl>#w_grocC</styleUrl><Point><coordinates>3.15336585044861,42.3579275608063,0</coordinates></Point></Placemark>
<Placemark><name>BANY07</name><description>220307 PORT BANY (Girona)
posicio de les: 04/08/2018 23:56:13</description><styleUrl>#w_grocP</styleUrl><Point><coordinates>2.78595685958862,42.1177303791046,0</coordinates></Point></Placemark>
<Placemark><name>20330</name><description>220330 BRP BANY (Girona)
posicio de les: 04/08/2018 23:56:18</description><styleUrl>#w_grocC</styleUrl><Point><coordinates>2.78493762016296,42.1176767349243,0</coordinates></Point></Placemark>
<Placemark><name>20430</name><description>220430 BRP PERA (Girona)
posicio de les: 04/08/2018 23:56:53</description><styleUrl>#w_verdC</styleUrl><Point><coordinates>2.91783571243286,42.1394240856171,0</coordinates></Point></Placemark>
<Placemark><name>20434</name><description>220434 BFP PERA (Girona)
posicio de les: 04/08/2018 23:56:47</description><styleUrl>#w_verdC</styleUrl><Point><coordinates>2.9183828830719,42.1411514282227,0</coordinates></Point></Placemark>
<Placemark><name>CASS56</name><description>220856 PORT.COM CASS (Girona)
posicio de les: 04/08/2018 23:56:43</description><styleUrl>#w_grocP</styleUrl><Point><coordinates>2.88445830345154,41.8794000148773,0</coordinates></Point></Placemark>
<Placemark><name>FIGU 01</name><description>221001 PORT FIGU (Girona)
posicio de les: 04/08/2018 23:52:41</description><styleUrl>#w_verdP</styleUrl><Point><coordinates>3.14917087554932,42.2705519199371,0</coordinates></Point></Placemark>
<Placemark><name>21034</name><description>221034 BFP FIGU (Girona)
posicio de les: 04/08/2018 23:56:54</description><styleUrl>#w_verdC</styleUrl><Point><coordinates>2.81078338623047,42.0886015892029,0</coordinates></Point></Placemark>
<Placemark><name>FIGU56</name><description>221056 PORT.COM FIGU (Girona)
posicio de les: 04/08/2018 23:54:48</description><styleUrl>#w_verdP</styleUrl><Point><coordinates>2.97047138214111,42.2723543643951,0</coordinates></Point></Placemark>
<Placemark><name>GIRO56</name><description>221156 PORT.COM GIRO (Girona)
posicio de les: 04/08/2018 23:51:38</description><styleUrl>#w_verdP</styleUrl><Point><coordinates>2.80628800392151,41.9604456424713,0</coordinates></Point></Placemark>
<Placemark><name>HOST05</name><description>221205 PORT HOST (Girona)
posicio de les: 04/08/2018 23:55:23</description><styleUrl>#w_grocP</styleUrl><Point><coordinates>2.62440204620361,41.7481756210327,0</coordinates></Point></Placemark>
<Placemark><name>21230</name><description>221230 BRP HOST (Girona)
posicio de les: 04/08/2018 23:52:50</description><styleUrl>#w_grocC</styleUrl><Point><coordinates>2.62463808059692,41.748218536377,0</coordinates></Point></Placemark>
<Placemark><name>HOST57</name><description>221257 PORT.COM HOST (Girona)
posicio de les: 04/08/2018 23:56:42</description><styleUrl>#w_verdP</styleUrl><Point><coordinates>2.62456297874451,41.7480361461639,0</coordinates></Point></Placemark>
<Placemark><name>JONQ03</name><description>221303 PORT JONQ (Girona)
posicio de les: 04/08/2018 23:56:13</description><styleUrl>#w_grocP</styleUrl><Point><coordinates>2.87639021873474,42.4119794368744,0</coordinates></Point></Placemark>
<Placemark><name>JONQ56</name><description>221356 PORT.COM JONQ (Girona)
posicio de les: 04/08/2018 23:55:44</description><styleUrl>#w_grocP</styleUrl><Point><coordinates>2.87632584571838,42.4121940135956,0</coordinates></Point></Placemark>
<Placemark><name>21434</name><description>221434 BFP LLAN (Girona)
posicio de les: 04/08/2018 23:53:28</description><styleUrl>#w_verdC</styleUrl><Point><coordinates>2.97146916389465,42.2723007202148,0</coordinates></Point></Placemark>
<Placemark><name>LLAN57</name><description>221457 PORT.COM LLAN (Girona)
posicio de les: 04/08/2018 23:53:46</description><styleUrl>#w_grocP</styleUrl><Point><coordinates>3.15295815467834,42.3573696613312,0</coordinates></Point></Placemark>
<Placemark><name>LLOR05</name><description>221505 PORT LLOR (Girona)
posicio de les: 04/08/2018 23:55:55</description><styleUrl>#w_grocP</styleUrl><Point><coordinates>2.83619999885559,41.6994345188141,0</coordinates></Point></Placemark>
<Placemark><name>LLOR56</name><description>221556 PORT.COM LLOR (Girona)
posicio de les: 04/08/2018 23:52:14</description><styleUrl>#w_verdP</styleUrl><Point><coordinates>2.83622145652771,41.6993272304535,0</coordinates></Point></Placemark>
<Placemark><name>21630</name><description>221630 BRP MACA (Girona)
posicio de les: 04/08/2018 23:53:45</description><styleUrl>#w_grocC</styleUrl><Point><coordinates>2.75298714637756,41.7795360088348,0</coordinates></Point></Placemark>
<Placemark><name>OLOT56</name><description>221756 PORT.COM OLOT (Girona)
posicio de les: 04/08/2018 23:56:20</description><styleUrl>#w_verdP</styleUrl><Point><coordinates>2.47503519058228,42.1900856494904,0</coordinates></Point></Placemark>
<Placemark><name>PALA56</name><description>221856 PORT.COM PALA (Girona)
posicio de les: 04/08/2018 23:55:42</description><styleUrl>#w_grocP</styleUrl><Point><coordinates>3.15613389015198,41.9260704517365,0</coordinates></Point></Placemark>
<Placemark><name>PALA57</name><description>221857 PORT.COM PALA (Girona)
posicio de les: 04/08/2018 23:52:23</description><styleUrl>#w_verdP</styleUrl><Point><coordinates>3.15591931343079,41.9257485866547,0</coordinates></Point></Placemark>
<Placemark><name>RIPO03</name><description>222103 PORT RIPO (Girona)
posicio de les: 04/08/2018 23:56:02</description><styleUrl>#w_grocP</styleUrl><Point><coordinates>2.1682870388031,42.215062379837,0</coordinates></Point></Placemark>
<Placemark><name>22130</name><description>222130 BRP RIPO (Girona)
posicio de les: 04/08/2018 23:52:32</description><styleUrl>#w_grocC</styleUrl><Point><coordinates>2.16756820678711,42.2147297859192,0</coordinates></Point></Placemark>
<Placemark><name>ROSE56</name><description>222256 PORT.COM ROSE (Girona)
posicio de les: 04/08/2018 23:56:05</description><styleUrl>#w_verdP</styleUrl><Point><coordinates>3.16046833992004,42.2763669490814,0</coordinates></Point></Placemark>
<Placemark><name>22290</name><description>222290 UPC ROSE (Girona)
posicio de les: 04/08/2018 23:56:45</description><styleUrl>#w_verd</styleUrl><Point><coordinates>2.97227382659912,42.271603345871,0</coordinates></Point></Placemark>
<Placemark><name>22630</name><description>222630 BRP TORR (Girona)
posicio de les: 04/08/2018 23:56:19</description><styleUrl>#w_verdC</styleUrl><Point><coordinates>3.11906576156616,42.0449030399323,0</coordinates></Point></Placemark>
<Placemark><name>TORR56</name><description>222656 PORT.COM TORR (Girona)
posicio de les: 04/08/2018 23:56:54</description><styleUrl>#w_verdP</styleUrl><Point><coordinates>3.11357259750366,42.046834230423,0</coordinates></Point></Placemark>
<Placemark><name>VALL57</name><description>222857 PORT.COM VALL (Girona)
posicio de les: 04/08/2018 23:55:13</description><styleUrl>#w_grocP</styleUrl><Point><coordinates>3.03160429000854,41.8087828159332,0</coordinates></Point></Placemark>
<Placemark><name>I308</name><description>227308 P.GUAITA GUAITA
posicio de les: 04/08/2018 23:52:01</description><styleUrl>#w_verdP</styleUrl><Point><coordinates>3.15579056739807,41.9258880615234,0</coordinates></Point></Placemark>
<Placemark><name>D9REG</name><description>228049  SERVEIS REGIÓ
posicio de les: 04/08/2018 23:55:16</description><styleUrl>#w_groc</styleUrl><Point><coordinates>2.8063952922821,41.9601881504059,0</coordinates></Point></Placemark>
<Placemark><name>D0REL</name><description>230010 P.CG REGIÓ
posicio de les: 04/08/2018 23:53:17</description><styleUrl>#w_verdP</styleUrl><Point><coordinates>0.604891777038574,41.6237425804138,0</coordinates></Point></Placemark>
<Placemark><name>30091</name><description>230091  REGIÓ
posicio de les: 04/08/2018 23:56:13</description><styleUrl>#w_groc</styleUrl><Point><coordinates>0.605438947677612,41.6241180896759,0</coordinates></Point></Placemark>
<Placemark><name>30092</name><description>230092  REGIÓ
posicio de les: 04/08/2018 23:54:34</description><styleUrl>#w_verd</styleUrl><Point><coordinates>0.605342388153076,41.6233777999878,0</coordinates></Point></Placemark>
<Placemark><name>ALMA01</name><description>230301 PORT ALMA (Lleida)
posicio de les: 04/08/2018 23:54:50</description><styleUrl>#w_grocP</styleUrl><Point><coordinates>0.433809757232666,41.7319321632385,0</coordinates></Point></Placemark>
<Placemark><name>ALMA02</name><description>230302 PORT ALMA (Lleida)
posicio de les: 04/08/2018 23:56:27</description><styleUrl>#w_grocP</styleUrl><Point><coordinates>0.433863401412964,41.7318141460419,0</coordinates></Point></Placemark>
<Placemark><name>BORG05</name><description>230705 PORT BORG (Lleida)
posicio de les: 04/08/2018 23:56:25</description><styleUrl>#w_grocP</styleUrl><Point><coordinates>0.845046043395996,41.507602930069,0</coordinates></Point></Placemark>
<Placemark><name>BORG06</name><description>230706 PORT BORG (Lleida)
posicio de les: 04/08/2018 23:56:05</description><styleUrl>#w_grocP</styleUrl><Point><coordinates>0.844734907150269,41.5073668956757,0</coordinates></Point></Placemark>
<Placemark><name>BORG56</name><description>230756 PORT.COM BORG (Lleida)
posicio de les: 04/08/2018 23:56:45</description><styleUrl>#w_verdP</styleUrl><Point><coordinates>0.845217704772949,41.5070235729218,0</coordinates></Point></Placemark>
<Placemark><name>GUIS05</name><description>231405 PORT GUIS (Lleida)
posicio de les: 04/08/2018 23:51:50</description><styleUrl>#w_verdP</styleUrl><Point><coordinates>1.28275036811829,41.7824327945709,0</coordinates></Point></Placemark>
<Placemark><name>31430</name><description>231430 BRP GUIS (Lleida)
posicio de les: 04/08/2018 23:52:11</description><styleUrl>#w_grocC</styleUrl><Point><coordinates>1.28306150436401,41.7822182178497,0</coordinates></Point></Placemark>
<Placemark><name>MOLL07</name><description>232007 PORT MOLL (Lleida)
posicio de les: 04/08/2018 23:56:01</description><styleUrl>#w_verdP</styleUrl><Point><coordinates>0.898282527923584,41.6368854045868,0</coordinates></Point></Placemark>
<Placemark><name>MOLL56</name><description>232056 PORT.COM MOLL (Lleida)
posicio de les: 04/08/2018 23:54:28</description><styleUrl>#w_verdP</styleUrl><Point><coordinates>0.898529291152954,41.6366493701935,0</coordinates></Point></Placemark>
<Placemark><name>32090</name><description>232090 UPC MOLL (Lleida)
posicio de les: 04/08/2018 23:53:18</description><styleUrl>#w_groc</styleUrl><Point><coordinates>0.898100137710571,41.6366064548492,0</coordinates></Point></Placemark>
<Placemark><name>32230</name><description>232230 BRP OLIA (Lleida)
posicio de les: 04/08/2018 23:56:22</description><styleUrl>#w_grocC</styleUrl><Point><coordinates>1.3128662109375,42.0642256736755,0</coordinates></Point></Placemark>
<Placemark><name>32234</name><description>232234 BFP OLIA (Lleida)
posicio de les: 04/08/2018 23:54:17</description><styleUrl>#w_grocC</styleUrl><Point><coordinates>1.31190061569214,42.0662426948547,0</coordinates></Point></Placemark>
<Placemark><name>POBL01</name><description>232401 PORT POBL (Lleida)
posicio de les: 04/08/2018 23:55:09</description><styleUrl>#w_verdP</styleUrl><Point><coordinates>0.964146852493286,42.2391486167908,0</coordinates></Point></Placemark>
<Placemark><name>PONT56</name><description>232556 PORT.COM PONT (Lleida)
posicio de les: 04/08/2018 23:56:31</description><styleUrl>#w_grocP</styleUrl><Point><coordinates>0.739721059799194,42.4106276035309,0</coordinates></Point></Placemark>
<Placemark><name>PONS01</name><description>232601 PORT PONS (Lleida)
posicio de les: 04/08/2018 23:55:30</description><styleUrl>#w_verdP</styleUrl><Point><coordinates>1.17550492286682,41.8751621246338,0</coordinates></Point></Placemark>
<Placemark><name>32630</name><description>232630 BRP PONS (Lleida)
posicio de les: 04/08/2018 23:53:23</description><styleUrl>#w_grocC</styleUrl><Point><coordinates>1.17547273635864,41.8751299381256,0</coordinates></Point></Placemark>
<Placemark><name>PONS56</name><description>232656 PORT.COM PONS (Lleida)
posicio de les: 04/08/2018 23:55:49</description><styleUrl>#w_verdP</styleUrl><Point><coordinates>1.1755907535553,41.875011920929,0</coordinates></Point></Placemark>
<Placemark><name>SEU09</name><description>232909 PORT SEU (Lleida)
posicio de les: 04/08/2018 23:54:17</description><styleUrl>#w_verdP</styleUrl><Point><coordinates>1.47199630737305,42.3608243465424,0</coordinates></Point></Placemark>
<Placemark><name>40081</name><description>240081  REGIÓ
posicio de les: 04/08/2018 23:56:53</description><styleUrl>#w_groc</styleUrl><Point><coordinates>2.11263656616211,41.5023994445801,0</coordinates></Point></Placemark>
<Placemark><name>40091</name><description>240091  REGIÓ
posicio de les: 04/08/2018 23:52:28</description><styleUrl>#w_groc</styleUrl><Point><coordinates>2.11289405822754,41.5040624141693,0</coordinates></Point></Placemark>
<Placemark><name>40240</name><description>240240 BUP BAD (Metro. Nord)
posicio de les: 04/08/2018 23:56:40</description><styleUrl>#w_grocC</styleUrl><Point><coordinates>2.21995711326599,41.4383804798126,0</coordinates></Point></Placemark>
<Placemark><name>40290</name><description>240290 UPC BAD (Metro. Nord)
posicio de les: 04/08/2018 23:52:43</description><styleUrl>#w_groc</styleUrl><Point><coordinates>2.03394055366516,41.4734852313995,0</coordinates></Point></Placemark>
<Placemark><name>CER03</name><description>240503 PORT CER (Metro. Nord)
posicio de les: 04/08/2018 23:55:04</description><styleUrl>#w_grocP</styleUrl><Point><coordinates>2.11159586906433,41.5025496482849,0</coordinates></Point></Placemark>
<Placemark><name>GRA05</name><description>240605 PORT GRA (Metro. Nord)
posicio de les: 04/08/2018 23:56:52</description><styleUrl>#w_verdP</styleUrl><Point><coordinates>2.27459907531738,41.5908265113831,0</coordinates></Point></Placemark>
<Placemark><name>GRA07</name><description>240607 PORT GRA (Metro. Nord)
posicio de les: 04/08/2018 23:56:16</description><styleUrl>#w_verdP</styleUrl><Point><coordinates>2.27449178695679,41.5910410881042,0</coordinates></Point></Placemark>
<Placemark><name>MOL03</name><description>241003 PORT MOL (Metro. Nord)
posicio de les: 04/08/2018 23:55:04</description><styleUrl>#w_verdP</styleUrl><Point><coordinates>2.20080614089966,41.5370857715607,0</coordinates></Point></Placemark>
<Placemark><name>41034</name><description>241034 BFP MOL (Metro. Nord)
posicio de les: 04/08/2018 23:55:48</description><styleUrl>#w_verdC</styleUrl><Point><coordinates>2.20241546630859,41.5370321273804,0</coordinates></Point></Placemark>
<Placemark><name>MFI01</name><description>241101 PORT MFI (Metro. Nord)
posicio de les: 04/08/2018 23:56:03</description><styleUrl>#w_verdP</styleUrl><Point><coordinates>2.27183103561401,41.7162573337555,0</coordinates></Point></Placemark>
<Placemark><name>41248</name><description>241248 BUL PIN (Metro. Nord)
posicio de les: 04/08/2018 23:56:24</description><styleUrl>#w_verdC</styleUrl><Point><coordinates>2.66332626342773,41.6175198554993,0</coordinates></Point></Placemark>
<Placemark><name>SAB01</name><description>241401 PORT SAB (Metro. Nord)
posicio de les: 04/08/2018 23:52:24</description><styleUrl>#w_verdP</styleUrl><Point><coordinates>2.10380673408508,41.5424716472626,0</coordinates></Point></Placemark>
<Placemark><name>SAB06</name><description>241406 PORT SAB (Metro. Nord)
posicio de les: 04/08/2018 23:55:32</description><styleUrl>#w_verdP</styleUrl><Point><coordinates>2.10391402244568,41.542729139328,0</coordinates></Point></Placemark>
<Placemark><name>SAB56</name><description>241456 PORT.COM SAB (Metro. Nord)
posicio de les: 04/08/2018 23:54:40</description><styleUrl>#w_verdP</styleUrl><Point><coordinates>2.1044397354126,41.5423965454102,0</coordinates></Point></Placemark>
<Placemark><name>SCE08</name><description>241608 PORT SCE (Metro. Nord)
posicio de les: 04/08/2018 23:56:03</description><styleUrl>#w_verdP</styleUrl><Point><coordinates>2.5072968006134,41.6951537132263,0</coordinates></Point></Placemark>
<Placemark><name>SCG07</name><description>241807 PORT SCG (Metro. Nord)
posicio de les: 04/08/2018 23:53:34</description><styleUrl>#w_verdP</styleUrl><Point><coordinates>2.20934629440308,41.463303565979,0</coordinates></Point></Placemark>
<Placemark><name>41848</name><description>241848 BUL SCG (Metro. Nord)
posicio de les: 04/08/2018 23:52:15</description><styleUrl>#w_grocC</styleUrl><Point><coordinates>2.21799373626709,41.4457082748413,0</coordinates></Point></Placemark>
<Placemark><name>TER11</name><description>242011 PORT TER (Metro. Nord)
posicio de les: 04/08/2018 23:56:14</description><styleUrl>#w_verdP</styleUrl><Point><coordinates>2.02622652053833,41.5681350231171,0</coordinates></Point></Placemark>
<Placemark><name>TER56</name><description>242056 PORT.COM TER (Metro. Nord)
posicio de les: 04/08/2018 23:56:08</description><styleUrl>#w_grocP</styleUrl><Point><coordinates>2.02603340148926,41.5678668022156,0</coordinates></Point></Placemark>
<Placemark><name>50093</name><description>250093  REGIÓ
posicio de les: 04/08/2018 23:55:20</description><styleUrl>#w_verd</styleUrl><Point><coordinates>2.10003018379211,41.38028383255,0</coordinates></Point></Placemark>
<Placemark><name>50490</name><description>250490 UPC COR (Metro. Sud)
posicio de les: 04/08/2018 23:52:41</description><styleUrl>#w_groc</styleUrl><Point><coordinates>2.07025766372681,41.3625812530518,0</coordinates></Point></Placemark>
<Placemark><name>GAV56</name><description>250556 PORT.COM GAV (Metro. Sud)
posicio de les: 04/08/2018 23:55:55</description><styleUrl>#w_verdP</styleUrl><Point><coordinates>1.99046730995178,41.3002681732178,0</coordinates></Point></Placemark>
<Placemark><name>HOS06</name><description>250706 PORT HOS (Metro. Sud)
posicio de les: 04/08/2018 23:55:06</description><styleUrl>#w_grocP</styleUrl><Point><coordinates>2.10567355155945,41.3699305057526,0</coordinates></Point></Placemark>
<Placemark><name>HOS56</name><description>250756 PORT.COM HOS (Metro. Sud)
posicio de les: 04/08/2018 23:56:34</description><styleUrl>#w_verdP</styleUrl><Point><coordinates>2.10600614547729,41.3702845573425,0</coordinates></Point></Placemark>
<Placemark><name>50790</name><description>250790 UPC HOS (Metro. Sud)
posicio de les: 04/08/2018 23:54:42</description><styleUrl>#w_groc</styleUrl><Point><coordinates>2.10590958595276,41.3700699806213,0</coordinates></Point></Placemark>
<Placemark><name>MAR57</name><description>251057 PORT.COM MAR (Metro. Sud)
posicio de les: 04/08/2018 23:55:35</description><styleUrl>#w_verdP</styleUrl><Point><coordinates>1.90543055534363,41.4979791641235,0</coordinates></Point></Placemark>
<Placemark><name>PLL06</name><description>251206 PORT PLL (Metro. Sud)
posicio de les: 04/08/2018 23:56:13</description><styleUrl>#w_verdP</styleUrl><Point><coordinates>2.08131909370422,41.3169300556183,0</coordinates></Point></Placemark>
<Placemark><name>SBOI57</name><description>251357 PORT.COM SBOI (Metro. Sud)
posicio de les: 04/08/2018 23:55:51</description><styleUrl>#w_verdP</styleUrl><Point><coordinates>2.03449845314026,41.3231635093689,0</coordinates></Point></Placemark>
<Placemark><name>SFE02</name><description>251502 PORT SFE (Metro. Sud)
posicio de les: 04/08/2018 23:56:49</description><styleUrl>#w_verdP</styleUrl><Point><coordinates>2.04268455505371,41.3886523246765,0</coordinates></Point></Placemark>
<Placemark><name>SFE03</name><description>251503 PORT SFE (Metro. Sud)
posicio de les: 04/08/2018 23:56:26</description><styleUrl>#w_verdP</styleUrl><Point><coordinates>2.04278111457825,41.3885986804962,0</coordinates></Point></Placemark>
<Placemark><name>VIL06</name><description>251906 PORT VIL (Metro. Sud)
posicio de les: 04/08/2018 23:50:56</description><styleUrl>#w_verdP</styleUrl><Point><coordinates>1.71713948249817,41.2186110019684,0</coordinates></Point></Placemark>
<Placemark><name>51948</name><description>251948 BUL VIL (Metro. Sud)
posicio de les: 04/08/2018 23:54:30</description><styleUrl>#w_verdC</styleUrl><Point><coordinates>1.71453237533569,41.2205421924591,0</coordinates></Point></Placemark>
<Placemark><name>RET12</name><description>260012 P.Tec REGIÓ
posicio de les: 04/08/2018 23:55:56</description><styleUrl>#w_verdP</styleUrl><Point><coordinates>1.23161673545837,41.141631603241,0</coordinates></Point></Placemark>
<Placemark><name>GE0RET</name><description>260013 P.Tec REGIÓ
posicio de les: 04/08/2018 23:53:38</description><styleUrl>#w_verdP</styleUrl><Point><coordinates>1.18479609489441,41.1345827579498,0</coordinates></Point></Placemark>
<Placemark><name>GE600</name><description>260017 P.Tec REGIÓ
posicio de les: 04/08/2018 23:53:38</description><styleUrl>#w_verdP</styleUrl><Point><coordinates>1.18385195732117,41.1358165740967,0</coordinates></Point></Placemark>
<Placemark><name>60092</name><description>260092  REGIÓ
posicio de les: 04/08/2018 23:56:50</description><styleUrl>#w_verd</styleUrl><Point><coordinates>1.22905254364014,41.1370825767517,0</coordinates></Point></Placemark>
<Placemark><name>FALS06</name><description>260406 PORT FALS (Tarragona)
posicio de les: 04/08/2018 23:52:12</description><styleUrl>#w_verdP</styleUrl><Point><coordinates>0.823534727096558,41.1472749710083,0</coordinates></Point></Placemark>
<Placemark><name>260508</name><description>260508 PORT HOSP (Tarragona)
posicio de les: 04/08/2018 23:56:50</description><styleUrl>#w_verdP</styleUrl><Point><coordinates>0.919815301895142,40.9936380386353,0</coordinates></Point></Placemark>
<Placemark><name>REUS03</name><description>260803 PORT REUS (Tarragona)
posicio de les: 04/08/2018 23:55:18</description><styleUrl>#w_verdP</styleUrl><Point><coordinates>1.11894249916077,41.1504721641541,0</coordinates></Point></Placemark>
<Placemark><name>REUS06</name><description>260806 PORT REUS (Tarragona)
posicio de les: 04/08/2018 23:56:02</description><styleUrl>#w_grocP</styleUrl><Point><coordinates>1.11877083778381,41.151008605957,0</coordinates></Point></Placemark>
<Placemark><name>REUS12</name><description>260812 PORT REUS (Tarragona)
posicio de les: 04/08/2018 23:55:13</description><styleUrl>#w_verdP</styleUrl><Point><coordinates>1.11792325973511,41.1512553691864,0</coordinates></Point></Placemark>
<Placemark><name>REUS56</name><description>260856 PORT.COM REUS (Tarragona)
posicio de les: 04/08/2018 23:56:41</description><styleUrl>#w_verdP</styleUrl><Point><coordinates>1.11811637878418,41.1512124538422,0</coordinates></Point></Placemark>
<Placemark><name>E00RETE</name><description>270014 P.Tec REGIÓ
posicio de les: 04/08/2018 23:56:47</description><styleUrl>#w_grocP</styleUrl><Point><coordinates>0.513278245925903,40.8193480968475,0</coordinates></Point></Placemark>
<Placemark><name>AMET06</name><description>272006 PORT AMET (Terres de l'Ebre)
posicio de les: 04/08/2018 23:56:06</description><styleUrl>#w_verdP</styleUrl><Point><coordinates>0.797646045684814,40.8907055854797,0</coordinates></Point></Placemark>
<Placemark><name>GAND56</name><description>272656 PORT.COM GAND (Terres de l'Ebre)
posicio de les: 04/08/2018 23:55:15</description><styleUrl>#w_grocP</styleUrl><Point><coordinates>0.439260005950928,41.0584831237793,0</coordinates></Point></Placemark>
<Placemark><name>MORA57</name><description>272857 PORT.COM MORA (Terres de l'Ebre)
posicio de les: 04/08/2018 23:55:15</description><styleUrl>#w_verdP</styleUrl><Point><coordinates>0.629889965057373,41.0861206054688,0</coordinates></Point></Placemark>
<Placemark><name>ULLD08</name><description>273108 PORT ULLD (Terres de l'Ebre)
posicio de les: 04/08/2018 23:52:20</description><styleUrl>#w_grocP</styleUrl><Point><coordinates>0.35831093788147,40.6086444854736,0</coordinates></Point></Placemark>
</Folder>
<Folder>
<name>Descarregues</name>
</Folder>
<Style id="w_verdP_n"><IconStyle><color>ff00ff00</color><scale>1.0</scale><Icon><href>http://maps.google.com/mapfiles/kml/shapes/man.png</href></Icon><hotSpot x="0.5" y="0" xunits="fraction" yunits="fraction"/></IconStyle><LabelStyle><scale>0.7</scale></LabelStyle></Style>
<Style id="w_verdP_s"><IconStyle><color>ff00ff00</color><scale>1.4</scale><Icon><href>http://maps.google.com/mapfiles/kml/shapes/man.png</href></Icon><hotSpot x="0.5" y="0" xunits="fraction" yunits="fraction"/></IconStyle><LabelStyle><scale>0.7</scale></LabelStyle></Style>
<StyleMap id="w_verdP"><Pair><key>normal</key><styleUrl>#w_verdP_n</styleUrl></Pair><Pair><key>highlight</key><styleUrl>#w_verdP_s</styleUrl></Pair></StyleMap>
<Style id="w_verd_n"><IconStyle><color>ff00ff00</color><scale>0.7</scale><Icon><href>http://maps.google.com/mapfiles/kml/shapes/cabs.png</href></Icon><hotSpot x="0.5" y="0" xunits="fraction" yunits="fraction"/></IconStyle><LabelStyle><scale>0.7</scale></LabelStyle></Style>
<Style id="w_verd_s"><IconStyle><color>ff00ff00</color><scale>1.0</scale><Icon><href>http://maps.google.com/mapfiles/kml/shapes/cabs.png</href></Icon><hotSpot x="0.5" y="0" xunits="fraction" yunits="fraction"/></IconStyle><LabelStyle><scale>0.7</scale></LabelStyle></Style>
<StyleMap id="w_verd"><Pair><key>normal</key><styleUrl>#w_verd_n</styleUrl></Pair><Pair><key>highlight</key><styleUrl>#w_verd_s</styleUrl></Pair></StyleMap>
<Style id="w_verdC_n"><IconStyle><color>ff00ff00</color><scale>1.0</scale><Icon><href>http://maps.google.com/mapfiles/kml/shapes/truck.png</href></Icon><hotSpot x="0.5" y="0" xunits="fraction" yunits="fraction"/></IconStyle><LabelStyle><scale>0.7</scale></LabelStyle></Style>
<Style id="w_verdC_s"><IconStyle><color>ff00ff00</color><scale>1.4</scale><Icon><href>http://maps.google.com/mapfiles/kml/shapes/truck.png</href></Icon><hotSpot x="0.5" y="0" xunits="fraction" yunits="fraction"/></IconStyle><LabelStyle><scale>0.7</scale></LabelStyle></Style>
<StyleMap id="w_verdC"><Pair><key>normal</key><styleUrl>#w_verdC_n</styleUrl></Pair><Pair><key>highlight</key><styleUrl>#w_verdC_s</styleUrl></Pair></StyleMap>
<Style id="w_verdH_n"><IconStyle><color>ff0000ff</color><scale>1.2</scale><Icon><href>http://maps.google.com/mapfiles/kml/shapes/heliport.png</href></Icon><hotSpot x="0.5" y="0" xunits="fraction" yunits="fraction"/></IconStyle><LabelStyle><scale>0.7</scale></LabelStyle></Style>
<Style id="w_verdH_s"><IconStyle><color>ff0000ff</color><scale>1.4</scale><Icon><href>http://maps.google.com/mapfiles/kml/shapes/heliport.png</href></Icon><hotSpot x="0.5" y="0" xunits="fraction" yunits="fraction"/></IconStyle><LabelStyle><scale>0.7</scale></LabelStyle></Style>
<StyleMap id="w_verdH"><Pair><key>normal</key><styleUrl>#w_verdH_n</styleUrl></Pair><Pair><key>highlight</key><styleUrl>#w_verdH_s</styleUrl></Pair></StyleMap>
<Style id="w_verdA_n"><IconStyle><color>ff0000ff</color><scale>1.2</scale><Icon><href>http://maps.google.com/mapfiles/kml/shapes/airports.png</href></Icon><hotSpot x="0.5" y="0" xunits="fraction" yunits="fraction"/></IconStyle><LabelStyle><scale>0.7</scale></LabelStyle></Style>
<Style id="w_verdA_s"><IconStyle><color>ff0000ff</color><scale>1.4</scale><Icon><href>http://maps.google.com/mapfiles/kml/shapes/airports.png</href></Icon><hotSpot x="0.5" y="0" xunits="fraction" yunits="fraction"/></IconStyle><LabelStyle><scale>0.7</scale></LabelStyle></Style>
<StyleMap id="w_verdA"><Pair><key>normal</key><styleUrl>#w_verdA_n</styleUrl></Pair><Pair><key>highlight</key><styleUrl>#w_verdA_s</styleUrl></Pair></StyleMap>
<Style id="w_verdB_n"><IconStyle><color>ff00ff00</color><scale>1.0</scale><Icon><href>http://maps.google.com/mapfiles/kml/shapes/sailing.png</href></Icon><hotSpot x="0.5" y="0" xunits="fraction" yunits="fraction"/></IconStyle><LabelStyle><scale>0.7</scale></LabelStyle></Style>
<Style id="w_verdB_s"><IconStyle><color>ff00ff00</color><scale>1.4</scale><Icon><href>http://maps.google.com/mapfiles/kml/shapes/sailing.png</href></Icon><hotSpot x="0.5" y="0" xunits="fraction" yunits="fraction"/></IconStyle><LabelStyle><scale>0.7</scale></LabelStyle></Style>
<StyleMap id="w_verdB"><Pair><key>normal</key><styleUrl>#w_verdBAR_n</styleUrl></Pair><Pair><key>highlight</key><styleUrl>#w_verdBAR_s</styleUrl></Pair></StyleMap>
<Style id="w_grocP_n"><IconStyle><color>ff00ffff</color><scale>1.0</scale><Icon><href>http://maps.google.com/mapfiles/kml/shapes/man.png</href></Icon><hotSpot x="0.5" y="0" xunits="fraction" yunits="fraction"/></IconStyle><LabelStyle><scale>0.7</scale></LabelStyle></Style>
<Style id="w_grocP_s"><IconStyle><color>ff00ffff</color><scale>1.4</scale><Icon><href>http://maps.google.com/mapfiles/kml/shapes/man.png</href></Icon><hotSpot x="0.5" y="0" xunits="fraction" yunits="fraction"/></IconStyle><LabelStyle><scale>0.7</scale></LabelStyle></Style>
<StyleMap id="w_grocP"><Pair><key>normal</key><styleUrl>#w_grocP_n</styleUrl></Pair><Pair><key>highlight</key><styleUrl>#w_grocP_s</styleUrl></Pair></StyleMap>
<Style id="w_groc_n"><IconStyle><color>ff00ffff</color><scale>0.7</scale><Icon><href>http://maps.google.com/mapfiles/kml/shapes/cabs.png</href></Icon><hotSpot x="0.5" y="0" xunits="fraction" yunits="fraction"/></IconStyle><LabelStyle><scale>0.7</scale></LabelStyle></Style>
<Style id="w_groc_s"><IconStyle><color>ff00ffff</color><scale>1.0</scale><Icon><href>http://maps.google.com/mapfiles/kml/shapes/cabs.png</href></Icon><hotSpot x="0.5" y="0" xunits="fraction" yunits="fraction"/></IconStyle><LabelStyle><scale>0.7</scale></LabelStyle></Style>
<StyleMap id="w_groc"><Pair><key>normal</key><styleUrl>#w_groc_n</styleUrl></Pair><Pair><key>highlight</key><styleUrl>#w_groc_s</styleUrl></Pair></StyleMap>
<Style id="w_grocC_n"><IconStyle><color>ff00ffff</color><scale>1.0</scale><Icon><href>http://maps.google.com/mapfiles/kml/shapes/truck.png</href></Icon><hotSpot x="0.5" y="0" xunits="fraction" yunits="fraction"/></IconStyle><LabelStyle><scale>0.7</scale></LabelStyle></Style>
<Style id="w_grocC_s"><IconStyle><color>ff00ffff</color><scale>1.4</scale><Icon><href>http://maps.google.com/mapfiles/kml/shapes/truck.png</href></Icon><hotSpot x="0.5" y="0" xunits="fraction" yunits="fraction"/></IconStyle><LabelStyle><scale>0.7</scale></LabelStyle></Style>
<StyleMap id="w_grocC"><Pair><key>normal</key><styleUrl>#w_grocC_n</styleUrl></Pair><Pair><key>highlight</key><styleUrl>#w_grocC_s</styleUrl></Pair></StyleMap>
<Style id="w_grocH_n"><IconStyle><color>ff0000ff</color><scale>1.2</scale><Icon><href>http://maps.google.com/mapfiles/kml/shapes/heliport.png</href></Icon><hotSpot x="0.5" y="0" xunits="fraction" yunits="fraction"/></IconStyle><LabelStyle><scale>0.7</scale></LabelStyle></Style>
<Style id="w_grocH_s"><IconStyle><color>ff0000ff</color><scale>1.4</scale><Icon><href>http://maps.google.com/mapfiles/kml/shapes/heliport.png</href></Icon><hotSpot x="0.5" y="0" xunits="fraction" yunits="fraction"/></IconStyle><LabelStyle><scale>0.7</scale></LabelStyle></Style>
<StyleMap id="w_grocH"><Pair><key>normal</key><styleUrl>#w_grocH_n</styleUrl></Pair><Pair><key>highlight</key><styleUrl>#w_grocH_s</styleUrl></Pair></StyleMap>
<Style id="w_grocA_n"><IconStyle><color>ff0000ff</color><scale>1.2</scale><Icon><href>http://maps.google.com/mapfiles/kml/shapes/airports.png</href></Icon><hotSpot x="0.5" y="0" xunits="fraction" yunits="fraction"/></IconStyle><LabelStyle><scale>0.7</scale></LabelStyle></Style>
<Style id="w_grocA_s"><IconStyle><color>ff0000ff</color><scale>1.4</scale><Icon><href>http://maps.google.com/mapfiles/kml/shapes/airports.png</href></Icon><hotSpot x="0.5" y="0" xunits="fraction" yunits="fraction"/></IconStyle><LabelStyle><scale>0.7</scale></LabelStyle></Style>
<StyleMap id="w_grocA"><Pair><key>normal</key><styleUrl>#w_grocA_n</styleUrl></Pair><Pair><key>highlight</key><styleUrl>#w_grocA_s</styleUrl></Pair></StyleMap>
<Style id="w_grocB_n"><IconStyle><color>ff00ffff</color><scale>1.0</scale><Icon><href>http://maps.google.com/mapfiles/kml/shapes/sailing.png</href></Icon><hotSpot x="0.5" y="0" xunits="fraction" yunits="fraction"/></IconStyle><LabelStyle><scale>0.7</scale></LabelStyle></Style>
<Style id="w_grocB_s"><IconStyle><color>ff00ffff</color><scale>1.4</scale><Icon><href>http://maps.google.com/mapfiles/kml/shapes/sailing.png</href></Icon><hotSpot x="0.5" y="0" xunits="fraction" yunits="fraction"/></IconStyle><LabelStyle><scale>0.7</scale></LabelStyle></Style>
<StyleMap id="w_grocB"><Pair><key>normal</key><styleUrl>#w_grocBAR_n</styleUrl></Pair><Pair><key>highlight</key><styleUrl>#w_grocBAR_s</styleUrl></Pair></StyleMap>
<Style id="w_vermellP_n"><IconStyle><color>ff0000ff</color><scale>1.0</scale><Icon><href>http://maps.google.com/mapfiles/kml/shapes/man.png</href></Icon><hotSpot x="0.5" y="0" xunits="fraction" yunits="fraction"/></IconStyle><LabelStyle><scale>0.7</scale></LabelStyle></Style>
<Style id="w_vermellP_s"><IconStyle><color>ff0000ff</color><scale>1.4</scale><Icon><href>http://maps.google.com/mapfiles/kml/shapes/man.png</href></Icon><hotSpot x="0.5" y="0" xunits="fraction" yunits="fraction"/></IconStyle><LabelStyle><scale>0.7</scale></LabelStyle></Style>
<StyleMap id="w_vermellP"><Pair><key>normal</key><styleUrl>#w_vermellP_n</styleUrl></Pair><Pair><key>highlight</key><styleUrl>#w_vermellP_s</styleUrl></Pair></StyleMap>
<Style id="w_vermell_n"><IconStyle><color>ff0000ff</color><scale>0.7</scale><Icon><href>http://maps.google.com/mapfiles/kml/shapes/cabs.png</href></Icon><hotSpot x="0.5" y="0" xunits="fraction" yunits="fraction"/></IconStyle><LabelStyle><scale>0.7</scale></LabelStyle></Style>
<Style id="w_vermell_s"><IconStyle><color>ff0000ff</color><scale>1.0</scale><Icon><href>http://maps.google.com/mapfiles/kml/shapes/cabs.png</href></Icon><hotSpot x="0.5" y="0" xunits="fraction" yunits="fraction"/></IconStyle><LabelStyle><scale>0.7</scale></LabelStyle></Style>
<StyleMap id="w_vermell"><Pair><key>normal</key><styleUrl>#w_vermell_n</styleUrl></Pair><Pair><key>highlight</key><styleUrl>#w_vermell_s</styleUrl></Pair></StyleMap>
<Style id="w_vermellC_n"><IconStyle><color>ff0000ff</color><scale>1.0</scale><Icon><href>http://maps.google.com/mapfiles/kml/shapes/truck.png</href></Icon><hotSpot x="0.5" y="0" xunits="fraction" yunits="fraction"/></IconStyle><LabelStyle><scale>0.7</scale></LabelStyle></Style>
<Style id="w_vermellC_s"><IconStyle><color>ff0000ff</color><scale>1.4</scale><Icon><href>http://maps.google.com/mapfiles/kml/shapes/truck.png</href></Icon><hotSpot x="0.5" y="0" xunits="fraction" yunits="fraction"/></IconStyle><LabelStyle><scale>0.7</scale></LabelStyle></Style>
<StyleMap id="w_vermellC"><Pair><key>normal</key><styleUrl>#w_vermellC_n</styleUrl></Pair><Pair><key>highlight</key><styleUrl>#w_vermellC_s</styleUrl></Pair></StyleMap>
<Style id="w_vermellH_n"><IconStyle><color>ff0000ff</color><scale>1.2</scale><Icon><href>http://maps.google.com/mapfiles/kml/shapes/heliport.png</href></Icon><hotSpot x="0.5" y="0" xunits="fraction" yunits="fraction"/></IconStyle><LabelStyle><scale>0.7</scale></LabelStyle></Style>
<Style id="w_vermellH_s"><IconStyle><color>ff0000ff</color><scale>1.4</scale><Icon><href>http://maps.google.com/mapfiles/kml/shapes/heliport.png</href></Icon><hotSpot x="0.5" y="0" xunits="fraction" yunits="fraction"/></IconStyle><LabelStyle><scale>0.7</scale></LabelStyle></Style>
<StyleMap id="w_vermellH"><Pair><key>normal</key><styleUrl>#w_vermellH_n</styleUrl></Pair><Pair><key>highlight</key><styleUrl>#w_vermellH_s</styleUrl></Pair></StyleMap>
<Style id="w_vermellA_n"><IconStyle><color>ff0000ff</color><scale>1.2</scale><Icon><href>http://maps.google.com/mapfiles/kml/shapes/airports.png</href></Icon><hotSpot x="0.5" y="0" xunits="fraction" yunits="fraction"/></IconStyle><LabelStyle><scale>0.7</scale></LabelStyle></Style>
<Style id="w_vermellA_s"><IconStyle><color>ff0000ff</color><scale>1.4</scale><Icon><href>http://maps.google.com/mapfiles/kml/shapes/airports.png</href></Icon><hotSpot x="0.5" y="0" xunits="fraction" yunits="fraction"/></IconStyle><LabelStyle><scale>0.7</scale></LabelStyle></Style>
<StyleMap id="w_vermellA"><Pair><key>normal</key><styleUrl>#w_vermellA_n</styleUrl></Pair><Pair><key>highlight</key><styleUrl>#w_vermellA_s</styleUrl></Pair></StyleMap>
<Style id="w_vermellB_n"><IconStyle><color>ff0000ff</color><scale>1.0</scale><Icon><href>http://maps.google.com/mapfiles/kml/shapes/sailing.png</href></Icon><hotSpot x="0.5" y="0" xunits="fraction" yunits="fraction"/></IconStyle><LabelStyle><scale>0.7</scale></LabelStyle></Style>
<Style id="w_vermellB_s"><IconStyle><color>ff0000ff</color><scale>1.4</scale><Icon><href>http://maps.google.com/mapfiles/kml/shapes/sailing.png</href></Icon><hotSpot x="0.5" y="0" xunits="fraction" yunits="fraction"/></IconStyle><LabelStyle><scale>0.7</scale></LabelStyle></Style>
<StyleMap id="w_vermellB"><Pair><key>normal</key><styleUrl>#w_vermellBAR_n</styleUrl></Pair><Pair><key>highlight</key><styleUrl>#w_vermellBAR_s</styleUrl></Pair></StyleMap>
<Style id="w_descarrega"><IconStyle><color>ff00ffff</color><scale>0.5</scale><Icon><href>http://maps.google.com/mapfiles/kml/shapes/road_shield3.png</href></Icon></IconStyle><LabelStyle><scale>0.7</scale></LabelStyle></Style><Style id="actuacio"><IconStyle><color>ff00ffff</color><scale>0.8</scale><Icon><href>http://maps.google.com/mapfiles/kml/shapes/caution.png</href></Icon></IconStyle><LabelStyle><scale>0.7</scale></LabelStyle></Style></Document></kml>