<?xml version="1.0" encoding="UTF-8"?>
<kml xmlns="http://www.opengis.net/kml/2.2" xmlns:gx="http://www.google.com/kml/ext/2.2" xmlns:kml="http://www.opengis.net/kml/2.2" xmlns:atom="http://www.w3.org/2005/Atom">
<Document>
<name>Terminals</name>
<Snippet maxLines="2">Created 08/08/2018 06:00:56</Snippet>
<Folder>
<name>Terminals</name>
<Placemark><name>GGRAF03</name><description>204203 P.UT
posicio de les: 08/08/2018 05:59:30</description><styleUrl>#w_verdP</styleUrl><Point><coordinates>2.80633091926575,41.9606924057007,0</coordinates></Point></Placemark>
<Placemark><name>GGRAF04</name><description>204204 P.UT
posicio de les: 08/08/2018 05:58:58</description><styleUrl>#w_verdP</styleUrl><Point><coordinates>2.8063952922821,41.9602954387665,0</coordinates></Point></Placemark>
<Placemark><name>GGRAF07</name><description>204207 P.UT
posicio de les: 08/08/2018 05:59:25</description><styleUrl>#w_grocP</styleUrl><Point><coordinates>2.80621290206909,41.9604349136353,0</coordinates></Point></Placemark>
<Placemark><name>LGRAF02</name><description>204302 P.UT
posicio de les: 08/08/2018 06:00:07</description><styleUrl>#w_verdP</styleUrl><Point><coordinates>1.08454585075378,42.1046733856201,0</coordinates></Point></Placemark>
<Placemark><name>LGRAF08</name><description>204308 P.UT
posicio de les: 08/08/2018 06:00:00</description><styleUrl>#w_verdP</styleUrl><Point><coordinates>1.08579039573669,42.1040081977844,0</coordinates></Point></Placemark>
<Placemark><name>04390</name><description>204390 
posicio de les: 08/08/2018 06:00:56</description><styleUrl>#w_verd</styleUrl><Point><coordinates>1.07133865356445,42.1101987361908,0</coordinates></Point></Placemark>
<Placemark><name>OP05061</name><description>205261 MAER
posicio de les: 08/08/2018 06:00:00</description><styleUrl>#w_grocP</styleUrl><Point><coordinates>0.98752498626709,41.3122415542603,0</coordinates></Point></Placemark>
<Placemark><name>VIEL12</name><description>208012 P.PT VARAN
posicio de les: 08/08/2018 06:00:00</description><styleUrl>#w_grocP</styleUrl><Point><coordinates>0.801218748092651,42.6996409893036,0</coordinates></Point></Placemark>
<Placemark><name>VIEL17</name><description>208017 BASE CCA VARAN
posicio de les: 08/08/2018 05:59:09</description><styleUrl>#w_groc</styleUrl><Point><coordinates>0.796712636947632,42.7081060409546,0</coordinates></Point></Placemark>
<Placemark><name>10072</name><description>210072  REGIÓ
posicio de les: 08/08/2018 05:59:46</description><styleUrl>#w_groc</styleUrl><Point><coordinates>1.8515932559967,41.7413091659546,0</coordinates></Point></Placemark>
<Placemark><name>10082</name><description>210082  REGIÓ
posicio de les: 08/08/2018 06:00:13</description><styleUrl>#w_groc</styleUrl><Point><coordinates>1.5125298500061,41.9895422458649,0</coordinates></Point></Placemark>
<Placemark><name>CAR05</name><description>210505 PORT CAR (Centre)
posicio de les: 08/08/2018 05:59:21</description><styleUrl>#w_verdP</styleUrl><Point><coordinates>1.70457601547241,41.8999779224396,0</coordinates></Point></Placemark>
<Placemark><name>CAB56</name><description>210656 PORT.COM CAB (Centre)
posicio de les: 08/08/2018 06:00:04</description><styleUrl>#w_grocP</styleUrl><Point><coordinates>1.68530702590942,41.6656601428986,0</coordinates></Point></Placemark>
<Placemark><name>MAN03</name><description>211003 PORT MAN (Centre)
posicio de les: 08/08/2018 06:00:12</description><styleUrl>#w_verdP</styleUrl><Point><coordinates>1.85216188430786,41.7412555217743,0</coordinates></Point></Placemark>
<Placemark><name>MOI6</name><description>211106 PORT MOI (Centre)
posicio de les: 08/08/2018 05:58:59</description><styleUrl>#w_verdP</styleUrl><Point><coordinates>2.08652257919312,41.8115186691284,0</coordinates></Point></Placemark>
<Placemark><name>PRA03</name><description>211403 PORT PRA (Centre)
posicio de les: 08/08/2018 06:00:30</description><styleUrl>#w_verdP</styleUrl><Point><coordinates>2.03553915023804,42.0077168941498,0</coordinates></Point></Placemark>
<Placemark><name>PRA07</name><description>211407 PORT PRA (Centre)
posicio de les: 08/08/2018 06:00:52</description><styleUrl>#w_grocP</styleUrl><Point><coordinates>2.03597903251648,42.0081567764282,0</coordinates></Point></Placemark>
<Placemark><name>12030</name><description>212030 BRP TOR (Centre)
posicio de les: 08/08/2018 05:59:27</description><styleUrl>#w_grocC</styleUrl><Point><coordinates>2.2671103477478,42.0485079288483,0</coordinates></Point></Placemark>
<Placemark><name>217224</name><description>217224 P.GUAITA GUAITA
posicio de les: 08/08/2018 06:00:04</description><styleUrl>#w_verdP</styleUrl><Point><coordinates>2.03636527061462,42.007931470871,0</coordinates></Point></Placemark>
<Placemark><name>E0REG</name><description>220012 P.Tec REGIÓ
posicio de les: 08/08/2018 06:00:05</description><styleUrl>#w_verdP</styleUrl><Point><coordinates>3.16089749336243,42.2764205932617,0</coordinates></Point></Placemark>
<Placemark><name>AMER57</name><description>220157 PORT.COM AMER (Girona)
posicio de les: 08/08/2018 05:58:16</description><styleUrl>#w_verdP</styleUrl><Point><coordinates>2.59617447853088,42.0115041732788,0</coordinates></Point></Placemark>
<Placemark><name>CASS56</name><description>220856 PORT.COM CASS (Girona)
posicio de les: 08/08/2018 05:58:21</description><styleUrl>#w_verdP</styleUrl><Point><coordinates>2.88419008255005,41.8795931339264,0</coordinates></Point></Placemark>
<Placemark><name>20880</name><description>220880 UPCL/USL CASS (Girona)
posicio de les: 08/08/2018 05:59:46</description><styleUrl>#w_groc</styleUrl><Point><coordinates>2.8839647769928,41.8800437450409,0</coordinates></Point></Placemark>
<Placemark><name>20930</name><description>220930 BRP ESCA (Girona)
posicio de les: 08/08/2018 05:57:59</description><styleUrl>#w_grocC</styleUrl><Point><coordinates>3.12720894813538,42.1153056621552,0</coordinates></Point></Placemark>
<Placemark><name>21030</name><description>221030 BRP FIGU (Girona)
posicio de les: 08/08/2018 05:57:02</description><styleUrl>#w_verdC</styleUrl><Point><coordinates>2.78444409370422,42.206050157547,0</coordinates></Point></Placemark>
<Placemark><name>21050</name><description>221050 FSV/FRQ/FER/FRM/FRA/FSA FIGU (Girona)
posicio de les: 08/08/2018 05:56:49</description><styleUrl>#w_verdC</styleUrl><Point><coordinates>2.78531312942505,42.206221818924,0</coordinates></Point></Placemark>
<Placemark><name>FIGU56</name><description>221056 PORT.COM FIGU (Girona)
posicio de les: 08/08/2018 05:59:46</description><styleUrl>#w_grocP</styleUrl><Point><coordinates>2.78470158576965,42.2061038017273,0</coordinates></Point></Placemark>
<Placemark><name>21190</name><description>221190 UPC GIRO (Girona)
posicio de les: 08/08/2018 05:59:30</description><styleUrl>#w_groc</styleUrl><Point><coordinates>2.80648112297058,41.960563659668,0</coordinates></Point></Placemark>
<Placemark><name>21330</name><description>221330 BRP JONQ (Girona)
posicio de les: 08/08/2018 05:56:07</description><styleUrl>#w_verdC</styleUrl><Point><coordinates>2.97114729881287,42.2725045681,0</coordinates></Point></Placemark>
<Placemark><name>JONQ56</name><description>221356 PORT.COM JONQ (Girona)
posicio de les: 08/08/2018 05:58:22</description><styleUrl>#w_verdP</styleUrl><Point><coordinates>2.97046065330505,42.2721612453461,0</coordinates></Point></Placemark>
<Placemark><name>LLAN57</name><description>221457 PORT.COM LLAN (Girona)
posicio de les: 08/08/2018 05:56:21</description><styleUrl>#w_verdP</styleUrl><Point><coordinates>3.15300107002258,42.3581957817078,0</coordinates></Point></Placemark>
<Placemark><name>221548</name><description>221548 BUL LLOR (Girona)
posicio de les: 08/08/2018 05:56:55</description><styleUrl>#w_verdC</styleUrl><Point><coordinates>2.8360390663147,41.6993594169617,0</coordinates></Point></Placemark>
<Placemark><name>LLOR56</name><description>221556 PORT.COM LLOR (Girona)
posicio de les: 08/08/2018 05:59:32</description><styleUrl>#w_verdP</styleUrl><Point><coordinates>2.83612489700317,41.6991877555847,0</coordinates></Point></Placemark>
<Placemark><name>221560</name><description>221560 AEA/AES/ABA LLOR (Girona)
posicio de les: 08/08/2018 05:56:56</description><styleUrl>#w_verdC</styleUrl><Point><coordinates>2.83556699752808,41.6993165016174,0</coordinates></Point></Placemark>
<Placemark><name>21630</name><description>221630 BRP MACA (Girona)
posicio de les: 08/08/2018 06:00:47</description><styleUrl>#w_grocC</styleUrl><Point><coordinates>2.75298714637756,41.7795038223267,0</coordinates></Point></Placemark>
<Placemark><name>21655</name><description>221655 FSV/FRQ/FER/FRM/FRA/FSA MACA (Girona)
posicio de les: 08/08/2018 06:00:28</description><styleUrl>#w_grocC</styleUrl><Point><coordinates>2.75310516357422,41.7795038223267,0</coordinates></Point></Placemark>
<Placemark><name>MAÇA57</name><description>221657 PORT.COM MACA (Girona)
posicio de les: 08/08/2018 05:57:26</description><styleUrl>#w_grocP</styleUrl><Point><coordinates>2.7531373500824,41.7793536186218,0</coordinates></Point></Placemark>
<Placemark><name>PALA56</name><description>221856 PORT.COM PALA (Girona)
posicio de les: 08/08/2018 05:59:21</description><styleUrl>#w_grocP</styleUrl><Point><coordinates>3.1561553478241,41.9258558750153,0</coordinates></Point></Placemark>
<Placemark><name>21890</name><description>221890 UPC PALA (Girona)
posicio de les: 08/08/2018 05:58:42</description><styleUrl>#w_groc</styleUrl><Point><coordinates>3.15642356872559,41.925812959671,0</coordinates></Point></Placemark>
<Placemark><name>RIPO56</name><description>222156 PORT.COM RIPO (Girona)
posicio de les: 08/08/2018 05:59:41</description><styleUrl>#w_verdP</styleUrl><Point><coordinates>2.1682870388031,42.2152554988861,0</coordinates></Point></Placemark>
<Placemark><name>ROSE06</name><description>222206 PORT ROSE (Girona)
posicio de les: 08/08/2018 05:58:50</description><styleUrl>#w_grocP</styleUrl><Point><coordinates>3.16072583198547,42.2765922546387,0</coordinates></Point></Placemark>
<Placemark><name>VALL57</name><description>222857 PORT.COM VALL (Girona)
posicio de les: 08/08/2018 05:58:47</description><styleUrl>#w_grocP</styleUrl><Point><coordinates>3.03184032440186,41.8086755275726,0</coordinates></Point></Placemark>
<Placemark><name>I308</name><description>227308 P.GUAITA GUAITA
posicio de les: 08/08/2018 05:58:24</description><styleUrl>#w_verdP</styleUrl><Point><coordinates>3.15579056739807,41.9257700443268,0</coordinates></Point></Placemark>
<Placemark><name>D3REG</name><description>228043  SERVEIS REGIÓ
posicio de les: 08/08/2018 05:59:43</description><styleUrl>#w_verd</styleUrl><Point><coordinates>2.80681371688843,41.9603598117828,0</coordinates></Point></Placemark>
<Placemark><name>D0REL</name><description>230010 P.CG REGIÓ
posicio de les: 08/08/2018 06:00:41</description><styleUrl>#w_verdP</styleUrl><Point><coordinates>0.605095624923706,41.6237318515778,0</coordinates></Point></Placemark>
<Placemark><name>RELL12</name><description>230012 P.Tec REGIÓ
posicio de les: 08/08/2018 05:59:58</description><styleUrl>#w_grocP</styleUrl><Point><coordinates>1.22831225395203,42.5586533546448,0</coordinates></Point></Placemark>
<Placemark><name>30096</name><description>230096  REGIÓ
posicio de les: 08/08/2018 05:56:23</description><styleUrl>#w_groc</styleUrl><Point><coordinates>1.14385485649109,42.0452034473419,0</coordinates></Point></Placemark>
<Placemark><name>AGRA01</name><description>230201 PORT AGRA (Lleida)
posicio de les: 08/08/2018 05:57:12</description><styleUrl>#w_verdP</styleUrl><Point><coordinates>1.05032086372375,41.7977643013,0</coordinates></Point></Placemark>
<Placemark><name>ALMA07</name><description>230307 PORT ALMA (Lleida)
posicio de les: 08/08/2018 05:59:20</description><styleUrl>#w_grocP</styleUrl><Point><coordinates>0.44293999671936,41.7296040058136,0</coordinates></Point></Placemark>
<Placemark><name>ARTE04</name><description>230504 PORT ARTE (Lleida)
posicio de les: 08/08/2018 05:56:22</description><styleUrl>#w_verdP</styleUrl><Point><coordinates>1.04447364807129,41.8925213813782,0</coordinates></Point></Placemark>
<Placemark><name>30590</name><description>230590 UPC ARTE (Lleida)
posicio de les: 08/08/2018 05:55:36</description><styleUrl>#w_verd</styleUrl><Point><coordinates>1.04495644569397,41.8929183483124,0</coordinates></Point></Placemark>
<Placemark><name>30630</name><description>230630 BRP BALA (Lleida)
posicio de les: 08/08/2018 06:00:50</description><styleUrl>#w_verdC</styleUrl><Point><coordinates>1.15103244781494,42.038905620575,0</coordinates></Point></Placemark>
<Placemark><name>BALA56</name><description>230656 PORT.COM BALA (Lleida)
posicio de les: 08/08/2018 05:59:44</description><styleUrl>#w_verdP</styleUrl><Point><coordinates>1.14328622817993,42.0459759235382,0</coordinates></Point></Placemark>
<Placemark><name>BORG05</name><description>230705 PORT BORG (Lleida)
posicio de les: 08/08/2018 06:00:24</description><styleUrl>#w_grocP</styleUrl><Point><coordinates>0.844831466674805,41.507420539856,0</coordinates></Point></Placemark>
<Placemark><name>32234</name><description>232234 BFP OLIA (Lleida)
posicio de les: 08/08/2018 05:56:07</description><styleUrl>#w_grocC</styleUrl><Point><coordinates>1.14385485649109,42.0451498031616,0</coordinates></Point></Placemark>
<Placemark><name>POBL01</name><description>232401 PORT POBL (Lleida)
posicio de les: 08/08/2018 06:00:28</description><styleUrl>#w_verdP</styleUrl><Point><coordinates>0.964404344558716,42.2389233112335,0</coordinates></Point></Placemark>
<Placemark><name>PONS01</name><description>232601 PORT PONS (Lleida)
posicio de les: 08/08/2018 06:00:27</description><styleUrl>#w_verdP</styleUrl><Point><coordinates>1.1956000328064,41.9047737121582,0</coordinates></Point></Placemark>
<Placemark><name>32634</name><description>232634 BFP PONS (Lleida)
posicio de les: 08/08/2018 05:58:56</description><styleUrl>#w_grocC</styleUrl><Point><coordinates>1.14386558532715,42.0451498031616,0</coordinates></Point></Placemark>
<Placemark><name>PONS56</name><description>232656 PORT.COM PONS (Lleida)
posicio de les: 08/08/2018 05:59:25</description><styleUrl>#w_verdP</styleUrl><Point><coordinates>1.1441445350647,42.0458257198334,0</coordinates></Point></Placemark>
<Placemark><name>SORT04</name><description>233004 PORT SORT (Lleida)
posicio de les: 08/08/2018 06:00:45</description><styleUrl>#w_verdP</styleUrl><Point><coordinates>1.22918128967285,42.5590395927429,0</coordinates></Point></Placemark>
<Placemark><name>TAR02</name><description>233102 PORT TAR (Lleida)
posicio de les: 08/08/2018 05:59:16</description><styleUrl>#w_verdP</styleUrl><Point><coordinates>1.14936947822571,41.6507577896118,0</coordinates></Point></Placemark>
<Placemark><name>GE0REMN</name><description>240013 P.Tec REGIÓ
posicio de les: 08/08/2018 06:00:35</description><styleUrl>#w_verdP</styleUrl><Point><coordinates>2.50703930854797,41.6951537132263,0</coordinates></Point></Placemark>
<Placemark><name>40091</name><description>240091  REGIÓ
posicio de les: 08/08/2018 05:58:44</description><styleUrl>#w_groc</styleUrl><Point><coordinates>2.11168169975281,41.5024960041046,0</coordinates></Point></Placemark>
<Placemark><name>40290</name><description>240290 UPC BAD (Metro. Nord)
posicio de les: 08/08/2018 05:57:03</description><styleUrl>#w_groc</styleUrl><Point><coordinates>2.02584028244019,41.5678560733795,0</coordinates></Point></Placemark>
<Placemark><name>40660</name><description>240660 AEA/AES/ABA GRA (Metro. Nord)
posicio de les: 08/08/2018 05:58:38</description><styleUrl>#w_grocC</styleUrl><Point><coordinates>2.27369785308838,41.5876507759094,0</coordinates></Point></Placemark>
<Placemark><name>MOL03</name><description>241003 PORT MOL (Metro. Nord)
posicio de les: 08/08/2018 05:55:42</description><styleUrl>#w_verdP</styleUrl><Point><coordinates>2.20161080360413,41.5370321273804,0</coordinates></Point></Placemark>
<Placemark><name>41260</name><description>241260 AEA/AES/ABA PIN (Metro. Nord)
posicio de les: 08/08/2018 05:56:30</description><styleUrl>#w_verdC</styleUrl><Point><coordinates>2.27706670761108,41.5905797481537,0</coordinates></Point></Placemark>
<Placemark><name>RUB01</name><description>241301 PORT RUB (Metro. Nord)
posicio de les: 08/08/2018 05:59:17</description><styleUrl>#w_verdP</styleUrl><Point><coordinates>2.03524947166443,41.4730024337769,0</coordinates></Point></Placemark>
<Placemark><name>SAB01</name><description>241401 PORT SAB (Metro. Nord)
posicio de les: 08/08/2018 06:00:33</description><styleUrl>#w_verdP</styleUrl><Point><coordinates>2.10413932800293,41.5409588813782,0</coordinates></Point></Placemark>
<Placemark><name>41640</name><description>241640 BUP SCE (Metro. Nord)
posicio de les: 08/08/2018 06:00:17</description><styleUrl>#w_grocC</styleUrl><Point><coordinates>2.50706076622009,41.695282459259,0</coordinates></Point></Placemark>
<Placemark><name>TER09</name><description>242009 PORT TER (Metro. Nord)
posicio de les: 08/08/2018 05:59:15</description><styleUrl>#w_verdP</styleUrl><Point><coordinates>2.02588319778442,41.5678989887238,0</coordinates></Point></Placemark>
<Placemark><name>TOD56</name><description>242156 PORT.COM TOD (Metro. Nord)
posicio de les: 08/08/2018 06:00:22</description><styleUrl>#w_verdP</styleUrl><Point><coordinates>2.71708846092224,41.6914629936218,0</coordinates></Point></Placemark>
<Placemark><name>50071</name><description>250071  REGIÓ
posicio de les: 08/08/2018 05:58:47</description><styleUrl>#w_verd</styleUrl><Point><coordinates>2.03434824943542,41.3224768638611,0</coordinates></Point></Placemark>
<Placemark><name>50093</name><description>250093  REGIÓ
posicio de les: 08/08/2018 05:57:38</description><styleUrl>#w_groc</styleUrl><Point><coordinates>2.03420877456665,41.3229382038116,0</coordinates></Point></Placemark>
<Placemark><name>COR03</name><description>250403 PORT COR (Metro. Sud)
posicio de les: 08/08/2018 05:55:03</description><styleUrl>#w_verdP</styleUrl><Point><coordinates>2.07075119018555,41.3608002662659,0</coordinates></Point></Placemark>
<Placemark><name>GAV11</name><description>250511 PORT GAV (Metro. Sud)
posicio de les: 08/08/2018 05:59:27</description><styleUrl>#w_verdP</styleUrl><Point><coordinates>1.99045658111572,41.3000106811523,0</coordinates></Point></Placemark>
<Placemark><name>GAV57</name><description>250557 PORT.COM GAV (Metro. Sud)
posicio de les: 08/08/2018 05:58:33</description><styleUrl>#w_verdP</styleUrl><Point><coordinates>1.99029564857483,41.3001072406769,0</coordinates></Point></Placemark>
<Placemark><name>50848</name><description>250848 BUL IGU (Metro. Sud)
posicio de les: 08/08/2018 05:58:28</description><styleUrl>#w_grocC</styleUrl><Point><coordinates>1.54097199440002,41.5780377388,0</coordinates></Point></Placemark>
<Placemark><name>51030</name><description>251030 BRP MAR (Metro. Sud)
posicio de les: 08/08/2018 05:58:30</description><styleUrl>#w_grocC</styleUrl><Point><coordinates>1.90800547599792,41.4988160133362,0</coordinates></Point></Placemark>
<Placemark><name>MAR56</name><description>251056 PORT.COM MAR (Metro. Sud)
posicio de les: 08/08/2018 06:00:08</description><styleUrl>#w_verdP</styleUrl><Point><coordinates>1.90788745880127,41.4986872673035,0</coordinates></Point></Placemark>
<Placemark><name>MAR57</name><description>251057 PORT.COM MAR (Metro. Sud)
posicio de les: 08/08/2018 05:59:12</description><styleUrl>#w_verdP</styleUrl><Point><coordinates>1.90765142440796,41.4990091323853,0</coordinates></Point></Placemark>
<Placemark><name>SBOI02</name><description>251302 PORT SBOI (Metro. Sud)
posicio de les: 08/08/2018 05:59:53</description><styleUrl>#w_grocP</styleUrl><Point><coordinates>2.03445553779602,41.3225197792053,0</coordinates></Point></Placemark>
<Placemark><name>SBOI07</name><description>251307 PORT SBOI (Metro. Sud)
posicio de les: 08/08/2018 06:00:53</description><styleUrl>#w_grocP</styleUrl><Point><coordinates>2.03418731689453,41.3229703903198,0</coordinates></Point></Placemark>
<Placemark><name>SBOI56</name><description>251356 PORT.COM SBOI (Metro. Sud)
posicio de les: 08/08/2018 05:59:03</description><styleUrl>#w_verdP</styleUrl><Point><coordinates>2.03425168991089,41.3232493400574,0</coordinates></Point></Placemark>
<Placemark><name>SFE56</name><description>251556 PORT.COM SFE (Metro. Sud)
posicio de les: 08/08/2018 06:00:01</description><styleUrl>#w_grocP</styleUrl><Point><coordinates>2.04319953918457,41.3885772228241,0</coordinates></Point></Placemark>
<Placemark><name>SIT03</name><description>251703 PORT SIT (Metro. Sud)
posicio de les: 08/08/2018 06:00:43</description><styleUrl>#w_grocP</styleUrl><Point><coordinates>1.80908560752869,41.2413990497589,0</coordinates></Point></Placemark>
<Placemark><name>51780</name><description>251780 UPCL/USL SIT (Metro. Sud)
posicio de les: 08/08/2018 05:56:33</description><styleUrl>#w_groc</styleUrl><Point><coordinates>1.71339511871338,41.219984292984,0</coordinates></Point></Placemark>
<Placemark><name>D1REMS</name><description>258041  SERVEIS REGIÓ
posicio de les: 08/08/2018 05:59:16</description><styleUrl>#w_verd</styleUrl><Point><coordinates>2.03372597694397,41.3224017620087,0</coordinates></Point></Placemark>
<Placemark><name>60850</name><description>260850 FSV/FRQ/FER/FRM/FRA/FSA REUS (Tarragona)
posicio de les: 08/08/2018 05:56:12</description><styleUrl>#w_grocC</styleUrl><Point><coordinates>1.06302380561829,41.1360311508179,0</coordinates></Point></Placemark>
<Placemark><name>TARR03</name><description>261203 PORT TARR (Tarragona)
posicio de les: 08/08/2018 05:57:39</description><styleUrl>#w_verdP</styleUrl><Point><coordinates>1.22122049331665,41.1135005950928,0</coordinates></Point></Placemark>
<Placemark><name>E00RETE</name><description>270014 P.Tec REGIÓ
posicio de les: 08/08/2018 06:00:58</description><styleUrl>#w_verdP</styleUrl><Point><coordinates>0.513213872909546,40.8192729949951,0</coordinates></Point></Placemark>
<Placemark><name>AMPO57</name><description>272157 PORT.COM AMPO (Terres de l'Ebre)
posicio de les: 08/08/2018 05:58:39</description><styleUrl>#w_grocP</styleUrl><Point><coordinates>0.579571723937988,40.6894969940186,0</coordinates></Point></Placemark>
<Placemark><name>ASCO05</name><description>272205 PORT ASCO (Terres de l'Ebre)
posicio de les: 08/08/2018 05:59:41</description><styleUrl>#w_verdP</styleUrl><Point><coordinates>0.568950176239014,41.1876475811005,0</coordinates></Point></Placemark>
<Placemark><name>ULLD08</name><description>273108 PORT ULLD (Terres de l'Ebre)
posicio de les: 08/08/2018 06:00:09</description><styleUrl>#w_verdP</styleUrl><Point><coordinates>0.357506275177002,40.608526468277,0</coordinates></Point></Placemark>
<Placemark><name>CMTE56</name><description>274556 PORT.COM Parc X
posicio de les: 08/08/2018 05:58:52</description><styleUrl>#w_grocP</styleUrl><Point><coordinates>0.578842163085938,40.6897115707397,0</coordinates></Point></Placemark>
<Placemark><name>92078</name><description>292078 UE SST
posicio de les: 08/08/2018 05:59:27</description><styleUrl>#w_groc</styleUrl><Point><coordinates>1.92736029624939,41.4826798439026,0</coordinates></Point></Placemark>
<Placemark><name>93080</name><description>293080 UPCL/USL ESC
posicio de les: 08/08/2018 05:59:19</description><styleUrl>#w_groc</styleUrl><Point><coordinates>2.11286187171936,41.5017235279083,0</coordinates></Point></Placemark>
</Folder>
<Folder>
<name>Descarregues</name>
</Folder>
<Style id="w_verdP_n"><IconStyle><color>ff00ff00</color><scale>1.0</scale><Icon><href>http://maps.google.com/mapfiles/kml/shapes/man.png</href></Icon><hotSpot x="0.5" y="0" xunits="fraction" yunits="fraction"/></IconStyle><LabelStyle><scale>0.7</scale></LabelStyle></Style>
<Style id="w_verdP_s"><IconStyle><color>ff00ff00</color><scale>1.4</scale><Icon><href>http://maps.google.com/mapfiles/kml/shapes/man.png</href></Icon><hotSpot x="0.5" y="0" xunits="fraction" yunits="fraction"/></IconStyle><LabelStyle><scale>0.7</scale></LabelStyle></Style>
<StyleMap id="w_verdP"><Pair><key>normal</key><styleUrl>#w_verdP_n</styleUrl></Pair><Pair><key>highlight</key><styleUrl>#w_verdP_s</styleUrl></Pair></StyleMap>
<Style id="w_verd_n"><IconStyle><color>ff00ff00</color><scale>0.7</scale><Icon><href>http://maps.google.com/mapfiles/kml/shapes/cabs.png</href></Icon><hotSpot x="0.5" y="0" xunits="fraction" yunits="fraction"/></IconStyle><LabelStyle><scale>0.7</scale></LabelStyle></Style>
<Style id="w_verd_s"><IconStyle><color>ff00ff00</color><scale>1.0</scale><Icon><href>http://maps.google.com/mapfiles/kml/shapes/cabs.png</href></Icon><hotSpot x="0.5" y="0" xunits="fraction" yunits="fraction"/></IconStyle><LabelStyle><scale>0.7</scale></LabelStyle></Style>
<StyleMap id="w_verd"><Pair><key>normal</key><styleUrl>#w_verd_n</styleUrl></Pair><Pair><key>highlight</key><styleUrl>#w_verd_s</styleUrl></Pair></StyleMap>
<Style id="w_verdC_n"><IconStyle><color>ff00ff00</color><scale>1.0</scale><Icon><href>http://maps.google.com/mapfiles/kml/shapes/truck.png</href></Icon><hotSpot x="0.5" y="0" xunits="fraction" yunits="fraction"/></IconStyle><LabelStyle><scale>0.7</scale></LabelStyle></Style>
<Style id="w_verdC_s"><IconStyle><color>ff00ff00</color><scale>1.4</scale><Icon><href>http://maps.google.com/mapfiles/kml/shapes/truck.png</href></Icon><hotSpot x="0.5" y="0" xunits="fraction" yunits="fraction"/></IconStyle><LabelStyle><scale>0.7</scale></LabelStyle></Style>
<StyleMap id="w_verdC"><Pair><key>normal</key><styleUrl>#w_verdC_n</styleUrl></Pair><Pair><key>highlight</key><styleUrl>#w_verdC_s</styleUrl></Pair></StyleMap>
<Style id="w_verdH_n"><IconStyle><color>ff0000ff</color><scale>1.2</scale><Icon><href>http://maps.google.com/mapfiles/kml/shapes/heliport.png</href></Icon><hotSpot x="0.5" y="0" xunits="fraction" yunits="fraction"/></IconStyle><LabelStyle><scale>0.7</scale></LabelStyle></Style>
<Style id="w_verdH_s"><IconStyle><color>ff0000ff</color><scale>1.4</scale><Icon><href>http://maps.google.com/mapfiles/kml/shapes/heliport.png</href></Icon><hotSpot x="0.5" y="0" xunits="fraction" yunits="fraction"/></IconStyle><LabelStyle><scale>0.7</scale></LabelStyle></Style>
<StyleMap id="w_verdH"><Pair><key>normal</key><styleUrl>#w_verdH_n</styleUrl></Pair><Pair><key>highlight</key><styleUrl>#w_verdH_s</styleUrl></Pair></StyleMap>
<Style id="w_verdA_n"><IconStyle><color>ff0000ff</color><scale>1.2</scale><Icon><href>http://maps.google.com/mapfiles/kml/shapes/airports.png</href></Icon><hotSpot x="0.5" y="0" xunits="fraction" yunits="fraction"/></IconStyle><LabelStyle><scale>0.7</scale></LabelStyle></Style>
<Style id="w_verdA_s"><IconStyle><color>ff0000ff</color><scale>1.4</scale><Icon><href>http://maps.google.com/mapfiles/kml/shapes/airports.png</href></Icon><hotSpot x="0.5" y="0" xunits="fraction" yunits="fraction"/></IconStyle><LabelStyle><scale>0.7</scale></LabelStyle></Style>
<StyleMap id="w_verdA"><Pair><key>normal</key><styleUrl>#w_verdA_n</styleUrl></Pair><Pair><key>highlight</key><styleUrl>#w_verdA_s</styleUrl></Pair></StyleMap>
<Style id="w_verdB_n"><IconStyle><color>ff00ff00</color><scale>1.0</scale><Icon><href>http://maps.google.com/mapfiles/kml/shapes/sailing.png</href></Icon><hotSpot x="0.5" y="0" xunits="fraction" yunits="fraction"/></IconStyle><LabelStyle><scale>0.7</scale></LabelStyle></Style>
<Style id="w_verdB_s"><IconStyle><color>ff00ff00</color><scale>1.4</scale><Icon><href>http://maps.google.com/mapfiles/kml/shapes/sailing.png</href></Icon><hotSpot x="0.5" y="0" xunits="fraction" yunits="fraction"/></IconStyle><LabelStyle><scale>0.7</scale></LabelStyle></Style>
<StyleMap id="w_verdB"><Pair><key>normal</key><styleUrl>#w_verdBAR_n</styleUrl></Pair><Pair><key>highlight</key><styleUrl>#w_verdBAR_s</styleUrl></Pair></StyleMap>
<Style id="w_grocP_n"><IconStyle><color>ff00ffff</color><scale>1.0</scale><Icon><href>http://maps.google.com/mapfiles/kml/shapes/man.png</href></Icon><hotSpot x="0.5" y="0" xunits="fraction" yunits="fraction"/></IconStyle><LabelStyle><scale>0.7</scale></LabelStyle></Style>
<Style id="w_grocP_s"><IconStyle><color>ff00ffff</color><scale>1.4</scale><Icon><href>http://maps.google.com/mapfiles/kml/shapes/man.png</href></Icon><hotSpot x="0.5" y="0" xunits="fraction" yunits="fraction"/></IconStyle><LabelStyle><scale>0.7</scale></LabelStyle></Style>
<StyleMap id="w_grocP"><Pair><key>normal</key><styleUrl>#w_grocP_n</styleUrl></Pair><Pair><key>highlight</key><styleUrl>#w_grocP_s</styleUrl></Pair></StyleMap>
<Style id="w_groc_n"><IconStyle><color>ff00ffff</color><scale>0.7</scale><Icon><href>http://maps.google.com/mapfiles/kml/shapes/cabs.png</href></Icon><hotSpot x="0.5" y="0" xunits="fraction" yunits="fraction"/></IconStyle><LabelStyle><scale>0.7</scale></LabelStyle></Style>
<Style id="w_groc_s"><IconStyle><color>ff00ffff</color><scale>1.0</scale><Icon><href>http://maps.google.com/mapfiles/kml/shapes/cabs.png</href></Icon><hotSpot x="0.5" y="0" xunits="fraction" yunits="fraction"/></IconStyle><LabelStyle><scale>0.7</scale></LabelStyle></Style>
<StyleMap id="w_groc"><Pair><key>normal</key><styleUrl>#w_groc_n</styleUrl></Pair><Pair><key>highlight</key><styleUrl>#w_groc_s</styleUrl></Pair></StyleMap>
<Style id="w_grocC_n"><IconStyle><color>ff00ffff</color><scale>1.0</scale><Icon><href>http://maps.google.com/mapfiles/kml/shapes/truck.png</href></Icon><hotSpot x="0.5" y="0" xunits="fraction" yunits="fraction"/></IconStyle><LabelStyle><scale>0.7</scale></LabelStyle></Style>
<Style id="w_grocC_s"><IconStyle><color>ff00ffff</color><scale>1.4</scale><Icon><href>http://maps.google.com/mapfiles/kml/shapes/truck.png</href></Icon><hotSpot x="0.5" y="0" xunits="fraction" yunits="fraction"/></IconStyle><LabelStyle><scale>0.7</scale></LabelStyle></Style>
<StyleMap id="w_grocC"><Pair><key>normal</key><styleUrl>#w_grocC_n</styleUrl></Pair><Pair><key>highlight</key><styleUrl>#w_grocC_s</styleUrl></Pair></StyleMap>
<Style id="w_grocH_n"><IconStyle><color>ff0000ff</color><scale>1.2</scale><Icon><href>http://maps.google.com/mapfiles/kml/shapes/heliport.png</href></Icon><hotSpot x="0.5" y="0" xunits="fraction" yunits="fraction"/></IconStyle><LabelStyle><scale>0.7</scale></LabelStyle></Style>
<Style id="w_grocH_s"><IconStyle><color>ff0000ff</color><scale>1.4</scale><Icon><href>http://maps.google.com/mapfiles/kml/shapes/heliport.png</href></Icon><hotSpot x="0.5" y="0" xunits="fraction" yunits="fraction"/></IconStyle><LabelStyle><scale>0.7</scale></LabelStyle></Style>
<StyleMap id="w_grocH"><Pair><key>normal</key><styleUrl>#w_grocH_n</styleUrl></Pair><Pair><key>highlight</key><styleUrl>#w_grocH_s</styleUrl></Pair></StyleMap>
<Style id="w_grocA_n"><IconStyle><color>ff0000ff</color><scale>1.2</scale><Icon><href>http://maps.google.com/mapfiles/kml/shapes/airports.png</href></Icon><hotSpot x="0.5" y="0" xunits="fraction" yunits="fraction"/></IconStyle><LabelStyle><scale>0.7</scale></LabelStyle></Style>
<Style id="w_grocA_s"><IconStyle><color>ff0000ff</color><scale>1.4</scale><Icon><href>http://maps.google.com/mapfiles/kml/shapes/airports.png</href></Icon><hotSpot x="0.5" y="0" xunits="fraction" yunits="fraction"/></IconStyle><LabelStyle><scale>0.7</scale></LabelStyle></Style>
<StyleMap id="w_grocA"><Pair><key>normal</key><styleUrl>#w_grocA_n</styleUrl></Pair><Pair><key>highlight</key><styleUrl>#w_grocA_s</styleUrl></Pair></StyleMap>
<Style id="w_grocB_n"><IconStyle><color>ff00ffff</color><scale>1.0</scale><Icon><href>http://maps.google.com/mapfiles/kml/shapes/sailing.png</href></Icon><hotSpot x="0.5" y="0" xunits="fraction" yunits="fraction"/></IconStyle><LabelStyle><scale>0.7</scale></LabelStyle></Style>
<Style id="w_grocB_s"><IconStyle><color>ff00ffff</color><scale>1.4</scale><Icon><href>http://maps.google.com/mapfiles/kml/shapes/sailing.png</href></Icon><hotSpot x="0.5" y="0" xunits="fraction" yunits="fraction"/></IconStyle><LabelStyle><scale>0.7</scale></LabelStyle></Style>
<StyleMap id="w_grocB"><Pair><key>normal</key><styleUrl>#w_grocBAR_n</styleUrl></Pair><Pair><key>highlight</key><styleUrl>#w_grocBAR_s</styleUrl></Pair></StyleMap>
<Style id="w_vermellP_n"><IconStyle><color>ff0000ff</color><scale>1.0</scale><Icon><href>http://maps.google.com/mapfiles/kml/shapes/man.png</href></Icon><hotSpot x="0.5" y="0" xunits="fraction" yunits="fraction"/></IconStyle><LabelStyle><scale>0.7</scale></LabelStyle></Style>
<Style id="w_vermellP_s"><IconStyle><color>ff0000ff</color><scale>1.4</scale><Icon><href>http://maps.google.com/mapfiles/kml/shapes/man.png</href></Icon><hotSpot x="0.5" y="0" xunits="fraction" yunits="fraction"/></IconStyle><LabelStyle><scale>0.7</scale></LabelStyle></Style>
<StyleMap id="w_vermellP"><Pair><key>normal</key><styleUrl>#w_vermellP_n</styleUrl></Pair><Pair><key>highlight</key><styleUrl>#w_vermellP_s</styleUrl></Pair></StyleMap>
<Style id="w_vermell_n"><IconStyle><color>ff0000ff</color><scale>0.7</scale><Icon><href>http://maps.google.com/mapfiles/kml/shapes/cabs.png</href></Icon><hotSpot x="0.5" y="0" xunits="fraction" yunits="fraction"/></IconStyle><LabelStyle><scale>0.7</scale></LabelStyle></Style>
<Style id="w_vermell_s"><IconStyle><color>ff0000ff</color><scale>1.0</scale><Icon><href>http://maps.google.com/mapfiles/kml/shapes/cabs.png</href></Icon><hotSpot x="0.5" y="0" xunits="fraction" yunits="fraction"/></IconStyle><LabelStyle><scale>0.7</scale></LabelStyle></Style>
<StyleMap id="w_vermell"><Pair><key>normal</key><styleUrl>#w_vermell_n</styleUrl></Pair><Pair><key>highlight</key><styleUrl>#w_vermell_s</styleUrl></Pair></StyleMap>
<Style id="w_vermellC_n"><IconStyle><color>ff0000ff</color><scale>1.0</scale><Icon><href>http://maps.google.com/mapfiles/kml/shapes/truck.png</href></Icon><hotSpot x="0.5" y="0" xunits="fraction" yunits="fraction"/></IconStyle><LabelStyle><scale>0.7</scale></LabelStyle></Style>
<Style id="w_vermellC_s"><IconStyle><color>ff0000ff</color><scale>1.4</scale><Icon><href>http://maps.google.com/mapfiles/kml/shapes/truck.png</href></Icon><hotSpot x="0.5" y="0" xunits="fraction" yunits="fraction"/></IconStyle><LabelStyle><scale>0.7</scale></LabelStyle></Style>
<StyleMap id="w_vermellC"><Pair><key>normal</key><styleUrl>#w_vermellC_n</styleUrl></Pair><Pair><key>highlight</key><styleUrl>#w_vermellC_s</styleUrl></Pair></StyleMap>
<Style id="w_vermellH_n"><IconStyle><color>ff0000ff</color><scale>1.2</scale><Icon><href>http://maps.google.com/mapfiles/kml/shapes/heliport.png</href></Icon><hotSpot x="0.5" y="0" xunits="fraction" yunits="fraction"/></IconStyle><LabelStyle><scale>0.7</scale></LabelStyle></Style>
<Style id="w_vermellH_s"><IconStyle><color>ff0000ff</color><scale>1.4</scale><Icon><href>http://maps.google.com/mapfiles/kml/shapes/heliport.png</href></Icon><hotSpot x="0.5" y="0" xunits="fraction" yunits="fraction"/></IconStyle><LabelStyle><scale>0.7</scale></LabelStyle></Style>
<StyleMap id="w_vermellH"><Pair><key>normal</key><styleUrl>#w_vermellH_n</styleUrl></Pair><Pair><key>highlight</key><styleUrl>#w_vermellH_s</styleUrl></Pair></StyleMap>
<Style id="w_vermellA_n"><IconStyle><color>ff0000ff</color><scale>1.2</scale><Icon><href>http://maps.google.com/mapfiles/kml/shapes/airports.png</href></Icon><hotSpot x="0.5" y="0" xunits="fraction" yunits="fraction"/></IconStyle><LabelStyle><scale>0.7</scale></LabelStyle></Style>
<Style id="w_vermellA_s"><IconStyle><color>ff0000ff</color><scale>1.4</scale><Icon><href>http://maps.google.com/mapfiles/kml/shapes/airports.png</href></Icon><hotSpot x="0.5" y="0" xunits="fraction" yunits="fraction"/></IconStyle><LabelStyle><scale>0.7</scale></LabelStyle></Style>
<StyleMap id="w_vermellA"><Pair><key>normal</key><styleUrl>#w_vermellA_n</styleUrl></Pair><Pair><key>highlight</key><styleUrl>#w_vermellA_s</styleUrl></Pair></StyleMap>
<Style id="w_vermellB_n"><IconStyle><color>ff0000ff</color><scale>1.0</scale><Icon><href>http://maps.google.com/mapfiles/kml/shapes/sailing.png</href></Icon><hotSpot x="0.5" y="0" xunits="fraction" yunits="fraction"/></IconStyle><LabelStyle><scale>0.7</scale></LabelStyle></Style>
<Style id="w_vermellB_s"><IconStyle><color>ff0000ff</color><scale>1.4</scale><Icon><href>http://maps.google.com/mapfiles/kml/shapes/sailing.png</href></Icon><hotSpot x="0.5" y="0" xunits="fraction" yunits="fraction"/></IconStyle><LabelStyle><scale>0.7</scale></LabelStyle></Style>
<StyleMap id="w_vermellB"><Pair><key>normal</key><styleUrl>#w_vermellBAR_n</styleUrl></Pair><Pair><key>highlight</key><styleUrl>#w_vermellBAR_s</styleUrl></Pair></StyleMap>
<Style id="w_descarrega"><IconStyle><color>ff00ffff</color><scale>0.5</scale><Icon><href>http://maps.google.com/mapfiles/kml/shapes/road_shield3.png</href></Icon></IconStyle><LabelStyle><scale>0.7</scale></LabelStyle></Style><Style id="actuacio"><IconStyle><color>ff00ffff</color><scale>0.8</scale><Icon><href>http://maps.google.com/mapfiles/kml/shapes/caution.png</href></Icon></IconStyle><LabelStyle><scale>0.7</scale></LabelStyle></Style></Document></kml>