<?xml version="1.0" encoding="UTF-8"?>
<kml xmlns="http://www.opengis.net/kml/2.2" xmlns:gx="http://www.google.com/kml/ext/2.2" xmlns:kml="http://www.opengis.net/kml/2.2" xmlns:atom="http://www.w3.org/2005/Atom">
<Document>
<name>Terminals</name>
<Snippet maxLines="2">Created 06/08/2018 07:29:45</Snippet>
<Folder>
<name>Terminals</name>
<Placemark><name>00096</name><description>200096  Dept.
posicio de les: 06/08/2018 07:29:43</description><styleUrl>#w_verd</styleUrl><Point><coordinates>2.11344122886658,41.4965415000916,0</coordinates></Point></Placemark>
<Placemark><name>02063</name><description>202063 GEM
posicio de les: 06/08/2018 07:27:50</description><styleUrl>#w_verd</styleUrl><Point><coordinates>2.11041569709778,41.5022277832031,0</coordinates></Point></Placemark>
<Placemark><name>GGRAF08</name><description>204208 P.UT
posicio de les: 06/08/2018 07:28:26</description><styleUrl>#w_grocP</styleUrl><Point><coordinates>2.97494530677795,42.0295393466949,0</coordinates></Point></Placemark>
<Placemark><name>LGRAF02</name><description>204302 P.UT
posicio de les: 06/08/2018 07:28:36</description><styleUrl>#w_grocP</styleUrl><Point><coordinates>0.889259576797485,42.1644330024719,0</coordinates></Point></Placemark>
<Placemark><name>VIEL17</name><description>208017 BASE CCA VARAN
posicio de les: 06/08/2018 07:28:40</description><styleUrl>#w_groc</styleUrl><Point><coordinates>0.796680450439453,42.7080416679382,0</coordinates></Point></Placemark>
<Placemark><name>BER57</name><description>210357 PORT.COM BER (Centre)
posicio de les: 06/08/2018 07:28:06</description><styleUrl>#w_verdP</styleUrl><Point><coordinates>1.85767650604248,42.1040940284729,0</coordinates></Point></Placemark>
<Placemark><name>CAF02</name><description>210402 PORT CAF (Centre)
posicio de les: 06/08/2018 07:29:17</description><styleUrl>#w_verdP</styleUrl><Point><coordinates>1.52840852737427,41.7309772968292,0</coordinates></Point></Placemark>
<Placemark><name>11080</name><description>211080 UPCL/USL MAN (Centre)
posicio de les: 06/08/2018 07:29:44</description><styleUrl>#w_verd</styleUrl><Point><coordinates>1.75378918647766,41.8203914165497,0</coordinates></Point></Placemark>
<Placemark><name>PRA07</name><description>211407 PORT PRA (Centre)
posicio de les: 06/08/2018 07:28:46</description><styleUrl>#w_verdP</styleUrl><Point><coordinates>2.03603267669678,42.007942199707,0</coordinates></Point></Placemark>
<Placemark><name>TOR02</name><description>212002 PORT TOR (Centre)
posicio de les: 06/08/2018 07:24:03</description><styleUrl>#w_verdP</styleUrl><Point><coordinates>2.26704597473145,42.048636674881,0</coordinates></Point></Placemark>
<Placemark><name>TOR03</name><description>212003 PORT TOR (Centre)
posicio de les: 06/08/2018 07:26:33</description><styleUrl>#w_verdP</styleUrl><Point><coordinates>2.26723909378052,42.048100233078,0</coordinates></Point></Placemark>
<Placemark><name>D00REG</name><description>220018 P.Tec REGIÓ
posicio de les: 06/08/2018 07:25:43</description><styleUrl>#w_verdP</styleUrl><Point><coordinates>2.80628800392151,41.9604992866516,0</coordinates></Point></Placemark>
<Placemark><name>AMER57</name><description>220157 PORT.COM AMER (Girona)
posicio de les: 06/08/2018 07:27:38</description><styleUrl>#w_verdP</styleUrl><Point><coordinates>2.59652853012085,42.0113217830658,0</coordinates></Point></Placemark>
<Placemark><name>20330</name><description>220330 BRP BANY (Girona)
posicio de les: 06/08/2018 07:25:01</description><styleUrl>#w_grocC</styleUrl><Point><coordinates>2.78597831726074,42.1179020404816,0</coordinates></Point></Placemark>
<Placemark><name>BANY56</name><description>220356 PORT.COM BANY (Girona)
posicio de les: 06/08/2018 07:27:43</description><styleUrl>#w_verdP</styleUrl><Point><coordinates>2.78524875640869,42.1175265312195,0</coordinates></Point></Placemark>
<Placemark><name>220380</name><description>220380 UPCL/USL BANY (Girona)
posicio de les: 06/08/2018 07:27:36</description><styleUrl>#w_verd</styleUrl><Point><coordinates>2.76975631713867,42.1472883224487,0</coordinates></Point></Placemark>
<Placemark><name>20430</name><description>220430 BRP PERA (Girona)
posicio de les: 06/08/2018 07:28:47</description><styleUrl>#w_grocC</styleUrl><Point><coordinates>2.97509551048279,42.0298290252686,0</coordinates></Point></Placemark>
<Placemark><name>220480</name><description>220480 UPCL/USL PERA (Girona)
posicio de les: 06/08/2018 07:27:39</description><styleUrl>#w_verd</styleUrl><Point><coordinates>2.97464489936829,42.0297968387604,0</coordinates></Point></Placemark>
<Placemark><name>220656</name><description>220656 PORT.COM CALO (Girona)
posicio de les: 06/08/2018 07:26:16</description><styleUrl>#w_verdP</styleUrl><Point><coordinates>3.07445526123047,41.852320432663,0</coordinates></Point></Placemark>
<Placemark><name>CASS56</name><description>220856 PORT.COM CASS (Girona)
posicio de les: 06/08/2018 07:28:13</description><styleUrl>#w_grocP</styleUrl><Point><coordinates>2.88420081138611,41.8797218799591,0</coordinates></Point></Placemark>
<Placemark><name>FIGU56</name><description>221056 PORT.COM FIGU (Girona)
posicio de les: 06/08/2018 07:26:46</description><styleUrl>#w_verdP</styleUrl><Point><coordinates>2.97051429748535,42.2719359397888,0</coordinates></Point></Placemark>
<Placemark><name>21090</name><description>221090 UPC FIGU (Girona)
posicio de les: 06/08/2018 07:29:42</description><styleUrl>#w_verd</styleUrl><Point><coordinates>3.06889772415161,42.3209130764008,0</coordinates></Point></Placemark>
<Placemark><name>GIRO06</name><description>221106 PORT GIRO (Girona)
posicio de les: 06/08/2018 07:29:38</description><styleUrl>#w_verdP</styleUrl><Point><coordinates>2.8068995475769,41.9609606266022,0</coordinates></Point></Placemark>
<Placemark><name>GIRO56</name><description>221156 PORT.COM GIRO (Girona)
posicio de les: 06/08/2018 07:29:43</description><styleUrl>#w_verdP</styleUrl><Point><coordinates>2.806556224823,41.9606387615204,0</coordinates></Point></Placemark>
<Placemark><name>21230</name><description>221230 BRP HOST (Girona)
posicio de les: 06/08/2018 07:27:04</description><styleUrl>#w_grocC</styleUrl><Point><coordinates>2.62443423271179,41.7480254173279,0</coordinates></Point></Placemark>
<Placemark><name>HOST57</name><description>221257 PORT.COM HOST (Girona)
posicio de les: 06/08/2018 07:29:13</description><styleUrl>#w_grocP</styleUrl><Point><coordinates>2.62419819831848,41.748218536377,0</coordinates></Point></Placemark>
<Placemark><name>JONQ56</name><description>221356 PORT.COM JONQ (Girona)
posicio de les: 06/08/2018 07:26:26</description><styleUrl>#w_verdP</styleUrl><Point><coordinates>2.87669062614441,42.4118828773499,0</coordinates></Point></Placemark>
<Placemark><name>LLAN57</name><description>221457 PORT.COM LLAN (Girona)
posicio de les: 06/08/2018 07:28:17</description><styleUrl>#w_verdP</styleUrl><Point><coordinates>3.15328001976013,42.3571121692657,0</coordinates></Point></Placemark>
<Placemark><name>LLOR56</name><description>221556 PORT.COM LLOR (Girona)
posicio de les: 06/08/2018 07:29:36</description><styleUrl>#w_verdP</styleUrl><Point><coordinates>2.83635020256042,41.6992735862732,0</coordinates></Point></Placemark>
<Placemark><name>221557</name><description>221557 PORT.COM LLOR (Girona)
posicio de les: 06/08/2018 07:28:55</description><styleUrl>#w_verdP</styleUrl><Point><coordinates>2.83625364303589,41.699595451355,0</coordinates></Point></Placemark>
<Placemark><name>21590</name><description>221590 UPC LLOR (Girona)
posicio de les: 06/08/2018 07:29:43</description><styleUrl>#w_verd</styleUrl><Point><coordinates>2.72671222686768,41.8214643001556,0</coordinates></Point></Placemark>
<Placemark><name>OLOT56</name><description>221756 PORT.COM OLOT (Girona)
posicio de les: 06/08/2018 07:29:42</description><styleUrl>#w_verdP</styleUrl><Point><coordinates>2.47520685195923,42.1898174285889,0</coordinates></Point></Placemark>
<Placemark><name>21760</name><description>221760 AEA/AES/ABA OLOT (Girona)
posicio de les: 06/08/2018 07:29:46</description><styleUrl>#w_verdC</styleUrl><Point><coordinates>2.53371119499207,42.2006320953369,0</coordinates></Point></Placemark>
<Placemark><name>PALA57</name><description>221857 PORT.COM PALA (Girona)
posicio de les: 06/08/2018 07:27:36</description><styleUrl>#w_verdP</styleUrl><Point><coordinates>3.15672397613525,41.9246006011963,0</coordinates></Point></Placemark>
<Placemark><name>RIPO56</name><description>222156 PORT.COM RIPO (Girona)
posicio de les: 06/08/2018 07:28:09</description><styleUrl>#w_verdP</styleUrl><Point><coordinates>2.17679500579834,42.2848534584045,0</coordinates></Point></Placemark>
<Placemark><name>RIPO57</name><description>222157 PORT.COM RIPO (Girona)
posicio de les: 06/08/2018 07:29:31</description><styleUrl>#w_verdP</styleUrl><Point><coordinates>2.16900587081909,42.21524477005,0</coordinates></Point></Placemark>
<Placemark><name>TORR02</name><description>222602 PORT TORR (Girona)
posicio de les: 06/08/2018 07:28:42</description><styleUrl>#w_verdP</styleUrl><Point><coordinates>3.16697001457214,42.0480895042419,0</coordinates></Point></Placemark>
<Placemark><name>22630</name><description>222630 BRP TORR (Girona)
posicio de les: 06/08/2018 07:28:12</description><styleUrl>#w_verdC</styleUrl><Point><coordinates>3.16790342330933,42.0472633838654,0</coordinates></Point></Placemark>
<Placemark><name>22631</name><description>222631 BRP TORR (Girona)
posicio de les: 06/08/2018 07:29:35</description><styleUrl>#w_verdC</styleUrl><Point><coordinates>3.17822456359863,42.049355506897,0</coordinates></Point></Placemark>
<Placemark><name>VALL56</name><description>222856 PORT.COM VALL (Girona)
posicio de les: 06/08/2018 07:29:06</description><styleUrl>#w_verdP</styleUrl><Point><coordinates>3.03181886672974,41.8088579177856,0</coordinates></Point></Placemark>
<Placemark><name>22890</name><description>222890 UPC VALL (Girona)
posicio de les: 06/08/2018 07:29:42</description><styleUrl>#w_verd</styleUrl><Point><coordinates>2.89604544639587,41.8412697315216,0</coordinates></Point></Placemark>
<Placemark><name>D9REG</name><description>228049  SERVEIS REGIÓ
posicio de les: 06/08/2018 07:28:04</description><styleUrl>#w_verd</styleUrl><Point><coordinates>2.80615925788879,41.9601452350616,0</coordinates></Point></Placemark>
<Placemark><name>30092</name><description>230092  REGIÓ
posicio de les: 06/08/2018 07:29:46</description><styleUrl>#w_verd</styleUrl><Point><coordinates>0.608668327331543,41.6266715526581,0</coordinates></Point></Placemark>
<Placemark><name>31990</name><description>231990 UPC LLEI (Lleida)
posicio de les: 06/08/2018 07:26:20</description><styleUrl>#w_groc</styleUrl><Point><coordinates>0.604891777038574,41.6238927841187,0</coordinates></Point></Placemark>
<Placemark><name>OLIA01</name><description>232201 PORT OLIA (Lleida)
posicio de les: 06/08/2018 07:27:21</description><styleUrl>#w_verdP</styleUrl><Point><coordinates>1.30833864212036,42.074214220047,0</coordinates></Point></Placemark>
<Placemark><name>OLIA56</name><description>232256 PORT.COM OLIA (Lleida)
posicio de les: 06/08/2018 07:27:41</description><styleUrl>#w_grocP</styleUrl><Point><coordinates>1.30824208259583,42.0745360851288,0</coordinates></Point></Placemark>
<Placemark><name>POBL01</name><description>232401 PORT POBL (Lleida)
posicio de les: 06/08/2018 07:25:46</description><styleUrl>#w_verdP</styleUrl><Point><coordinates>0.964404344558716,42.2389984130859,0</coordinates></Point></Placemark>
<Placemark><name>TREM05</name><description>233305 PORT TREM (Lleida)
posicio de les: 06/08/2018 07:27:06</description><styleUrl>#w_verdP</styleUrl><Point><coordinates>0.889055728912354,42.1647012233734,0</coordinates></Point></Placemark>
<Placemark><name>TREM07</name><description>233307 PORT TREM (Lleida)
posicio de les: 06/08/2018 07:29:12</description><styleUrl>#w_verdP</styleUrl><Point><coordinates>0.88939905166626,42.1645510196686,0</coordinates></Point></Placemark>
<Placemark><name>TREM56</name><description>233356 PORT.COM TREM (Lleida)
posicio de les: 06/08/2018 07:29:24</description><styleUrl>#w_verdP</styleUrl><Point><coordinates>0.889699459075928,42.1655917167664,0</coordinates></Point></Placemark>
<Placemark><name>FTAR1</name><description>234513 PORT Parc X
posicio de les: 06/08/2018 07:29:03</description><styleUrl>#w_verdP</styleUrl><Point><coordinates>1.14917635917664,41.6507470607758,0</coordinates></Point></Placemark>
<Placemark><name>I407</name><description>237407 P.GUAITA GUAITA
posicio de les: 06/08/2018 07:25:54</description><styleUrl>#w_verdP</styleUrl><Point><coordinates>0.966206789016724,42.2526884078979,0</coordinates></Point></Placemark>
<Placemark><name>REMN11</name><description>240011 P.Tec REGIÓ
posicio de les: 06/08/2018 07:27:40</description><styleUrl>#w_verdP</styleUrl><Point><coordinates>2.11258292198181,41.5024423599243,0</coordinates></Point></Placemark>
<Placemark><name>REMN14</name><description>240014 P.Tec REGIÓ
posicio de les: 06/08/2018 07:27:56</description><styleUrl>#w_verdP</styleUrl><Point><coordinates>2.02563643455505,41.5679311752319,0</coordinates></Point></Placemark>
<Placemark><name>40091</name><description>240091  REGIÓ
posicio de les: 06/08/2018 07:26:10</description><styleUrl>#w_verd</styleUrl><Point><coordinates>2.11186408996582,41.5031933784485,0</coordinates></Point></Placemark>
<Placemark><name>40094</name><description>240094  REGIÓ
posicio de les: 06/08/2018 07:29:33</description><styleUrl>#w_verd</styleUrl><Point><coordinates>2.23770260810852,41.4652454853058,0</coordinates></Point></Placemark>
<Placemark><name>BAD02</name><description>240202 PORT BAD (Metro. Nord)
posicio de les: 06/08/2018 07:28:03</description><styleUrl>#w_verdP</styleUrl><Point><coordinates>2.23725199699402,41.4654278755188,0</coordinates></Point></Placemark>
<Placemark><name>40290</name><description>240290 UPC BAD (Metro. Nord)
posicio de les: 06/08/2018 07:25:13</description><styleUrl>#w_groc</styleUrl><Point><coordinates>2.02527165412903,41.5680384635925,0</coordinates></Point></Placemark>
<Placemark><name>40590</name><description>240590 UPC CER (Metro. Nord)
posicio de les: 06/08/2018 07:29:41</description><styleUrl>#w_verd</styleUrl><Point><coordinates>2.02713847160339,41.5644550323486,0</coordinates></Point></Placemark>
<Placemark><name>40930</name><description>240930 BRP MAT (Metro. Nord)
posicio de les: 06/08/2018 07:29:27</description><styleUrl>#w_grocC</styleUrl><Point><coordinates>2.4234938621521,41.5322577953339,0</coordinates></Point></Placemark>
<Placemark><name>240990</name><description>240990 UPC MAT (Metro. Nord)
posicio de les: 06/08/2018 07:29:41</description><styleUrl>#w_verd</styleUrl><Point><coordinates>2.27635860443115,41.5658926963806,0</coordinates></Point></Placemark>
<Placemark><name>MOL03</name><description>241003 PORT MOL (Metro. Nord)
posicio de les: 06/08/2018 07:28:09</description><styleUrl>#w_verdP</styleUrl><Point><coordinates>2.20109581947327,41.5370321273804,0</coordinates></Point></Placemark>
<Placemark><name>PIN01</name><description>241201 PORT PIN (Metro. Nord)
posicio de les: 06/08/2018 07:23:50</description><styleUrl>#w_verdP</styleUrl><Point><coordinates>2.66958117485046,41.6268110275269,0</coordinates></Point></Placemark>
<Placemark><name>RUB56</name><description>241356 PORT.COM RUB (Metro. Nord)
posicio de les: 06/08/2018 07:28:07</description><styleUrl>#w_verdP</styleUrl><Point><coordinates>2.0348846912384,41.4728629589081,0</coordinates></Point></Placemark>
<Placemark><name>SAB02</name><description>241402 PORT SAB (Metro. Nord)
posicio de les: 06/08/2018 07:28:40</description><styleUrl>#w_verdP</styleUrl><Point><coordinates>2.10396766662598,41.5436840057373,0</coordinates></Point></Placemark>
<Placemark><name>SAB07</name><description>241407 PORT SAB (Metro. Nord)
posicio de les: 06/08/2018 07:28:43</description><styleUrl>#w_verdP</styleUrl><Point><coordinates>2.02717065811157,41.5639293193817,0</coordinates></Point></Placemark>
<Placemark><name>241440</name><description>241440 BUP SAB (Metro. Nord)
posicio de les: 06/08/2018 07:25:06</description><styleUrl>#w_grocC</styleUrl><Point><coordinates>2.10386037826538,41.5423107147217,0</coordinates></Point></Placemark>
<Placemark><name>SCG09</name><description>241809 PORT SCG (Metro. Nord)
posicio de les: 06/08/2018 07:28:15</description><styleUrl>#w_verdP</styleUrl><Point><coordinates>2.20921754837036,41.4632070064545,0</coordinates></Point></Placemark>
<Placemark><name>TER01</name><description>242001 PORT TER (Metro. Nord)
posicio de les: 06/08/2018 07:29:08</description><styleUrl>#w_verdP</styleUrl><Point><coordinates>2.02592611312866,41.5685427188873,0</coordinates></Point></Placemark>
<Placemark><name>TER57</name><description>242057 PORT.COM TER (Metro. Nord)
posicio de les: 06/08/2018 07:29:41</description><styleUrl>#w_grocP</styleUrl><Point><coordinates>2.02645182609558,41.5677809715271,0</coordinates></Point></Placemark>
<Placemark><name>TOD56</name><description>242156 PORT.COM TOD (Metro. Nord)
posicio de les: 06/08/2018 07:28:18</description><styleUrl>#w_grocP</styleUrl><Point><coordinates>2.71674513816834,41.6914522647858,0</coordinates></Point></Placemark>
<Placemark><name>50086</name><description>250086  REGIÓ
posicio de les: 06/08/2018 07:27:11</description><styleUrl>#w_groc</styleUrl><Point><coordinates>1.90775871276855,41.4988696575165,0</coordinates></Point></Placemark>
<Placemark><name>50431</name><description>250431 BRP COR (Metro. Sud)
posicio de les: 06/08/2018 07:29:38</description><styleUrl>#w_verdC</styleUrl><Point><coordinates>2.08204865455627,41.3546311855316,0</coordinates></Point></Placemark>
<Placemark><name>50490</name><description>250490 UPC COR (Metro. Sud)
posicio de les: 06/08/2018 07:29:29</description><styleUrl>#w_verd</styleUrl><Point><coordinates>2.0369017124176,41.328227519989,0</coordinates></Point></Placemark>
<Placemark><name>GAV56</name><description>250556 PORT.COM GAV (Metro. Sud)
posicio de les: 06/08/2018 07:28:01</description><styleUrl>#w_verdP</styleUrl><Point><coordinates>1.99032783508301,41.3003218173981,0</coordinates></Point></Placemark>
<Placemark><name>LLA03</name><description>250903 PORT LLA (Metro. Sud)
posicio de les: 06/08/2018 07:29:35</description><styleUrl>#w_grocP</styleUrl><Point><coordinates>1.53039336204529,41.4732277393341,0</coordinates></Point></Placemark>
<Placemark><name>MAR56</name><description>251056 PORT.COM MAR (Metro. Sud)
posicio de les: 06/08/2018 07:27:58</description><styleUrl>#w_verdP</styleUrl><Point><coordinates>1.90799474716187,41.4987409114838,0</coordinates></Point></Placemark>
<Placemark><name>51090</name><description>251090 UPC MAR (Metro. Sud)
posicio de les: 06/08/2018 07:29:45</description><styleUrl>#w_groc</styleUrl><Point><coordinates>1.70424342155457,41.3548135757446,0</coordinates></Point></Placemark>
<Placemark><name>SBOI56</name><description>251356 PORT.COM SBOI (Metro. Sud)
posicio de les: 06/08/2018 07:28:03</description><styleUrl>#w_grocP</styleUrl><Point><coordinates>2.03446626663208,41.3226056098938,0</coordinates></Point></Placemark>
<Placemark><name>SBOI57</name><description>251357 PORT.COM SBOI (Metro. Sud)
posicio de les: 06/08/2018 07:24:20</description><styleUrl>#w_verdP</styleUrl><Point><coordinates>2.03460574150085,41.3229596614838,0</coordinates></Point></Placemark>
<Placemark><name>SFE03</name><description>251503 PORT SFE (Metro. Sud)
posicio de les: 06/08/2018 07:28:31</description><styleUrl>#w_verdP</styleUrl><Point><coordinates>2.04332828521729,41.3885235786438,0</coordinates></Point></Placemark>
<Placemark><name>VIF56</name><description>251856 PORT.COM VIF (Metro. Sud)
posicio de les: 06/08/2018 07:27:49</description><styleUrl>#w_grocP</styleUrl><Point><coordinates>1.70475840568542,41.3549315929413,0</coordinates></Point></Placemark>
<Placemark><name>CMS15</name><description>254515 PORT Parc X
posicio de les: 06/08/2018 07:28:05</description><styleUrl>#w_verdP</styleUrl><Point><coordinates>1.70386791229248,41.3541698455811,0</coordinates></Point></Placemark>
<Placemark><name>I215</name><description>257215 P.GUAITA GUAITA
posicio de les: 06/08/2018 07:29:41</description><styleUrl>#w_verdP</styleUrl><Point><coordinates>1.66420340538025,41.4992022514343,0</coordinates></Point></Placemark>
<Placemark><name>D1REMS</name><description>258041  SERVEIS REGIÓ
posicio de les: 06/08/2018 07:27:57</description><styleUrl>#w_groc</styleUrl><Point><coordinates>2.03425168991089,41.3223910331726,0</coordinates></Point></Placemark>
<Placemark><name>60098</name><description>260098  REGIÓ
posicio de les: 06/08/2018 07:29:39</description><styleUrl>#w_groc</styleUrl><Point><coordinates>1.11817002296448,41.150826215744,0</coordinates></Point></Placemark>
<Placemark><name>260508</name><description>260508 PORT HOSP (Tarragona)
posicio de les: 06/08/2018 07:29:04</description><styleUrl>#w_verdP</styleUrl><Point><coordinates>0.919783115386963,40.993595123291,0</coordinates></Point></Placemark>
<Placemark><name>60631</name><description>260631 BRP MONT (Tarragona)
posicio de les: 06/08/2018 07:29:44</description><styleUrl>#w_verdC</styleUrl><Point><coordinates>1.16514086723328,41.3873219490051,0</coordinates></Point></Placemark>
<Placemark><name>REUS15</name><description>260815 PORT REUS (Tarragona)
posicio de les: 06/08/2018 07:27:56</description><styleUrl>#w_grocP</styleUrl><Point><coordinates>1.11783742904663,41.1506116390228,0</coordinates></Point></Placemark>
<Placemark><name>60844</name><description>260844 BNP REUS (Tarragona)
posicio de les: 06/08/2018 07:26:40</description><styleUrl>#w_verdC</styleUrl><Point><coordinates>1.11821293830872,41.150997877121,0</coordinates></Point></Placemark>
<Placemark><name>TARR15</name><description>261215 PORT TARR (Tarragona)
posicio de les: 06/08/2018 07:28:57</description><styleUrl>#w_verdP</styleUrl><Point><coordinates>1.22128486633301,41.1143696308136,0</coordinates></Point></Placemark>
<Placemark><name>61234</name><description>261234 BFP TARR (Tarragona)
posicio de les: 06/08/2018 07:27:14</description><styleUrl>#w_grocC</styleUrl><Point><coordinates>1.22122049331665,41.1137044429779,0</coordinates></Point></Placemark>
<Placemark><name>VALS56</name><description>261356 PORT.COM VALS (Tarragona)
posicio de les: 06/08/2018 07:28:19</description><styleUrl>#w_verdP</styleUrl><Point><coordinates>1.25972628593445,41.3057720661163,0</coordinates></Point></Placemark>
<Placemark><name>VEND09</name><description>261409 PORT VEND (Tarragona)
posicio de les: 06/08/2018 07:29:15</description><styleUrl>#w_verdP</styleUrl><Point><coordinates>1.54027462005615,41.2224626541138,0</coordinates></Point></Placemark>
<Placemark><name>VEND10</name><description>261410 PORT VEND (Tarragona)
posicio de les: 06/08/2018 07:29:13</description><styleUrl>#w_verdP</styleUrl><Point><coordinates>1.54125094413757,41.2229561805725,0</coordinates></Point></Placemark>
<Placemark><name>E00RETE</name><description>270014 P.Tec REGIÓ
posicio de les: 06/08/2018 07:28:53</description><styleUrl>#w_verdP</styleUrl><Point><coordinates>0.513063669204712,40.8191764354706,0</coordinates></Point></Placemark>
<Placemark><name>AMPO56</name><description>272156 PORT.COM AMPO (Terres de l'Ebre)
posicio de les: 06/08/2018 07:27:53</description><styleUrl>#w_grocP</styleUrl><Point><coordinates>0.57952880859375,40.6894755363464,0</coordinates></Point></Placemark>
<Placemark><name>ASCO05</name><description>272205 PORT ASCO (Terres de l'Ebre)
posicio de les: 06/08/2018 07:29:30</description><styleUrl>#w_verdP</styleUrl><Point><coordinates>0.568596124649048,41.187572479248,0</coordinates></Point></Placemark>
<Placemark><name>ASCO56</name><description>272256 PORT.COM ASCO (Terres de l'Ebre)
posicio de les: 06/08/2018 07:28:15</description><styleUrl>#w_verdP</styleUrl><Point><coordinates>0.568649768829346,41.1880874633789,0</coordinates></Point></Placemark>
<Placemark><name>GAND56</name><description>272656 PORT.COM GAND (Terres de l'Ebre)
posicio de les: 06/08/2018 07:27:00</description><styleUrl>#w_grocP</styleUrl><Point><coordinates>0.439109802246094,41.0584723949432,0</coordinates></Point></Placemark>
<Placemark><name>ULLD04</name><description>273104 PORT ULLD (Terres de l'Ebre)
posicio de les: 06/08/2018 07:28:07</description><styleUrl>#w_verdP</styleUrl><Point><coordinates>0.358418226242065,40.6086874008179,0</coordinates></Point></Placemark>
<Placemark><name>73134</name><description>273134 BFP ULLD (Terres de l'Ebre)
posicio de les: 06/08/2018 07:29:04</description><styleUrl>#w_grocC</styleUrl><Point><coordinates>0.357710123062134,40.6086981296539,0</coordinates></Point></Placemark>
<Placemark><name>73190</name><description>273190 UPC ULLD (Terres de l'Ebre)
posicio de les: 06/08/2018 07:24:58</description><styleUrl>#w_groc</styleUrl><Point><coordinates>0.357871055603027,40.60870885849,0</coordinates></Point></Placemark>
<Placemark><name>E_93</name><description>278031  SERVEIS REGIÓ
posicio de les: 06/08/2018 07:29:33</description><styleUrl>#w_verd</styleUrl><Point><coordinates>0.513278245925903,40.8194231987,0</coordinates></Point></Placemark>
</Folder>
<Folder>
<name>Descarregues</name>
</Folder>
<Style id="w_verdP_n"><IconStyle><color>ff00ff00</color><scale>1.0</scale><Icon><href>http://maps.google.com/mapfiles/kml/shapes/man.png</href></Icon><hotSpot x="0.5" y="0" xunits="fraction" yunits="fraction"/></IconStyle><LabelStyle><scale>0.7</scale></LabelStyle></Style>
<Style id="w_verdP_s"><IconStyle><color>ff00ff00</color><scale>1.4</scale><Icon><href>http://maps.google.com/mapfiles/kml/shapes/man.png</href></Icon><hotSpot x="0.5" y="0" xunits="fraction" yunits="fraction"/></IconStyle><LabelStyle><scale>0.7</scale></LabelStyle></Style>
<StyleMap id="w_verdP"><Pair><key>normal</key><styleUrl>#w_verdP_n</styleUrl></Pair><Pair><key>highlight</key><styleUrl>#w_verdP_s</styleUrl></Pair></StyleMap>
<Style id="w_verd_n"><IconStyle><color>ff00ff00</color><scale>0.7</scale><Icon><href>http://maps.google.com/mapfiles/kml/shapes/cabs.png</href></Icon><hotSpot x="0.5" y="0" xunits="fraction" yunits="fraction"/></IconStyle><LabelStyle><scale>0.7</scale></LabelStyle></Style>
<Style id="w_verd_s"><IconStyle><color>ff00ff00</color><scale>1.0</scale><Icon><href>http://maps.google.com/mapfiles/kml/shapes/cabs.png</href></Icon><hotSpot x="0.5" y="0" xunits="fraction" yunits="fraction"/></IconStyle><LabelStyle><scale>0.7</scale></LabelStyle></Style>
<StyleMap id="w_verd"><Pair><key>normal</key><styleUrl>#w_verd_n</styleUrl></Pair><Pair><key>highlight</key><styleUrl>#w_verd_s</styleUrl></Pair></StyleMap>
<Style id="w_verdC_n"><IconStyle><color>ff00ff00</color><scale>1.0</scale><Icon><href>http://maps.google.com/mapfiles/kml/shapes/truck.png</href></Icon><hotSpot x="0.5" y="0" xunits="fraction" yunits="fraction"/></IconStyle><LabelStyle><scale>0.7</scale></LabelStyle></Style>
<Style id="w_verdC_s"><IconStyle><color>ff00ff00</color><scale>1.4</scale><Icon><href>http://maps.google.com/mapfiles/kml/shapes/truck.png</href></Icon><hotSpot x="0.5" y="0" xunits="fraction" yunits="fraction"/></IconStyle><LabelStyle><scale>0.7</scale></LabelStyle></Style>
<StyleMap id="w_verdC"><Pair><key>normal</key><styleUrl>#w_verdC_n</styleUrl></Pair><Pair><key>highlight</key><styleUrl>#w_verdC_s</styleUrl></Pair></StyleMap>
<Style id="w_verdH_n"><IconStyle><color>ff0000ff</color><scale>1.2</scale><Icon><href>http://maps.google.com/mapfiles/kml/shapes/heliport.png</href></Icon><hotSpot x="0.5" y="0" xunits="fraction" yunits="fraction"/></IconStyle><LabelStyle><scale>0.7</scale></LabelStyle></Style>
<Style id="w_verdH_s"><IconStyle><color>ff0000ff</color><scale>1.4</scale><Icon><href>http://maps.google.com/mapfiles/kml/shapes/heliport.png</href></Icon><hotSpot x="0.5" y="0" xunits="fraction" yunits="fraction"/></IconStyle><LabelStyle><scale>0.7</scale></LabelStyle></Style>
<StyleMap id="w_verdH"><Pair><key>normal</key><styleUrl>#w_verdH_n</styleUrl></Pair><Pair><key>highlight</key><styleUrl>#w_verdH_s</styleUrl></Pair></StyleMap>
<Style id="w_verdA_n"><IconStyle><color>ff0000ff</color><scale>1.2</scale><Icon><href>http://maps.google.com/mapfiles/kml/shapes/airports.png</href></Icon><hotSpot x="0.5" y="0" xunits="fraction" yunits="fraction"/></IconStyle><LabelStyle><scale>0.7</scale></LabelStyle></Style>
<Style id="w_verdA_s"><IconStyle><color>ff0000ff</color><scale>1.4</scale><Icon><href>http://maps.google.com/mapfiles/kml/shapes/airports.png</href></Icon><hotSpot x="0.5" y="0" xunits="fraction" yunits="fraction"/></IconStyle><LabelStyle><scale>0.7</scale></LabelStyle></Style>
<StyleMap id="w_verdA"><Pair><key>normal</key><styleUrl>#w_verdA_n</styleUrl></Pair><Pair><key>highlight</key><styleUrl>#w_verdA_s</styleUrl></Pair></StyleMap>
<Style id="w_verdB_n"><IconStyle><color>ff00ff00</color><scale>1.0</scale><Icon><href>http://maps.google.com/mapfiles/kml/shapes/sailing.png</href></Icon><hotSpot x="0.5" y="0" xunits="fraction" yunits="fraction"/></IconStyle><LabelStyle><scale>0.7</scale></LabelStyle></Style>
<Style id="w_verdB_s"><IconStyle><color>ff00ff00</color><scale>1.4</scale><Icon><href>http://maps.google.com/mapfiles/kml/shapes/sailing.png</href></Icon><hotSpot x="0.5" y="0" xunits="fraction" yunits="fraction"/></IconStyle><LabelStyle><scale>0.7</scale></LabelStyle></Style>
<StyleMap id="w_verdB"><Pair><key>normal</key><styleUrl>#w_verdBAR_n</styleUrl></Pair><Pair><key>highlight</key><styleUrl>#w_verdBAR_s</styleUrl></Pair></StyleMap>
<Style id="w_grocP_n"><IconStyle><color>ff00ffff</color><scale>1.0</scale><Icon><href>http://maps.google.com/mapfiles/kml/shapes/man.png</href></Icon><hotSpot x="0.5" y="0" xunits="fraction" yunits="fraction"/></IconStyle><LabelStyle><scale>0.7</scale></LabelStyle></Style>
<Style id="w_grocP_s"><IconStyle><color>ff00ffff</color><scale>1.4</scale><Icon><href>http://maps.google.com/mapfiles/kml/shapes/man.png</href></Icon><hotSpot x="0.5" y="0" xunits="fraction" yunits="fraction"/></IconStyle><LabelStyle><scale>0.7</scale></LabelStyle></Style>
<StyleMap id="w_grocP"><Pair><key>normal</key><styleUrl>#w_grocP_n</styleUrl></Pair><Pair><key>highlight</key><styleUrl>#w_grocP_s</styleUrl></Pair></StyleMap>
<Style id="w_groc_n"><IconStyle><color>ff00ffff</color><scale>0.7</scale><Icon><href>http://maps.google.com/mapfiles/kml/shapes/cabs.png</href></Icon><hotSpot x="0.5" y="0" xunits="fraction" yunits="fraction"/></IconStyle><LabelStyle><scale>0.7</scale></LabelStyle></Style>
<Style id="w_groc_s"><IconStyle><color>ff00ffff</color><scale>1.0</scale><Icon><href>http://maps.google.com/mapfiles/kml/shapes/cabs.png</href></Icon><hotSpot x="0.5" y="0" xunits="fraction" yunits="fraction"/></IconStyle><LabelStyle><scale>0.7</scale></LabelStyle></Style>
<StyleMap id="w_groc"><Pair><key>normal</key><styleUrl>#w_groc_n</styleUrl></Pair><Pair><key>highlight</key><styleUrl>#w_groc_s</styleUrl></Pair></StyleMap>
<Style id="w_grocC_n"><IconStyle><color>ff00ffff</color><scale>1.0</scale><Icon><href>http://maps.google.com/mapfiles/kml/shapes/truck.png</href></Icon><hotSpot x="0.5" y="0" xunits="fraction" yunits="fraction"/></IconStyle><LabelStyle><scale>0.7</scale></LabelStyle></Style>
<Style id="w_grocC_s"><IconStyle><color>ff00ffff</color><scale>1.4</scale><Icon><href>http://maps.google.com/mapfiles/kml/shapes/truck.png</href></Icon><hotSpot x="0.5" y="0" xunits="fraction" yunits="fraction"/></IconStyle><LabelStyle><scale>0.7</scale></LabelStyle></Style>
<StyleMap id="w_grocC"><Pair><key>normal</key><styleUrl>#w_grocC_n</styleUrl></Pair><Pair><key>highlight</key><styleUrl>#w_grocC_s</styleUrl></Pair></StyleMap>
<Style id="w_grocH_n"><IconStyle><color>ff0000ff</color><scale>1.2</scale><Icon><href>http://maps.google.com/mapfiles/kml/shapes/heliport.png</href></Icon><hotSpot x="0.5" y="0" xunits="fraction" yunits="fraction"/></IconStyle><LabelStyle><scale>0.7</scale></LabelStyle></Style>
<Style id="w_grocH_s"><IconStyle><color>ff0000ff</color><scale>1.4</scale><Icon><href>http://maps.google.com/mapfiles/kml/shapes/heliport.png</href></Icon><hotSpot x="0.5" y="0" xunits="fraction" yunits="fraction"/></IconStyle><LabelStyle><scale>0.7</scale></LabelStyle></Style>
<StyleMap id="w_grocH"><Pair><key>normal</key><styleUrl>#w_grocH_n</styleUrl></Pair><Pair><key>highlight</key><styleUrl>#w_grocH_s</styleUrl></Pair></StyleMap>
<Style id="w_grocA_n"><IconStyle><color>ff0000ff</color><scale>1.2</scale><Icon><href>http://maps.google.com/mapfiles/kml/shapes/airports.png</href></Icon><hotSpot x="0.5" y="0" xunits="fraction" yunits="fraction"/></IconStyle><LabelStyle><scale>0.7</scale></LabelStyle></Style>
<Style id="w_grocA_s"><IconStyle><color>ff0000ff</color><scale>1.4</scale><Icon><href>http://maps.google.com/mapfiles/kml/shapes/airports.png</href></Icon><hotSpot x="0.5" y="0" xunits="fraction" yunits="fraction"/></IconStyle><LabelStyle><scale>0.7</scale></LabelStyle></Style>
<StyleMap id="w_grocA"><Pair><key>normal</key><styleUrl>#w_grocA_n</styleUrl></Pair><Pair><key>highlight</key><styleUrl>#w_grocA_s</styleUrl></Pair></StyleMap>
<Style id="w_grocB_n"><IconStyle><color>ff00ffff</color><scale>1.0</scale><Icon><href>http://maps.google.com/mapfiles/kml/shapes/sailing.png</href></Icon><hotSpot x="0.5" y="0" xunits="fraction" yunits="fraction"/></IconStyle><LabelStyle><scale>0.7</scale></LabelStyle></Style>
<Style id="w_grocB_s"><IconStyle><color>ff00ffff</color><scale>1.4</scale><Icon><href>http://maps.google.com/mapfiles/kml/shapes/sailing.png</href></Icon><hotSpot x="0.5" y="0" xunits="fraction" yunits="fraction"/></IconStyle><LabelStyle><scale>0.7</scale></LabelStyle></Style>
<StyleMap id="w_grocB"><Pair><key>normal</key><styleUrl>#w_grocBAR_n</styleUrl></Pair><Pair><key>highlight</key><styleUrl>#w_grocBAR_s</styleUrl></Pair></StyleMap>
<Style id="w_vermellP_n"><IconStyle><color>ff0000ff</color><scale>1.0</scale><Icon><href>http://maps.google.com/mapfiles/kml/shapes/man.png</href></Icon><hotSpot x="0.5" y="0" xunits="fraction" yunits="fraction"/></IconStyle><LabelStyle><scale>0.7</scale></LabelStyle></Style>
<Style id="w_vermellP_s"><IconStyle><color>ff0000ff</color><scale>1.4</scale><Icon><href>http://maps.google.com/mapfiles/kml/shapes/man.png</href></Icon><hotSpot x="0.5" y="0" xunits="fraction" yunits="fraction"/></IconStyle><LabelStyle><scale>0.7</scale></LabelStyle></Style>
<StyleMap id="w_vermellP"><Pair><key>normal</key><styleUrl>#w_vermellP_n</styleUrl></Pair><Pair><key>highlight</key><styleUrl>#w_vermellP_s</styleUrl></Pair></StyleMap>
<Style id="w_vermell_n"><IconStyle><color>ff0000ff</color><scale>0.7</scale><Icon><href>http://maps.google.com/mapfiles/kml/shapes/cabs.png</href></Icon><hotSpot x="0.5" y="0" xunits="fraction" yunits="fraction"/></IconStyle><LabelStyle><scale>0.7</scale></LabelStyle></Style>
<Style id="w_vermell_s"><IconStyle><color>ff0000ff</color><scale>1.0</scale><Icon><href>http://maps.google.com/mapfiles/kml/shapes/cabs.png</href></Icon><hotSpot x="0.5" y="0" xunits="fraction" yunits="fraction"/></IconStyle><LabelStyle><scale>0.7</scale></LabelStyle></Style>
<StyleMap id="w_vermell"><Pair><key>normal</key><styleUrl>#w_vermell_n</styleUrl></Pair><Pair><key>highlight</key><styleUrl>#w_vermell_s</styleUrl></Pair></StyleMap>
<Style id="w_vermellC_n"><IconStyle><color>ff0000ff</color><scale>1.0</scale><Icon><href>http://maps.google.com/mapfiles/kml/shapes/truck.png</href></Icon><hotSpot x="0.5" y="0" xunits="fraction" yunits="fraction"/></IconStyle><LabelStyle><scale>0.7</scale></LabelStyle></Style>
<Style id="w_vermellC_s"><IconStyle><color>ff0000ff</color><scale>1.4</scale><Icon><href>http://maps.google.com/mapfiles/kml/shapes/truck.png</href></Icon><hotSpot x="0.5" y="0" xunits="fraction" yunits="fraction"/></IconStyle><LabelStyle><scale>0.7</scale></LabelStyle></Style>
<StyleMap id="w_vermellC"><Pair><key>normal</key><styleUrl>#w_vermellC_n</styleUrl></Pair><Pair><key>highlight</key><styleUrl>#w_vermellC_s</styleUrl></Pair></StyleMap>
<Style id="w_vermellH_n"><IconStyle><color>ff0000ff</color><scale>1.2</scale><Icon><href>http://maps.google.com/mapfiles/kml/shapes/heliport.png</href></Icon><hotSpot x="0.5" y="0" xunits="fraction" yunits="fraction"/></IconStyle><LabelStyle><scale>0.7</scale></LabelStyle></Style>
<Style id="w_vermellH_s"><IconStyle><color>ff0000ff</color><scale>1.4</scale><Icon><href>http://maps.google.com/mapfiles/kml/shapes/heliport.png</href></Icon><hotSpot x="0.5" y="0" xunits="fraction" yunits="fraction"/></IconStyle><LabelStyle><scale>0.7</scale></LabelStyle></Style>
<StyleMap id="w_vermellH"><Pair><key>normal</key><styleUrl>#w_vermellH_n</styleUrl></Pair><Pair><key>highlight</key><styleUrl>#w_vermellH_s</styleUrl></Pair></StyleMap>
<Style id="w_vermellA_n"><IconStyle><color>ff0000ff</color><scale>1.2</scale><Icon><href>http://maps.google.com/mapfiles/kml/shapes/airports.png</href></Icon><hotSpot x="0.5" y="0" xunits="fraction" yunits="fraction"/></IconStyle><LabelStyle><scale>0.7</scale></LabelStyle></Style>
<Style id="w_vermellA_s"><IconStyle><color>ff0000ff</color><scale>1.4</scale><Icon><href>http://maps.google.com/mapfiles/kml/shapes/airports.png</href></Icon><hotSpot x="0.5" y="0" xunits="fraction" yunits="fraction"/></IconStyle><LabelStyle><scale>0.7</scale></LabelStyle></Style>
<StyleMap id="w_vermellA"><Pair><key>normal</key><styleUrl>#w_vermellA_n</styleUrl></Pair><Pair><key>highlight</key><styleUrl>#w_vermellA_s</styleUrl></Pair></StyleMap>
<Style id="w_vermellB_n"><IconStyle><color>ff0000ff</color><scale>1.0</scale><Icon><href>http://maps.google.com/mapfiles/kml/shapes/sailing.png</href></Icon><hotSpot x="0.5" y="0" xunits="fraction" yunits="fraction"/></IconStyle><LabelStyle><scale>0.7</scale></LabelStyle></Style>
<Style id="w_vermellB_s"><IconStyle><color>ff0000ff</color><scale>1.4</scale><Icon><href>http://maps.google.com/mapfiles/kml/shapes/sailing.png</href></Icon><hotSpot x="0.5" y="0" xunits="fraction" yunits="fraction"/></IconStyle><LabelStyle><scale>0.7</scale></LabelStyle></Style>
<StyleMap id="w_vermellB"><Pair><key>normal</key><styleUrl>#w_vermellBAR_n</styleUrl></Pair><Pair><key>highlight</key><styleUrl>#w_vermellBAR_s</styleUrl></Pair></StyleMap>
<Style id="w_descarrega"><IconStyle><color>ff00ffff</color><scale>0.5</scale><Icon><href>http://maps.google.com/mapfiles/kml/shapes/road_shield3.png</href></Icon></IconStyle><LabelStyle><scale>0.7</scale></LabelStyle></Style><Style id="actuacio"><IconStyle><color>ff00ffff</color><scale>0.8</scale><Icon><href>http://maps.google.com/mapfiles/kml/shapes/caution.png</href></Icon></IconStyle><LabelStyle><scale>0.7</scale></LabelStyle></Style></Document></kml>