<?xml version="1.0" encoding="UTF-8"?>
<kml xmlns="http://www.opengis.net/kml/2.2" xmlns:gx="http://www.google.com/kml/ext/2.2" xmlns:kml="http://www.opengis.net/kml/2.2" xmlns:atom="http://www.w3.org/2005/Atom">
<Document>
<name>Terminals</name>
<Snippet maxLines="2">Created 06/08/2018 01:26:25</Snippet>
<Folder>
<name>Terminals</name>
<Placemark><name>A0103</name><description>200103 PORT Dept.
posicio de les: 06/08/2018 01:24:58</description><styleUrl>#w_grocP</styleUrl><Point><coordinates>0.797849893569946,42.7021837234497,0</coordinates></Point></Placemark>
<Placemark><name>A0204</name><description>200204 PORT Dept.
posicio de les: 06/08/2018 01:24:32</description><styleUrl>#w_grocP</styleUrl><Point><coordinates>0.797721147537231,42.7022480964661,0</coordinates></Point></Placemark>
<Placemark><name>02063</name><description>202063 GEM
posicio de les: 06/08/2018 01:21:41</description><styleUrl>#w_groc</styleUrl><Point><coordinates>2.11175680160522,41.5024316310883,0</coordinates></Point></Placemark>
<Placemark><name>GRAEUT3</name><description>203003 GRAE
posicio de les: 06/08/2018 01:24:29</description><styleUrl>#w_verdP</styleUrl><Point><coordinates>1.85111045837402,41.7414593696594,0</coordinates></Point></Placemark>
<Placemark><name>LGRAF02</name><description>204302 P.UT
posicio de les: 06/08/2018 01:24:30</description><styleUrl>#w_grocP</styleUrl><Point><coordinates>0.889409780502319,42.1648299694061,0</coordinates></Point></Placemark>
<Placemark><name>BGRAF08</name><description>204408 P.UT
posicio de les: 06/08/2018 01:26:02</description><styleUrl>#w_verdP</styleUrl><Point><coordinates>1.8526017665863,41.7414271831512,0</coordinates></Point></Placemark>
<Placemark><name>VIEL17</name><description>208017 BASE CCA VARAN
posicio de les: 06/08/2018 01:25:20</description><styleUrl>#w_groc</styleUrl><Point><coordinates>0.79675555229187,42.7080953121185,0</coordinates></Point></Placemark>
<Placemark><name>BER57</name><description>210357 PORT.COM BER (Centre)
posicio de les: 06/08/2018 01:24:42</description><styleUrl>#w_verdP</styleUrl><Point><coordinates>1.85778379440308,42.1041476726532,0</coordinates></Point></Placemark>
<Placemark><name>10430</name><description>210430 BRP CAF (Centre)
posicio de les: 06/08/2018 01:26:16</description><styleUrl>#w_verdC</styleUrl><Point><coordinates>1.50957942008972,41.7391848564148,0</coordinates></Point></Placemark>
<Placemark><name>CAB56</name><description>210656 PORT.COM CAB (Centre)
posicio de les: 06/08/2018 01:26:12</description><styleUrl>#w_grocP</styleUrl><Point><coordinates>1.68510317802429,41.665745973587,0</coordinates></Point></Placemark>
<Placemark><name>GUA56</name><description>210856 PORT.COM GUA (Centre)
posicio de les: 06/08/2018 01:22:29</description><styleUrl>#w_verdP</styleUrl><Point><coordinates>1.87145233154297,42.2201585769653,0</coordinates></Point></Placemark>
<Placemark><name>PRA07</name><description>211407 PORT PRA (Centre)
posicio de les: 06/08/2018 01:24:50</description><styleUrl>#w_verdP</styleUrl><Point><coordinates>2.03616142272949,42.0079636573792,0</coordinates></Point></Placemark>
<Placemark><name>20134</name><description>220134 BFP AMER (Girona)
posicio de les: 06/08/2018 01:25:20</description><styleUrl>#w_verdC</styleUrl><Point><coordinates>3.15384864807129,42.3572409152985,0</coordinates></Point></Placemark>
<Placemark><name>AMER57</name><description>220157 PORT.COM AMER (Girona)
posicio de les: 06/08/2018 01:22:52</description><styleUrl>#w_verdP</styleUrl><Point><coordinates>2.59603500366211,42.0114505290985,0</coordinates></Point></Placemark>
<Placemark><name>20330</name><description>220330 BRP BANY (Girona)
posicio de les: 06/08/2018 01:23:11</description><styleUrl>#w_verdC</styleUrl><Point><coordinates>2.78456211090088,42.116185426712,0</coordinates></Point></Placemark>
<Placemark><name>BANY56</name><description>220356 PORT.COM BANY (Girona)
posicio de les: 06/08/2018 01:25:54</description><styleUrl>#w_verdP</styleUrl><Point><coordinates>2.78578519821167,42.117805480957,0</coordinates></Point></Placemark>
<Placemark><name>PERA04</name><description>220404 PORT PERA (Girona)
posicio de les: 06/08/2018 01:22:49</description><styleUrl>#w_verdP</styleUrl><Point><coordinates>2.97495603561401,42.03009724617,0</coordinates></Point></Placemark>
<Placemark><name>20430</name><description>220430 BRP PERA (Girona)
posicio de les: 06/08/2018 01:25:38</description><styleUrl>#w_grocC</styleUrl><Point><coordinates>2.95756459236145,42.0472955703735,0</coordinates></Point></Placemark>
<Placemark><name>CASS56</name><description>220856 PORT.COM CASS (Girona)
posicio de les: 06/08/2018 01:25:50</description><styleUrl>#w_verdP</styleUrl><Point><coordinates>2.88350343704224,41.8796789646149,0</coordinates></Point></Placemark>
<Placemark><name>FIGU56</name><description>221056 PORT.COM FIGU (Girona)
posicio de les: 06/08/2018 01:25:06</description><styleUrl>#w_grocP</styleUrl><Point><coordinates>2.97064304351807,42.2728049755096,0</coordinates></Point></Placemark>
<Placemark><name>HOST05</name><description>221205 PORT HOST (Girona)
posicio de les: 06/08/2018 01:23:07</description><styleUrl>#w_verdP</styleUrl><Point><coordinates>2.62365102767944,41.7480790615082,0</coordinates></Point></Placemark>
<Placemark><name>HOST57</name><description>221257 PORT.COM HOST (Girona)
posicio de les: 06/08/2018 01:25:11</description><styleUrl>#w_verdP</styleUrl><Point><coordinates>2.62440204620361,41.7480897903442,0</coordinates></Point></Placemark>
<Placemark><name>JONQ56</name><description>221356 PORT.COM JONQ (Girona)
posicio de les: 06/08/2018 01:24:34</description><styleUrl>#w_verdP</styleUrl><Point><coordinates>2.8764545917511,42.4119365215302,0</coordinates></Point></Placemark>
<Placemark><name>LLOR56</name><description>221556 PORT.COM LLOR (Girona)
posicio de les: 06/08/2018 01:25:54</description><styleUrl>#w_verdP</styleUrl><Point><coordinates>2.83599615097046,41.6993916034698,0</coordinates></Point></Placemark>
<Placemark><name>MAÇA57</name><description>221657 PORT.COM MACA (Girona)
posicio de les: 06/08/2018 01:23:43</description><styleUrl>#w_verdP</styleUrl><Point><coordinates>2.75290131568909,41.7793428897858,0</coordinates></Point></Placemark>
<Placemark><name>OLOT56</name><description>221756 PORT.COM OLOT (Girona)
posicio de les: 06/08/2018 01:25:51</description><styleUrl>#w_verdP</styleUrl><Point><coordinates>2.47488498687744,42.1902787685394,0</coordinates></Point></Placemark>
<Placemark><name>OLOT57</name><description>221757 PORT.COM OLOT (Girona)
posicio de les: 06/08/2018 01:25:53</description><styleUrl>#w_verdP</styleUrl><Point><coordinates>2.47475624084473,42.1902251243591,0</coordinates></Point></Placemark>
<Placemark><name>PALA06</name><description>221806 PORT PALA (Girona)
posicio de les: 06/08/2018 01:25:23</description><styleUrl>#w_verdP</styleUrl><Point><coordinates>3.15553307533264,41.9261026382446,0</coordinates></Point></Placemark>
<Placemark><name>PALA56</name><description>221856 PORT.COM PALA (Girona)
posicio de les: 06/08/2018 01:26:17</description><styleUrl>#w_verdP</styleUrl><Point><coordinates>3.15529704093933,41.9256412982941,0</coordinates></Point></Placemark>
<Placemark><name>PALA57</name><description>221857 PORT.COM PALA (Girona)
posicio de les: 06/08/2018 01:24:49</description><styleUrl>#w_grocP</styleUrl><Point><coordinates>3.15591931343079,41.9257271289825,0</coordinates></Point></Placemark>
<Placemark><name>RIPO56</name><description>222156 PORT.COM RIPO (Girona)
posicio de les: 06/08/2018 01:24:39</description><styleUrl>#w_verdP</styleUrl><Point><coordinates>2.16915607452393,42.214879989624,0</coordinates></Point></Placemark>
<Placemark><name>RIPO57</name><description>222157 PORT.COM RIPO (Girona)
posicio de les: 06/08/2018 01:23:49</description><styleUrl>#w_verdP</styleUrl><Point><coordinates>2.16799736022949,42.2147512435913,0</coordinates></Point></Placemark>
<Placemark><name>ROSE01</name><description>222201 PORT ROSE (Girona)
posicio de les: 06/08/2018 01:25:20</description><styleUrl>#w_verdP</styleUrl><Point><coordinates>3.16089749336243,42.2764849662781,0</coordinates></Point></Placemark>
<Placemark><name>ROSE56</name><description>222256 PORT.COM ROSE (Girona)
posicio de les: 06/08/2018 01:25:35</description><styleUrl>#w_verdP</styleUrl><Point><coordinates>3.16079020500183,42.2763884067535,0</coordinates></Point></Placemark>
<Placemark><name>TORR56</name><description>222656 PORT.COM TORR (Girona)
posicio de les: 06/08/2018 01:25:00</description><styleUrl>#w_verdP</styleUrl><Point><coordinates>3.1676459312439,42.0478641986847,0</coordinates></Point></Placemark>
<Placemark><name>VALL56</name><description>222856 PORT.COM VALL (Girona)
posicio de les: 06/08/2018 01:22:29</description><styleUrl>#w_verdP</styleUrl><Point><coordinates>3.03175449371338,41.8088257312775,0</coordinates></Point></Placemark>
<Placemark><name>D7REG</name><description>228047  SERVEIS REGIÓ
posicio de les: 06/08/2018 01:26:08</description><styleUrl>#w_verd</styleUrl><Point><coordinates>2.80638456344604,41.9601881504059,0</coordinates></Point></Placemark>
<Placemark><name>FTREMP1</name><description>230073  REGIÓ
posicio de les: 06/08/2018 01:22:17</description><styleUrl>#w_verd</styleUrl><Point><coordinates>0.6307053565979,41.6163718700409,0</coordinates></Point></Placemark>
<Placemark><name>30083</name><description>230083  REGIÓ
posicio de les: 06/08/2018 01:24:44</description><styleUrl>#w_verd</styleUrl><Point><coordinates>0.605717897415161,41.622519493103,0</coordinates></Point></Placemark>
<Placemark><name>30091</name><description>230091  REGIÓ
posicio de les: 06/08/2018 01:22:05</description><styleUrl>#w_groc</styleUrl><Point><coordinates>0.63072681427002,41.6162538528442,0</coordinates></Point></Placemark>
<Placemark><name>30092</name><description>230092  REGIÓ
posicio de les: 06/08/2018 01:23:31</description><styleUrl>#w_groc</styleUrl><Point><coordinates>0.631306171417236,41.616758108139,0</coordinates></Point></Placemark>
<Placemark><name>30098</name><description>230098  REGIÓ
posicio de les: 06/08/2018 01:25:13</description><styleUrl>#w_verd</styleUrl><Point><coordinates>0.604773759841919,41.6234314441681,0</coordinates></Point></Placemark>
<Placemark><name>LLEI04</name><description>231904 PORT LLEI (Lleida)
posicio de les: 06/08/2018 01:24:28</description><styleUrl>#w_verdP</styleUrl><Point><coordinates>0.631520748138428,41.6162323951721,0</coordinates></Point></Placemark>
<Placemark><name>LLEI05</name><description>231905 PORT LLEI (Lleida)
posicio de les: 06/08/2018 01:25:50</description><styleUrl>#w_verdP</styleUrl><Point><coordinates>0.630608797073364,41.6162109375,0</coordinates></Point></Placemark>
<Placemark><name>LLEI13</name><description>231913 PORT LLEI (Lleida)
posicio de les: 06/08/2018 01:24:15</description><styleUrl>#w_verdP</styleUrl><Point><coordinates>0.604441165924072,41.6247510910034,0</coordinates></Point></Placemark>
<Placemark><name>31940</name><description>231940 BUP LLEI (Lleida)
posicio de les: 06/08/2018 01:21:56</description><styleUrl>#w_grocC</styleUrl><Point><coordinates>0.630555152893066,41.6161787509918,0</coordinates></Point></Placemark>
<Placemark><name>31948</name><description>231948 BUL LLEI (Lleida)
posicio de les: 06/08/2018 01:21:37</description><styleUrl>#w_verdC</styleUrl><Point><coordinates>0.63172459602356,41.616758108139,0</coordinates></Point></Placemark>
<Placemark><name>31960</name><description>231960 AEA/AES/ABA LLEI (Lleida)
posicio de les: 06/08/2018 01:22:29</description><styleUrl>#w_grocC</styleUrl><Point><coordinates>0.631402730941772,41.6165435314178,0</coordinates></Point></Placemark>
<Placemark><name>32031</name><description>232031 BRP MOLL (Lleida)
posicio de les: 06/08/2018 01:22:01</description><styleUrl>#w_grocC</styleUrl><Point><coordinates>0.631617307662964,41.6165328025818,0</coordinates></Point></Placemark>
<Placemark><name>MOLL56</name><description>232056 PORT.COM MOLL (Lleida)
posicio de les: 06/08/2018 01:25:23</description><styleUrl>#w_grocP</styleUrl><Point><coordinates>0.631402730941772,41.6162860393524,0</coordinates></Point></Placemark>
<Placemark><name>32090</name><description>232090 UPC MOLL (Lleida)
posicio de les: 06/08/2018 01:22:06</description><styleUrl>#w_groc</styleUrl><Point><coordinates>0.630952119827271,41.6163289546967,0</coordinates></Point></Placemark>
<Placemark><name>OLIA01</name><description>232201 PORT OLIA (Lleida)
posicio de les: 06/08/2018 01:25:20</description><styleUrl>#w_grocP</styleUrl><Point><coordinates>0.630823373794556,41.6161787509918,0</coordinates></Point></Placemark>
<Placemark><name>OLIA56</name><description>232256 PORT.COM OLIA (Lleida)
posicio de les: 06/08/2018 01:25:04</description><styleUrl>#w_grocP</styleUrl><Point><coordinates>0.630866289138794,41.6161787509918,0</coordinates></Point></Placemark>
<Placemark><name>32290</name><description>232290 UPC OLIA (Lleida)
posicio de les: 06/08/2018 01:22:13</description><styleUrl>#w_groc</styleUrl><Point><coordinates>0.63071608543396,41.6163289546967,0</coordinates></Point></Placemark>
<Placemark><name>POBL01</name><description>232401 PORT POBL (Lleida)
posicio de les: 06/08/2018 01:24:53</description><styleUrl>#w_verdP</styleUrl><Point><coordinates>0.964565277099609,42.2390627861023,0</coordinates></Point></Placemark>
<Placemark><name>PONT05</name><description>232505 PORT PONT (Lleida)
posicio de les: 06/08/2018 01:25:32</description><styleUrl>#w_grocP</styleUrl><Point><coordinates>0.739785432815552,42.4103915691376,0</coordinates></Point></Placemark>
<Placemark><name>33131</name><description>233131 BRP TAR (Lleida)
posicio de les: 06/08/2018 01:26:25</description><styleUrl>#w_grocC</styleUrl><Point><coordinates>0.631756782531738,41.616575717926,0</coordinates></Point></Placemark>
<Placemark><name>TREM05</name><description>233305 PORT TREM (Lleida)
posicio de les: 06/08/2018 01:25:26</description><styleUrl>#w_verdP</styleUrl><Point><coordinates>0.888626575469971,42.1645617485046,0</coordinates></Point></Placemark>
<Placemark><name>TREM07</name><description>233307 PORT TREM (Lleida)
posicio de les: 06/08/2018 01:24:18</description><styleUrl>#w_verdP</styleUrl><Point><coordinates>0.889484882354736,42.1646475791931,0</coordinates></Point></Placemark>
<Placemark><name>TREM56</name><description>233356 PORT.COM TREM (Lleida)
posicio de les: 06/08/2018 01:24:13</description><styleUrl>#w_verdP</styleUrl><Point><coordinates>0.88890552520752,42.1644759178162,0</coordinates></Point></Placemark>
<Placemark><name>FMOLL2</name><description>234508 PORT Parc X
posicio de les: 06/08/2018 01:26:20</description><styleUrl>#w_verdP</styleUrl><Point><coordinates>0.898282527923584,41.6369068622589,0</coordinates></Point></Placemark>
<Placemark><name>FTAR1</name><description>234513 PORT Parc X
posicio de les: 06/08/2018 01:25:00</description><styleUrl>#w_verdP</styleUrl><Point><coordinates>1.14916563034058,41.6503393650055,0</coordinates></Point></Placemark>
<Placemark><name>FTREM59</name><description>234559 BSAL Parc X
posicio de les: 06/08/2018 01:24:57</description><styleUrl>#w_verdB</styleUrl><Point><coordinates>0.605331659317017,41.6232812404633,0</coordinates></Point></Placemark>
<Placemark><name>I407</name><description>237407 P.GUAITA GUAITA
posicio de les: 06/08/2018 01:25:21</description><styleUrl>#w_verdP</styleUrl><Point><coordinates>0.965455770492554,42.2531390190125,0</coordinates></Point></Placemark>
<Placemark><name>REMN11</name><description>240011 P.Tec REGIÓ
posicio de les: 06/08/2018 01:25:51</description><styleUrl>#w_verdP</styleUrl><Point><coordinates>2.11206793785095,41.502023935318,0</coordinates></Point></Placemark>
<Placemark><name>REMN14</name><description>240014 P.Tec REGIÓ
posicio de les: 06/08/2018 01:24:56</description><styleUrl>#w_verdP</styleUrl><Point><coordinates>2.02532529830933,41.567394733429,0</coordinates></Point></Placemark>
<Placemark><name>40091</name><description>240091  REGIÓ
posicio de les: 06/08/2018 01:25:52</description><styleUrl>#w_groc</styleUrl><Point><coordinates>2.11125254631042,41.5022921562195,0</coordinates></Point></Placemark>
<Placemark><name>BAD02</name><description>240202 PORT BAD (Metro. Nord)
posicio de les: 06/08/2018 01:23:01</description><styleUrl>#w_grocP</styleUrl><Point><coordinates>2.23765969276428,41.4649772644043,0</coordinates></Point></Placemark>
<Placemark><name>40290</name><description>240290 UPC BAD (Metro. Nord)
posicio de les: 06/08/2018 01:25:13</description><styleUrl>#w_groc</styleUrl><Point><coordinates>2.02584028244019,41.5679311752319,0</coordinates></Point></Placemark>
<Placemark><name>CER03</name><description>240503 PORT CER (Metro. Nord)
posicio de les: 06/08/2018 01:25:57</description><styleUrl>#w_verdP</styleUrl><Point><coordinates>2.11154222488403,41.5025496482849,0</coordinates></Point></Placemark>
<Placemark><name>GRA01</name><description>240601 PORT GRA (Metro. Nord)
posicio de les: 06/08/2018 01:25:45</description><styleUrl>#w_verdP</styleUrl><Point><coordinates>2.27482438087463,41.5909016132355,0</coordinates></Point></Placemark>
<Placemark><name>GRA13</name><description>240613 PORT GRA (Metro. Nord)
posicio de les: 06/08/2018 01:25:31</description><styleUrl>#w_verdP</styleUrl><Point><coordinates>2.27492094039917,41.590461730957,0</coordinates></Point></Placemark>
<Placemark><name>MAT01</name><description>240901 PORT MAT (Metro. Nord)
posicio de les: 06/08/2018 01:25:08</description><styleUrl>#w_verdP</styleUrl><Point><coordinates>2.42318272590637,41.5323436260223,0</coordinates></Point></Placemark>
<Placemark><name>MOL03</name><description>241003 PORT MOL (Metro. Nord)
posicio de les: 06/08/2018 01:24:10</description><styleUrl>#w_verdP</styleUrl><Point><coordinates>2.20125675201416,41.5367209911346,0</coordinates></Point></Placemark>
<Placemark><name>SAB06</name><description>241406 PORT SAB (Metro. Nord)
posicio de les: 06/08/2018 01:25:42</description><styleUrl>#w_verdP</styleUrl><Point><coordinates>2.10413932800293,41.5421068668365,0</coordinates></Point></Placemark>
<Placemark><name>CMSAB20</name><description>241420 PORT SAB (Metro. Nord)
posicio de les: 06/08/2018 01:24:49</description><styleUrl>#w_verdP</styleUrl><Point><coordinates>2.10403203964233,41.5423321723938,0</coordinates></Point></Placemark>
<Placemark><name>241440</name><description>241440 BUP SAB (Metro. Nord)
posicio de les: 06/08/2018 01:21:39</description><styleUrl>#w_grocC</styleUrl><Point><coordinates>2.10381746292114,41.5425252914429,0</coordinates></Point></Placemark>
<Placemark><name>SCG09</name><description>241809 PORT SCG (Metro. Nord)
posicio de les: 06/08/2018 01:26:18</description><styleUrl>#w_verdP</styleUrl><Point><coordinates>2.20942139625549,41.4631855487823,0</coordinates></Point></Placemark>
<Placemark><name>241858</name><description>241858 BSAL SCG (Metro. Nord)
posicio de les: 06/08/2018 01:24:36</description><styleUrl>#w_verdB</styleUrl><Point><coordinates>2.20943212509155,41.4629924297333,0</coordinates></Point></Placemark>
<Placemark><name>TER07</name><description>242007 PORT TER (Metro. Nord)
posicio de les: 06/08/2018 01:20:56</description><styleUrl>#w_grocP</styleUrl><Point><coordinates>2.02619433403015,41.5682208538055,0</coordinates></Point></Placemark>
<Placemark><name>TOD56</name><description>242156 PORT.COM TOD (Metro. Nord)
posicio de les: 06/08/2018 01:25:52</description><styleUrl>#w_verdP</styleUrl><Point><coordinates>2.71627306938171,41.6914629936218,0</coordinates></Point></Placemark>
<Placemark><name>D9REMN</name><description>248049  SERVEIS REGIÓ
posicio de les: 06/08/2018 01:24:11</description><styleUrl>#w_verd</styleUrl><Point><coordinates>2.11274385452271,41.5020453929901,0</coordinates></Point></Placemark>
<Placemark><name>50092</name><description>250092  REGIÓ
posicio de les: 06/08/2018 01:26:15</description><styleUrl>#w_verd</styleUrl><Point><coordinates>1.70457601547241,41.3546741008759,0</coordinates></Point></Placemark>
<Placemark><name>COR05</name><description>250405 PORT COR (Metro. Sud)
posicio de les: 06/08/2018 01:25:58</description><styleUrl>#w_grocP</styleUrl><Point><coordinates>2.06732869148254,41.3565623760223,0</coordinates></Point></Placemark>
<Placemark><name>COR10</name><description>250410 PORT COR (Metro. Sud)
posicio de les: 06/08/2018 01:25:16</description><styleUrl>#w_verdP</styleUrl><Point><coordinates>2.07046151161194,41.3609397411346,0</coordinates></Point></Placemark>
<Placemark><name>50430</name><description>250430 BRP COR (Metro. Sud)
posicio de les: 06/08/2018 01:21:59</description><styleUrl>#w_grocC</styleUrl><Point><coordinates>2.06745743751526,41.3562405109406,0</coordinates></Point></Placemark>
<Placemark><name>GAV01</name><description>250501 PORT GAV (Metro. Sud)
posicio de les: 06/08/2018 01:25:17</description><styleUrl>#w_grocP</styleUrl><Point><coordinates>1.99042439460754,41.3002681732178,0</coordinates></Point></Placemark>
<Placemark><name>GAV56</name><description>250556 PORT.COM GAV (Metro. Sud)
posicio de les: 06/08/2018 01:23:32</description><styleUrl>#w_verdP</styleUrl><Point><coordinates>1.99042439460754,41.3000750541687,0</coordinates></Point></Placemark>
<Placemark><name>HOS02</name><description>250702 PORT HOS (Metro. Sud)
posicio de les: 06/08/2018 01:22:45</description><styleUrl>#w_verdP</styleUrl><Point><coordinates>2.10575938224792,41.3701987266541,0</coordinates></Point></Placemark>
<Placemark><name>LLA03</name><description>250903 PORT LLA (Metro. Sud)
posicio de les: 06/08/2018 01:25:22</description><styleUrl>#w_grocP</styleUrl><Point><coordinates>1.53038263320923,41.4732706546783,0</coordinates></Point></Placemark>
<Placemark><name>MAR57</name><description>251057 PORT.COM MAR (Metro. Sud)
posicio de les: 06/08/2018 01:25:13</description><styleUrl>#w_grocP</styleUrl><Point><coordinates>1.90815567970276,41.4986979961395,0</coordinates></Point></Placemark>
<Placemark><name>SFE57</name><description>251557 PORT.COM SFE (Metro. Sud)
posicio de les: 06/08/2018 01:25:08</description><styleUrl>#w_grocP</styleUrl><Point><coordinates>2.04280257225037,41.3884913921356,0</coordinates></Point></Placemark>
<Placemark><name>CMS15</name><description>254515 PORT Parc X
posicio de les: 06/08/2018 01:26:00</description><styleUrl>#w_verdP</styleUrl><Point><coordinates>1.70446872711182,41.3541054725647,0</coordinates></Point></Placemark>
<Placemark><name>I215</name><description>257215 P.GUAITA GUAITA
posicio de les: 06/08/2018 01:24:57</description><styleUrl>#w_grocP</styleUrl><Point><coordinates>1.66399955749512,41.499148607254,0</coordinates></Point></Placemark>
<Placemark><name>D1REMS</name><description>258041  SERVEIS REGIÓ
posicio de les: 06/08/2018 01:25:29</description><styleUrl>#w_verd</styleUrl><Point><coordinates>2.02856540679932,41.3207924365997,0</coordinates></Point></Placemark>
<Placemark><name>60240</name><description>260240 BUP CAMB (Tarragona)
posicio de les: 06/08/2018 01:26:18</description><styleUrl>#w_verdC</styleUrl><Point><coordinates>1.11714005470276,41.0986411571503,0</coordinates></Point></Placemark>
<Placemark><name>260508</name><description>260508 PORT HOSP (Tarragona)
posicio de les: 06/08/2018 01:24:59</description><styleUrl>#w_grocP</styleUrl><Point><coordinates>0.919901132583618,40.993595123291,0</coordinates></Point></Placemark>
<Placemark><name>60844</name><description>260844 BNP REUS (Tarragona)
posicio de les: 06/08/2018 01:21:40</description><styleUrl>#w_grocC</styleUrl><Point><coordinates>1.11810564994812,41.1509335041046,0</coordinates></Point></Placemark>
<Placemark><name>60848</name><description>260848 BUL REUS (Tarragona)
posicio de les: 06/08/2018 01:25:20</description><styleUrl>#w_verdC</styleUrl><Point><coordinates>1.11933946609497,41.1510944366455,0</coordinates></Point></Placemark>
<Placemark><name>60890</name><description>260890 UPC REUS (Tarragona)
posicio de les: 06/08/2018 01:25:00</description><styleUrl>#w_verd</styleUrl><Point><coordinates>1.11796617507935,41.1506330966949,0</coordinates></Point></Placemark>
<Placemark><name>61234</name><description>261234 BFP TARR (Tarragona)
posicio de les: 06/08/2018 01:26:19</description><styleUrl>#w_grocC</styleUrl><Point><coordinates>1.22152090072632,41.1136722564697,0</coordinates></Point></Placemark>
<Placemark><name>VALS56</name><description>261356 PORT.COM VALS (Tarragona)
posicio de les: 06/08/2018 01:23:12</description><styleUrl>#w_verdP</styleUrl><Point><coordinates>1.26033782958984,41.3069522380829,0</coordinates></Point></Placemark>
<Placemark><name>61390</name><description>261390 UPC VALS (Tarragona)
posicio de les: 06/08/2018 01:25:02</description><styleUrl>#w_groc</styleUrl><Point><coordinates>1.25921130180359,41.3072848320007,0</coordinates></Point></Placemark>
<Placemark><name>VEND09</name><description>261409 PORT VEND (Tarragona)
posicio de les: 06/08/2018 01:26:20</description><styleUrl>#w_verdP</styleUrl><Point><coordinates>1.54127240180969,41.2218296527863,0</coordinates></Point></Placemark>
<Placemark><name>VEND10</name><description>261410 PORT VEND (Tarragona)
posicio de les: 06/08/2018 01:24:32</description><styleUrl>#w_verdP</styleUrl><Point><coordinates>1.54067158699036,41.2223553657532,0</coordinates></Point></Placemark>
<Placemark><name>61434</name><description>261434 BFP VEND (Tarragona)
posicio de les: 06/08/2018 01:26:25</description><styleUrl>#w_verdC</styleUrl><Point><coordinates>1.45445466041565,41.1826479434967,0</coordinates></Point></Placemark>
<Placemark><name>E00RETE</name><description>270014 P.Tec REGIÓ
posicio de les: 06/08/2018 01:23:54</description><styleUrl>#w_verdP</styleUrl><Point><coordinates>0.512892007827759,40.8192408084869,0</coordinates></Point></Placemark>
<Placemark><name>GAND56</name><description>272656 PORT.COM GAND (Terres de l'Ebre)
posicio de les: 06/08/2018 01:21:28</description><styleUrl>#w_verdP</styleUrl><Point><coordinates>0.439367294311523,41.0585045814514,0</coordinates></Point></Placemark>
<Placemark><name>MORA56</name><description>272856 PORT.COM MORA (Terres de l'Ebre)
posicio de les: 06/08/2018 01:24:57</description><styleUrl>#w_verdP</styleUrl><Point><coordinates>0.629578828811646,41.086174249649,0</coordinates></Point></Placemark>
<Placemark><name>E_93</name><description>278031  SERVEIS REGIÓ
posicio de les: 06/08/2018 01:25:24</description><styleUrl>#w_verd</styleUrl><Point><coordinates>0.512934923171997,40.8194661140442,0</coordinates></Point></Placemark>
</Folder>
<Folder>
<name>Descarregues</name>
</Folder>
<Style id="w_verdP_n"><IconStyle><color>ff00ff00</color><scale>1.0</scale><Icon><href>http://maps.google.com/mapfiles/kml/shapes/man.png</href></Icon><hotSpot x="0.5" y="0" xunits="fraction" yunits="fraction"/></IconStyle><LabelStyle><scale>0.7</scale></LabelStyle></Style>
<Style id="w_verdP_s"><IconStyle><color>ff00ff00</color><scale>1.4</scale><Icon><href>http://maps.google.com/mapfiles/kml/shapes/man.png</href></Icon><hotSpot x="0.5" y="0" xunits="fraction" yunits="fraction"/></IconStyle><LabelStyle><scale>0.7</scale></LabelStyle></Style>
<StyleMap id="w_verdP"><Pair><key>normal</key><styleUrl>#w_verdP_n</styleUrl></Pair><Pair><key>highlight</key><styleUrl>#w_verdP_s</styleUrl></Pair></StyleMap>
<Style id="w_verd_n"><IconStyle><color>ff00ff00</color><scale>0.7</scale><Icon><href>http://maps.google.com/mapfiles/kml/shapes/cabs.png</href></Icon><hotSpot x="0.5" y="0" xunits="fraction" yunits="fraction"/></IconStyle><LabelStyle><scale>0.7</scale></LabelStyle></Style>
<Style id="w_verd_s"><IconStyle><color>ff00ff00</color><scale>1.0</scale><Icon><href>http://maps.google.com/mapfiles/kml/shapes/cabs.png</href></Icon><hotSpot x="0.5" y="0" xunits="fraction" yunits="fraction"/></IconStyle><LabelStyle><scale>0.7</scale></LabelStyle></Style>
<StyleMap id="w_verd"><Pair><key>normal</key><styleUrl>#w_verd_n</styleUrl></Pair><Pair><key>highlight</key><styleUrl>#w_verd_s</styleUrl></Pair></StyleMap>
<Style id="w_verdC_n"><IconStyle><color>ff00ff00</color><scale>1.0</scale><Icon><href>http://maps.google.com/mapfiles/kml/shapes/truck.png</href></Icon><hotSpot x="0.5" y="0" xunits="fraction" yunits="fraction"/></IconStyle><LabelStyle><scale>0.7</scale></LabelStyle></Style>
<Style id="w_verdC_s"><IconStyle><color>ff00ff00</color><scale>1.4</scale><Icon><href>http://maps.google.com/mapfiles/kml/shapes/truck.png</href></Icon><hotSpot x="0.5" y="0" xunits="fraction" yunits="fraction"/></IconStyle><LabelStyle><scale>0.7</scale></LabelStyle></Style>
<StyleMap id="w_verdC"><Pair><key>normal</key><styleUrl>#w_verdC_n</styleUrl></Pair><Pair><key>highlight</key><styleUrl>#w_verdC_s</styleUrl></Pair></StyleMap>
<Style id="w_verdH_n"><IconStyle><color>ff0000ff</color><scale>1.2</scale><Icon><href>http://maps.google.com/mapfiles/kml/shapes/heliport.png</href></Icon><hotSpot x="0.5" y="0" xunits="fraction" yunits="fraction"/></IconStyle><LabelStyle><scale>0.7</scale></LabelStyle></Style>
<Style id="w_verdH_s"><IconStyle><color>ff0000ff</color><scale>1.4</scale><Icon><href>http://maps.google.com/mapfiles/kml/shapes/heliport.png</href></Icon><hotSpot x="0.5" y="0" xunits="fraction" yunits="fraction"/></IconStyle><LabelStyle><scale>0.7</scale></LabelStyle></Style>
<StyleMap id="w_verdH"><Pair><key>normal</key><styleUrl>#w_verdH_n</styleUrl></Pair><Pair><key>highlight</key><styleUrl>#w_verdH_s</styleUrl></Pair></StyleMap>
<Style id="w_verdA_n"><IconStyle><color>ff0000ff</color><scale>1.2</scale><Icon><href>http://maps.google.com/mapfiles/kml/shapes/airports.png</href></Icon><hotSpot x="0.5" y="0" xunits="fraction" yunits="fraction"/></IconStyle><LabelStyle><scale>0.7</scale></LabelStyle></Style>
<Style id="w_verdA_s"><IconStyle><color>ff0000ff</color><scale>1.4</scale><Icon><href>http://maps.google.com/mapfiles/kml/shapes/airports.png</href></Icon><hotSpot x="0.5" y="0" xunits="fraction" yunits="fraction"/></IconStyle><LabelStyle><scale>0.7</scale></LabelStyle></Style>
<StyleMap id="w_verdA"><Pair><key>normal</key><styleUrl>#w_verdA_n</styleUrl></Pair><Pair><key>highlight</key><styleUrl>#w_verdA_s</styleUrl></Pair></StyleMap>
<Style id="w_verdB_n"><IconStyle><color>ff00ff00</color><scale>1.0</scale><Icon><href>http://maps.google.com/mapfiles/kml/shapes/sailing.png</href></Icon><hotSpot x="0.5" y="0" xunits="fraction" yunits="fraction"/></IconStyle><LabelStyle><scale>0.7</scale></LabelStyle></Style>
<Style id="w_verdB_s"><IconStyle><color>ff00ff00</color><scale>1.4</scale><Icon><href>http://maps.google.com/mapfiles/kml/shapes/sailing.png</href></Icon><hotSpot x="0.5" y="0" xunits="fraction" yunits="fraction"/></IconStyle><LabelStyle><scale>0.7</scale></LabelStyle></Style>
<StyleMap id="w_verdB"><Pair><key>normal</key><styleUrl>#w_verdBAR_n</styleUrl></Pair><Pair><key>highlight</key><styleUrl>#w_verdBAR_s</styleUrl></Pair></StyleMap>
<Style id="w_grocP_n"><IconStyle><color>ff00ffff</color><scale>1.0</scale><Icon><href>http://maps.google.com/mapfiles/kml/shapes/man.png</href></Icon><hotSpot x="0.5" y="0" xunits="fraction" yunits="fraction"/></IconStyle><LabelStyle><scale>0.7</scale></LabelStyle></Style>
<Style id="w_grocP_s"><IconStyle><color>ff00ffff</color><scale>1.4</scale><Icon><href>http://maps.google.com/mapfiles/kml/shapes/man.png</href></Icon><hotSpot x="0.5" y="0" xunits="fraction" yunits="fraction"/></IconStyle><LabelStyle><scale>0.7</scale></LabelStyle></Style>
<StyleMap id="w_grocP"><Pair><key>normal</key><styleUrl>#w_grocP_n</styleUrl></Pair><Pair><key>highlight</key><styleUrl>#w_grocP_s</styleUrl></Pair></StyleMap>
<Style id="w_groc_n"><IconStyle><color>ff00ffff</color><scale>0.7</scale><Icon><href>http://maps.google.com/mapfiles/kml/shapes/cabs.png</href></Icon><hotSpot x="0.5" y="0" xunits="fraction" yunits="fraction"/></IconStyle><LabelStyle><scale>0.7</scale></LabelStyle></Style>
<Style id="w_groc_s"><IconStyle><color>ff00ffff</color><scale>1.0</scale><Icon><href>http://maps.google.com/mapfiles/kml/shapes/cabs.png</href></Icon><hotSpot x="0.5" y="0" xunits="fraction" yunits="fraction"/></IconStyle><LabelStyle><scale>0.7</scale></LabelStyle></Style>
<StyleMap id="w_groc"><Pair><key>normal</key><styleUrl>#w_groc_n</styleUrl></Pair><Pair><key>highlight</key><styleUrl>#w_groc_s</styleUrl></Pair></StyleMap>
<Style id="w_grocC_n"><IconStyle><color>ff00ffff</color><scale>1.0</scale><Icon><href>http://maps.google.com/mapfiles/kml/shapes/truck.png</href></Icon><hotSpot x="0.5" y="0" xunits="fraction" yunits="fraction"/></IconStyle><LabelStyle><scale>0.7</scale></LabelStyle></Style>
<Style id="w_grocC_s"><IconStyle><color>ff00ffff</color><scale>1.4</scale><Icon><href>http://maps.google.com/mapfiles/kml/shapes/truck.png</href></Icon><hotSpot x="0.5" y="0" xunits="fraction" yunits="fraction"/></IconStyle><LabelStyle><scale>0.7</scale></LabelStyle></Style>
<StyleMap id="w_grocC"><Pair><key>normal</key><styleUrl>#w_grocC_n</styleUrl></Pair><Pair><key>highlight</key><styleUrl>#w_grocC_s</styleUrl></Pair></StyleMap>
<Style id="w_grocH_n"><IconStyle><color>ff0000ff</color><scale>1.2</scale><Icon><href>http://maps.google.com/mapfiles/kml/shapes/heliport.png</href></Icon><hotSpot x="0.5" y="0" xunits="fraction" yunits="fraction"/></IconStyle><LabelStyle><scale>0.7</scale></LabelStyle></Style>
<Style id="w_grocH_s"><IconStyle><color>ff0000ff</color><scale>1.4</scale><Icon><href>http://maps.google.com/mapfiles/kml/shapes/heliport.png</href></Icon><hotSpot x="0.5" y="0" xunits="fraction" yunits="fraction"/></IconStyle><LabelStyle><scale>0.7</scale></LabelStyle></Style>
<StyleMap id="w_grocH"><Pair><key>normal</key><styleUrl>#w_grocH_n</styleUrl></Pair><Pair><key>highlight</key><styleUrl>#w_grocH_s</styleUrl></Pair></StyleMap>
<Style id="w_grocA_n"><IconStyle><color>ff0000ff</color><scale>1.2</scale><Icon><href>http://maps.google.com/mapfiles/kml/shapes/airports.png</href></Icon><hotSpot x="0.5" y="0" xunits="fraction" yunits="fraction"/></IconStyle><LabelStyle><scale>0.7</scale></LabelStyle></Style>
<Style id="w_grocA_s"><IconStyle><color>ff0000ff</color><scale>1.4</scale><Icon><href>http://maps.google.com/mapfiles/kml/shapes/airports.png</href></Icon><hotSpot x="0.5" y="0" xunits="fraction" yunits="fraction"/></IconStyle><LabelStyle><scale>0.7</scale></LabelStyle></Style>
<StyleMap id="w_grocA"><Pair><key>normal</key><styleUrl>#w_grocA_n</styleUrl></Pair><Pair><key>highlight</key><styleUrl>#w_grocA_s</styleUrl></Pair></StyleMap>
<Style id="w_grocB_n"><IconStyle><color>ff00ffff</color><scale>1.0</scale><Icon><href>http://maps.google.com/mapfiles/kml/shapes/sailing.png</href></Icon><hotSpot x="0.5" y="0" xunits="fraction" yunits="fraction"/></IconStyle><LabelStyle><scale>0.7</scale></LabelStyle></Style>
<Style id="w_grocB_s"><IconStyle><color>ff00ffff</color><scale>1.4</scale><Icon><href>http://maps.google.com/mapfiles/kml/shapes/sailing.png</href></Icon><hotSpot x="0.5" y="0" xunits="fraction" yunits="fraction"/></IconStyle><LabelStyle><scale>0.7</scale></LabelStyle></Style>
<StyleMap id="w_grocB"><Pair><key>normal</key><styleUrl>#w_grocBAR_n</styleUrl></Pair><Pair><key>highlight</key><styleUrl>#w_grocBAR_s</styleUrl></Pair></StyleMap>
<Style id="w_vermellP_n"><IconStyle><color>ff0000ff</color><scale>1.0</scale><Icon><href>http://maps.google.com/mapfiles/kml/shapes/man.png</href></Icon><hotSpot x="0.5" y="0" xunits="fraction" yunits="fraction"/></IconStyle><LabelStyle><scale>0.7</scale></LabelStyle></Style>
<Style id="w_vermellP_s"><IconStyle><color>ff0000ff</color><scale>1.4</scale><Icon><href>http://maps.google.com/mapfiles/kml/shapes/man.png</href></Icon><hotSpot x="0.5" y="0" xunits="fraction" yunits="fraction"/></IconStyle><LabelStyle><scale>0.7</scale></LabelStyle></Style>
<StyleMap id="w_vermellP"><Pair><key>normal</key><styleUrl>#w_vermellP_n</styleUrl></Pair><Pair><key>highlight</key><styleUrl>#w_vermellP_s</styleUrl></Pair></StyleMap>
<Style id="w_vermell_n"><IconStyle><color>ff0000ff</color><scale>0.7</scale><Icon><href>http://maps.google.com/mapfiles/kml/shapes/cabs.png</href></Icon><hotSpot x="0.5" y="0" xunits="fraction" yunits="fraction"/></IconStyle><LabelStyle><scale>0.7</scale></LabelStyle></Style>
<Style id="w_vermell_s"><IconStyle><color>ff0000ff</color><scale>1.0</scale><Icon><href>http://maps.google.com/mapfiles/kml/shapes/cabs.png</href></Icon><hotSpot x="0.5" y="0" xunits="fraction" yunits="fraction"/></IconStyle><LabelStyle><scale>0.7</scale></LabelStyle></Style>
<StyleMap id="w_vermell"><Pair><key>normal</key><styleUrl>#w_vermell_n</styleUrl></Pair><Pair><key>highlight</key><styleUrl>#w_vermell_s</styleUrl></Pair></StyleMap>
<Style id="w_vermellC_n"><IconStyle><color>ff0000ff</color><scale>1.0</scale><Icon><href>http://maps.google.com/mapfiles/kml/shapes/truck.png</href></Icon><hotSpot x="0.5" y="0" xunits="fraction" yunits="fraction"/></IconStyle><LabelStyle><scale>0.7</scale></LabelStyle></Style>
<Style id="w_vermellC_s"><IconStyle><color>ff0000ff</color><scale>1.4</scale><Icon><href>http://maps.google.com/mapfiles/kml/shapes/truck.png</href></Icon><hotSpot x="0.5" y="0" xunits="fraction" yunits="fraction"/></IconStyle><LabelStyle><scale>0.7</scale></LabelStyle></Style>
<StyleMap id="w_vermellC"><Pair><key>normal</key><styleUrl>#w_vermellC_n</styleUrl></Pair><Pair><key>highlight</key><styleUrl>#w_vermellC_s</styleUrl></Pair></StyleMap>
<Style id="w_vermellH_n"><IconStyle><color>ff0000ff</color><scale>1.2</scale><Icon><href>http://maps.google.com/mapfiles/kml/shapes/heliport.png</href></Icon><hotSpot x="0.5" y="0" xunits="fraction" yunits="fraction"/></IconStyle><LabelStyle><scale>0.7</scale></LabelStyle></Style>
<Style id="w_vermellH_s"><IconStyle><color>ff0000ff</color><scale>1.4</scale><Icon><href>http://maps.google.com/mapfiles/kml/shapes/heliport.png</href></Icon><hotSpot x="0.5" y="0" xunits="fraction" yunits="fraction"/></IconStyle><LabelStyle><scale>0.7</scale></LabelStyle></Style>
<StyleMap id="w_vermellH"><Pair><key>normal</key><styleUrl>#w_vermellH_n</styleUrl></Pair><Pair><key>highlight</key><styleUrl>#w_vermellH_s</styleUrl></Pair></StyleMap>
<Style id="w_vermellA_n"><IconStyle><color>ff0000ff</color><scale>1.2</scale><Icon><href>http://maps.google.com/mapfiles/kml/shapes/airports.png</href></Icon><hotSpot x="0.5" y="0" xunits="fraction" yunits="fraction"/></IconStyle><LabelStyle><scale>0.7</scale></LabelStyle></Style>
<Style id="w_vermellA_s"><IconStyle><color>ff0000ff</color><scale>1.4</scale><Icon><href>http://maps.google.com/mapfiles/kml/shapes/airports.png</href></Icon><hotSpot x="0.5" y="0" xunits="fraction" yunits="fraction"/></IconStyle><LabelStyle><scale>0.7</scale></LabelStyle></Style>
<StyleMap id="w_vermellA"><Pair><key>normal</key><styleUrl>#w_vermellA_n</styleUrl></Pair><Pair><key>highlight</key><styleUrl>#w_vermellA_s</styleUrl></Pair></StyleMap>
<Style id="w_vermellB_n"><IconStyle><color>ff0000ff</color><scale>1.0</scale><Icon><href>http://maps.google.com/mapfiles/kml/shapes/sailing.png</href></Icon><hotSpot x="0.5" y="0" xunits="fraction" yunits="fraction"/></IconStyle><LabelStyle><scale>0.7</scale></LabelStyle></Style>
<Style id="w_vermellB_s"><IconStyle><color>ff0000ff</color><scale>1.4</scale><Icon><href>http://maps.google.com/mapfiles/kml/shapes/sailing.png</href></Icon><hotSpot x="0.5" y="0" xunits="fraction" yunits="fraction"/></IconStyle><LabelStyle><scale>0.7</scale></LabelStyle></Style>
<StyleMap id="w_vermellB"><Pair><key>normal</key><styleUrl>#w_vermellBAR_n</styleUrl></Pair><Pair><key>highlight</key><styleUrl>#w_vermellBAR_s</styleUrl></Pair></StyleMap>
<Style id="w_descarrega"><IconStyle><color>ff00ffff</color><scale>0.5</scale><Icon><href>http://maps.google.com/mapfiles/kml/shapes/road_shield3.png</href></Icon></IconStyle><LabelStyle><scale>0.7</scale></LabelStyle></Style><Style id="actuacio"><IconStyle><color>ff00ffff</color><scale>0.8</scale><Icon><href>http://maps.google.com/mapfiles/kml/shapes/caution.png</href></Icon></IconStyle><LabelStyle><scale>0.7</scale></LabelStyle></Style></Document></kml>