<?xml version="1.0" encoding="UTF-8"?>
<kml xmlns="http://www.opengis.net/kml/2.2" xmlns:gx="http://www.google.com/kml/ext/2.2" xmlns:kml="http://www.opengis.net/kml/2.2" xmlns:atom="http://www.w3.org/2005/Atom">
<Document>
<name>Terminals</name>
<Snippet maxLines="2">Created 06/08/2018 03:56:33</Snippet>
<Folder>
<name>Terminals</name>
<Placemark><name>A0103</name><description>200103 PORT Dept.
posicio de les: 06/08/2018 03:56:32</description><styleUrl>#w_verdP</styleUrl><Point><coordinates>0.564250946044922,41.7063653469086,0</coordinates></Point></Placemark>
<Placemark><name>02063</name><description>202063 GEM
posicio de les: 06/08/2018 03:51:41</description><styleUrl>#w_groc</styleUrl><Point><coordinates>2.11233615875244,41.5019810199738,0</coordinates></Point></Placemark>
<Placemark><name>GRAEUT3</name><description>203003 GRAE
posicio de les: 06/08/2018 03:56:26</description><styleUrl>#w_verdP</styleUrl><Point><coordinates>1.85109972953796,41.7415237426758,0</coordinates></Point></Placemark>
<Placemark><name>03272</name><description>203272 GRAE
posicio de les: 06/08/2018 03:56:15</description><styleUrl>#w_verd</styleUrl><Point><coordinates>2.95432448387146,42.0466196537018,0</coordinates></Point></Placemark>
<Placemark><name>GGRAF08</name><description>204208 P.UT
posicio de les: 06/08/2018 03:55:59</description><styleUrl>#w_verdP</styleUrl><Point><coordinates>2.94667482376099,42.0498275756836,0</coordinates></Point></Placemark>
<Placemark><name>GGRAF10</name><description>204210 P.UT
posicio de les: 06/08/2018 03:55:13</description><styleUrl>#w_verdP</styleUrl><Point><coordinates>2.94543027877808,42.0504927635193,0</coordinates></Point></Placemark>
<Placemark><name>04291</name><description>204291 
posicio de les: 06/08/2018 03:56:11</description><styleUrl>#w_verd</styleUrl><Point><coordinates>2.94663190841675,42.0494627952576,0</coordinates></Point></Placemark>
<Placemark><name>LGRAF02</name><description>204302 P.UT
posicio de les: 06/08/2018 03:56:33</description><styleUrl>#w_grocP</styleUrl><Point><coordinates>0.889366865158081,42.1650016307831,0</coordinates></Point></Placemark>
<Placemark><name>BGRAF08</name><description>204408 P.UT
posicio de les: 06/08/2018 03:55:50</description><styleUrl>#w_verdP</styleUrl><Point><coordinates>1.85216188430786,41.7416846752167,0</coordinates></Point></Placemark>
<Placemark><name>VIEL17</name><description>208017 BASE CCA VARAN
posicio de les: 06/08/2018 03:54:55</description><styleUrl>#w_groc</styleUrl><Point><coordinates>0.796573162078857,42.7081382274628,0</coordinates></Point></Placemark>
<Placemark><name>BER57</name><description>210357 PORT.COM BER (Centre)
posicio de les: 06/08/2018 03:54:43</description><styleUrl>#w_verdP</styleUrl><Point><coordinates>1.85765504837036,42.104115486145,0</coordinates></Point></Placemark>
<Placemark><name>CAF02</name><description>210402 PORT CAF (Centre)
posicio de les: 06/08/2018 03:54:50</description><styleUrl>#w_verdP</styleUrl><Point><coordinates>1.52947068214417,41.7312026023865,0</coordinates></Point></Placemark>
<Placemark><name>CAB56</name><description>210656 PORT.COM CAB (Centre)
posicio de les: 06/08/2018 03:54:11</description><styleUrl>#w_grocP</styleUrl><Point><coordinates>1.68517827987671,41.6659820079803,0</coordinates></Point></Placemark>
<Placemark><name>GUA56</name><description>210856 PORT.COM GUA (Centre)
posicio de les: 06/08/2018 03:54:29</description><styleUrl>#w_verdP</styleUrl><Point><coordinates>1.87145233154297,42.2201585769653,0</coordinates></Point></Placemark>
<Placemark><name>PRA07</name><description>211407 PORT PRA (Centre)
posicio de les: 06/08/2018 03:52:42</description><styleUrl>#w_verdP</styleUrl><Point><coordinates>2.03611850738525,42.0080387592316,0</coordinates></Point></Placemark>
<Placemark><name>TOR02</name><description>212002 PORT TOR (Centre)
posicio de les: 06/08/2018 03:55:20</description><styleUrl>#w_verdP</styleUrl><Point><coordinates>2.26775407791138,42.0483362674713,0</coordinates></Point></Placemark>
<Placemark><name>20093</name><description>220093  REGIÓ
posicio de les: 06/08/2018 03:54:37</description><styleUrl>#w_verd</styleUrl><Point><coordinates>2.95929193496704,42.0565438270569,0</coordinates></Point></Placemark>
<Placemark><name>AMER57</name><description>220157 PORT.COM AMER (Girona)
posicio de les: 06/08/2018 03:51:29</description><styleUrl>#w_grocP</styleUrl><Point><coordinates>2.59637832641602,42.0110642910004,0</coordinates></Point></Placemark>
<Placemark><name>20330</name><description>220330 BRP BANY (Girona)
posicio de les: 06/08/2018 03:53:11</description><styleUrl>#w_verdC</styleUrl><Point><coordinates>2.78456211090088,42.116185426712,0</coordinates></Point></Placemark>
<Placemark><name>BANY56</name><description>220356 PORT.COM BANY (Girona)
posicio de les: 06/08/2018 03:55:01</description><styleUrl>#w_grocP</styleUrl><Point><coordinates>2.78582811355591,42.1176338195801,0</coordinates></Point></Placemark>
<Placemark><name>PERA04</name><description>220404 PORT PERA (Girona)
posicio de les: 06/08/2018 03:54:54</description><styleUrl>#w_verdP</styleUrl><Point><coordinates>2.974773645401,42.029914855957,0</coordinates></Point></Placemark>
<Placemark><name>20430</name><description>220430 BRP PERA (Girona)
posicio de les: 06/08/2018 03:56:34</description><styleUrl>#w_grocC</styleUrl><Point><coordinates>2.93257713317871,42.0603203773499,0</coordinates></Point></Placemark>
<Placemark><name>220480</name><description>220480 UPCL/USL PERA (Girona)
posicio de les: 06/08/2018 03:56:32</description><styleUrl>#w_verd</styleUrl><Point><coordinates>2.93387532234192,42.0589256286621,0</coordinates></Point></Placemark>
<Placemark><name>CASS56</name><description>220856 PORT.COM CASS (Girona)
posicio de les: 06/08/2018 03:55:28</description><styleUrl>#w_grocP</styleUrl><Point><coordinates>2.88414716720581,41.8796467781067,0</coordinates></Point></Placemark>
<Placemark><name>HOST05</name><description>221205 PORT HOST (Girona)
posicio de les: 06/08/2018 03:55:41</description><styleUrl>#w_verdP</styleUrl><Point><coordinates>2.62493848800659,41.7485404014587,0</coordinates></Point></Placemark>
<Placemark><name>HOST57</name><description>221257 PORT.COM HOST (Girona)
posicio de les: 06/08/2018 03:55:12</description><styleUrl>#w_verdP</styleUrl><Point><coordinates>2.62435913085938,41.7481863498688,0</coordinates></Point></Placemark>
<Placemark><name>JONQ56</name><description>221356 PORT.COM JONQ (Girona)
posicio de les: 06/08/2018 03:56:34</description><styleUrl>#w_verdP</styleUrl><Point><coordinates>2.87635803222656,42.4120223522186,0</coordinates></Point></Placemark>
<Placemark><name>LLAN57</name><description>221457 PORT.COM LLAN (Girona)
posicio de les: 06/08/2018 03:53:09</description><styleUrl>#w_verdP</styleUrl><Point><coordinates>3.15310835838318,42.3578524589539,0</coordinates></Point></Placemark>
<Placemark><name>LLOR56</name><description>221556 PORT.COM LLOR (Girona)
posicio de les: 06/08/2018 03:53:39</description><styleUrl>#w_verdP</styleUrl><Point><coordinates>2.83606052398682,41.6995739936829,0</coordinates></Point></Placemark>
<Placemark><name>OLOT56</name><description>221756 PORT.COM OLOT (Girona)
posicio de les: 06/08/2018 03:52:52</description><styleUrl>#w_verdP</styleUrl><Point><coordinates>2.47504591941834,42.1896028518677,0</coordinates></Point></Placemark>
<Placemark><name>PALA56</name><description>221856 PORT.COM PALA (Girona)
posicio de les: 06/08/2018 03:53:58</description><styleUrl>#w_verdP</styleUrl><Point><coordinates>3.15621972084045,41.9257271289825,0</coordinates></Point></Placemark>
<Placemark><name>PALA57</name><description>221857 PORT.COM PALA (Girona)
posicio de les: 06/08/2018 03:56:26</description><styleUrl>#w_verdP</styleUrl><Point><coordinates>3.15593004226685,41.9265425205231,0</coordinates></Point></Placemark>
<Placemark><name>RIPO56</name><description>222156 PORT.COM RIPO (Girona)
posicio de les: 06/08/2018 03:53:08</description><styleUrl>#w_verdP</styleUrl><Point><coordinates>2.16810464859009,42.2150194644928,0</coordinates></Point></Placemark>
<Placemark><name>RIPO57</name><description>222157 PORT.COM RIPO (Girona)
posicio de les: 06/08/2018 03:54:33</description><styleUrl>#w_verdP</styleUrl><Point><coordinates>2.16840505599976,42.2148263454437,0</coordinates></Point></Placemark>
<Placemark><name>ROSE01</name><description>222201 PORT ROSE (Girona)
posicio de les: 06/08/2018 03:55:25</description><styleUrl>#w_verdP</styleUrl><Point><coordinates>3.16086530685425,42.2763776779175,0</coordinates></Point></Placemark>
<Placemark><name>ROSE56</name><description>222256 PORT.COM ROSE (Girona)
posicio de les: 06/08/2018 03:55:40</description><styleUrl>#w_verdP</styleUrl><Point><coordinates>3.16089749336243,42.2764849662781,0</coordinates></Point></Placemark>
<Placemark><name>TORR56</name><description>222656 PORT.COM TORR (Girona)
posicio de les: 06/08/2018 03:55:01</description><styleUrl>#w_verdP</styleUrl><Point><coordinates>3.16749572753906,42.0478641986847,0</coordinates></Point></Placemark>
<Placemark><name>VALL56</name><description>222856 PORT.COM VALL (Girona)
posicio de les: 06/08/2018 03:55:07</description><styleUrl>#w_grocP</styleUrl><Point><coordinates>3.03195834159851,41.8088150024414,0</coordinates></Point></Placemark>
<Placemark><name>D7REG</name><description>228047  SERVEIS REGIÓ
posicio de les: 06/08/2018 03:56:06</description><styleUrl>#w_groc</styleUrl><Point><coordinates>2.80679225921631,41.9602847099304,0</coordinates></Point></Placemark>
<Placemark><name>30092</name><description>230092  REGIÓ
posicio de les: 06/08/2018 03:53:36</description><styleUrl>#w_verd</styleUrl><Point><coordinates>0.605782270431519,41.6227984428406,0</coordinates></Point></Placemark>
<Placemark><name>LLEI02</name><description>231902 PORT LLEI (Lleida)
posicio de les: 06/08/2018 03:55:33</description><styleUrl>#w_verdP</styleUrl><Point><coordinates>0.604934692382813,41.6236460208893,0</coordinates></Point></Placemark>
<Placemark><name>LLEI05</name><description>231905 PORT LLEI (Lleida)
posicio de les: 06/08/2018 03:54:26</description><styleUrl>#w_verdP</styleUrl><Point><coordinates>0.605192184448242,41.6242790222168,0</coordinates></Point></Placemark>
<Placemark><name>OLIA01</name><description>232201 PORT OLIA (Lleida)
posicio de les: 06/08/2018 03:55:35</description><styleUrl>#w_verdP</styleUrl><Point><coordinates>1.30842447280884,42.0744717121124,0</coordinates></Point></Placemark>
<Placemark><name>OLIA56</name><description>232256 PORT.COM OLIA (Lleida)
posicio de les: 06/08/2018 03:51:43</description><styleUrl>#w_verdP</styleUrl><Point><coordinates>1.30808115005493,42.0747935771942,0</coordinates></Point></Placemark>
<Placemark><name>POBL01</name><description>232401 PORT POBL (Lleida)
posicio de les: 06/08/2018 03:55:31</description><styleUrl>#w_verdP</styleUrl><Point><coordinates>0.964457988739014,42.2389984130859,0</coordinates></Point></Placemark>
<Placemark><name>PONT05</name><description>232505 PORT PONT (Lleida)
posicio de les: 06/08/2018 03:54:42</description><styleUrl>#w_grocP</styleUrl><Point><coordinates>0.739656686782837,42.4102520942688,0</coordinates></Point></Placemark>
<Placemark><name>TAR07</name><description>233107 PORT TAR (Lleida)
posicio de les: 06/08/2018 03:55:16</description><styleUrl>#w_verdP</styleUrl><Point><coordinates>1.14960551261902,41.6511225700378,0</coordinates></Point></Placemark>
<Placemark><name>TREM05</name><description>233305 PORT TREM (Lleida)
posicio de les: 06/08/2018 03:55:30</description><styleUrl>#w_verdP</styleUrl><Point><coordinates>0.888808965682983,42.1644651889801,0</coordinates></Point></Placemark>
<Placemark><name>TREM07</name><description>233307 PORT TREM (Lleida)
posicio de les: 06/08/2018 03:55:49</description><styleUrl>#w_verdP</styleUrl><Point><coordinates>0.889302492141724,42.1642827987671,0</coordinates></Point></Placemark>
<Placemark><name>TREM56</name><description>233356 PORT.COM TREM (Lleida)
posicio de les: 06/08/2018 03:56:19</description><styleUrl>#w_verdP</styleUrl><Point><coordinates>0.889023542404175,42.1647226810455,0</coordinates></Point></Placemark>
<Placemark><name>FTAR1</name><description>234513 PORT Parc X
posicio de les: 06/08/2018 03:55:26</description><styleUrl>#w_verdP</styleUrl><Point><coordinates>1.1490261554718,41.6507041454315,0</coordinates></Point></Placemark>
<Placemark><name>I407</name><description>237407 P.GUAITA GUAITA
posicio de les: 06/08/2018 03:55:21</description><styleUrl>#w_verdP</styleUrl><Point><coordinates>0.965455770492554,42.2531390190125,0</coordinates></Point></Placemark>
<Placemark><name>REMN11</name><description>240011 P.Tec REGIÓ
posicio de les: 06/08/2018 03:55:13</description><styleUrl>#w_verdP</styleUrl><Point><coordinates>2.11196064949036,41.5020346641541,0</coordinates></Point></Placemark>
<Placemark><name>REMN14</name><description>240014 P.Tec REGIÓ
posicio de les: 06/08/2018 03:54:23</description><styleUrl>#w_verdP</styleUrl><Point><coordinates>2.02576518058777,41.5677487850189,0</coordinates></Point></Placemark>
<Placemark><name>40091</name><description>240091  REGIÓ
posicio de les: 06/08/2018 03:55:52</description><styleUrl>#w_groc</styleUrl><Point><coordinates>2.11228251457214,41.5026140213013,0</coordinates></Point></Placemark>
<Placemark><name>BAD02</name><description>240202 PORT BAD (Metro. Nord)
posicio de les: 06/08/2018 03:50:49</description><styleUrl>#w_verdP</styleUrl><Point><coordinates>2.23809957504272,41.4649879932404,0</coordinates></Point></Placemark>
<Placemark><name>40290</name><description>240290 UPC BAD (Metro. Nord)
posicio de les: 06/08/2018 03:55:13</description><styleUrl>#w_groc</styleUrl><Point><coordinates>2.02472448348999,41.5688216686249,0</coordinates></Point></Placemark>
<Placemark><name>CER03</name><description>240503 PORT CER (Metro. Nord)
posicio de les: 06/08/2018 03:55:28</description><styleUrl>#w_verdP</styleUrl><Point><coordinates>2.11179971694946,41.5017986297607,0</coordinates></Point></Placemark>
<Placemark><name>GRA13</name><description>240613 PORT GRA (Metro. Nord)
posicio de les: 06/08/2018 03:56:08</description><styleUrl>#w_verdP</styleUrl><Point><coordinates>2.27469563484192,41.5905475616455,0</coordinates></Point></Placemark>
<Placemark><name>MAT01</name><description>240901 PORT MAT (Metro. Nord)
posicio de les: 06/08/2018 03:52:42</description><styleUrl>#w_verdP</styleUrl><Point><coordinates>2.42281794548035,41.5320754051209,0</coordinates></Point></Placemark>
<Placemark><name>MOL03</name><description>241003 PORT MOL (Metro. Nord)
posicio de les: 06/08/2018 03:54:30</description><styleUrl>#w_verdP</styleUrl><Point><coordinates>2.20171809196472,41.5380728244781,0</coordinates></Point></Placemark>
<Placemark><name>CMSAB20</name><description>241420 PORT SAB (Metro. Nord)
posicio de les: 06/08/2018 03:55:17</description><styleUrl>#w_verdP</styleUrl><Point><coordinates>2.10412859916687,41.5422141551971,0</coordinates></Point></Placemark>
<Placemark><name>241440</name><description>241440 BUP SAB (Metro. Nord)
posicio de les: 06/08/2018 03:53:05</description><styleUrl>#w_grocC</styleUrl><Point><coordinates>2.10386037826538,41.5423965454102,0</coordinates></Point></Placemark>
<Placemark><name>SCG09</name><description>241809 PORT SCG (Metro. Nord)
posicio de les: 06/08/2018 03:56:09</description><styleUrl>#w_verdP</styleUrl><Point><coordinates>2.20924973487854,41.4634323120117,0</coordinates></Point></Placemark>
<Placemark><name>241858</name><description>241858 BSAL SCG (Metro. Nord)
posicio de les: 06/08/2018 03:55:23</description><styleUrl>#w_grocB</styleUrl><Point><coordinates>2.20938920974731,41.4631426334381,0</coordinates></Point></Placemark>
<Placemark><name>TER01</name><description>242001 PORT TER (Metro. Nord)
posicio de les: 06/08/2018 03:56:13</description><styleUrl>#w_verdP</styleUrl><Point><coordinates>2.02576518058777,41.5689289569855,0</coordinates></Point></Placemark>
<Placemark><name>TER07</name><description>242007 PORT TER (Metro. Nord)
posicio de les: 06/08/2018 03:53:49</description><styleUrl>#w_verdP</styleUrl><Point><coordinates>2.10140347480774,41.5269148349762,0</coordinates></Point></Placemark>
<Placemark><name>TOD56</name><description>242156 PORT.COM TOD (Metro. Nord)
posicio de les: 06/08/2018 03:54:22</description><styleUrl>#w_verdP</styleUrl><Point><coordinates>2.71671295166016,41.6913664340973,0</coordinates></Point></Placemark>
<Placemark><name>D9REMN</name><description>248049  SERVEIS REGIÓ
posicio de les: 06/08/2018 03:55:34</description><styleUrl>#w_verd</styleUrl><Point><coordinates>2.11145639419556,41.5028607845306,0</coordinates></Point></Placemark>
<Placemark><name>COR05</name><description>250405 PORT COR (Metro. Sud)
posicio de les: 06/08/2018 03:54:47</description><styleUrl>#w_grocP</styleUrl><Point><coordinates>2.06771492958069,41.372537612915,0</coordinates></Point></Placemark>
<Placemark><name>COR07</name><description>250407 PORT COR (Metro. Sud)
posicio de les: 06/08/2018 03:56:00</description><styleUrl>#w_verdP</styleUrl><Point><coordinates>2.06722140312195,41.3722264766693,0</coordinates></Point></Placemark>
<Placemark><name>COR10</name><description>250410 PORT COR (Metro. Sud)
posicio de les: 06/08/2018 03:56:17</description><styleUrl>#w_verdP</styleUrl><Point><coordinates>2.07056879997253,41.360821723938,0</coordinates></Point></Placemark>
<Placemark><name>50430</name><description>250430 BRP COR (Metro. Sud)
posicio de les: 06/08/2018 03:54:54</description><styleUrl>#w_grocC</styleUrl><Point><coordinates>2.06735014915466,41.3724839687347,0</coordinates></Point></Placemark>
<Placemark><name>50531</name><description>250531 BRP GAV (Metro. Sud)
posicio de les: 06/08/2018 03:56:26</description><styleUrl>#w_verdC</styleUrl><Point><coordinates>2.05198645591736,41.3462519645691,0</coordinates></Point></Placemark>
<Placemark><name>GAV56</name><description>250556 PORT.COM GAV (Metro. Sud)
posicio de les: 06/08/2018 03:51:43</description><styleUrl>#w_verdP</styleUrl><Point><coordinates>1.99042439460754,41.3000750541687,0</coordinates></Point></Placemark>
<Placemark><name>HOS02</name><description>250702 PORT HOS (Metro. Sud)
posicio de les: 06/08/2018 03:56:05</description><styleUrl>#w_grocP</styleUrl><Point><coordinates>2.10600614547729,41.370735168457,0</coordinates></Point></Placemark>
<Placemark><name>LLA03</name><description>250903 PORT LLA (Metro. Sud)
posicio de les: 06/08/2018 03:55:22</description><styleUrl>#w_grocP</styleUrl><Point><coordinates>1.53054356575012,41.4731097221375,0</coordinates></Point></Placemark>
<Placemark><name>MAR57</name><description>251057 PORT.COM MAR (Metro. Sud)
posicio de les: 06/08/2018 03:55:18</description><styleUrl>#w_verdP</styleUrl><Point><coordinates>1.90832734107971,41.4986765384674,0</coordinates></Point></Placemark>
<Placemark><name>SFE04</name><description>251504 PORT SFE (Metro. Sud)
posicio de les: 06/08/2018 03:55:47</description><styleUrl>#w_grocP</styleUrl><Point><coordinates>1.99611067771912,41.3876008987427,0</coordinates></Point></Placemark>
<Placemark><name>51530</name><description>251530 BRP SFE (Metro. Sud)
posicio de les: 06/08/2018 03:52:01</description><styleUrl>#w_grocC</styleUrl><Point><coordinates>1.99594974517822,41.3873541355133,0</coordinates></Point></Placemark>
<Placemark><name>SFE57</name><description>251557 PORT.COM SFE (Metro. Sud)
posicio de les: 06/08/2018 03:55:27</description><styleUrl>#w_verdP</styleUrl><Point><coordinates>2.04313516616821,41.3886415958405,0</coordinates></Point></Placemark>
<Placemark><name>CMS15</name><description>254515 PORT Parc X
posicio de les: 06/08/2018 03:55:59</description><styleUrl>#w_grocP</styleUrl><Point><coordinates>1.70363187789917,41.3548457622528,0</coordinates></Point></Placemark>
<Placemark><name>I215</name><description>257215 P.GUAITA GUAITA
posicio de les: 06/08/2018 03:54:57</description><styleUrl>#w_grocP</styleUrl><Point><coordinates>1.66410684585571,41.4990413188934,0</coordinates></Point></Placemark>
<Placemark><name>D1REMS</name><description>258041  SERVEIS REGIÓ
posicio de les: 06/08/2018 03:52:12</description><styleUrl>#w_verd</styleUrl><Point><coordinates>2.03384399414063,41.3224232196808,0</coordinates></Point></Placemark>
<Placemark><name>260508</name><description>260508 PORT HOSP (Tarragona)
posicio de les: 06/08/2018 03:55:01</description><styleUrl>#w_verdP</styleUrl><Point><coordinates>0.920008420944214,40.9936916828156,0</coordinates></Point></Placemark>
<Placemark><name>61234</name><description>261234 BFP TARR (Tarragona)
posicio de les: 06/08/2018 03:52:15</description><styleUrl>#w_grocC</styleUrl><Point><coordinates>1.22127413749695,41.1139297485352,0</coordinates></Point></Placemark>
<Placemark><name>VALS56</name><description>261356 PORT.COM VALS (Tarragona)
posicio de les: 06/08/2018 03:54:56</description><styleUrl>#w_verdP</styleUrl><Point><coordinates>1.26077771186829,41.3072955608368,0</coordinates></Point></Placemark>
<Placemark><name>61390</name><description>261390 UPC VALS (Tarragona)
posicio de les: 06/08/2018 03:55:02</description><styleUrl>#w_groc</styleUrl><Point><coordinates>1.25921130180359,41.3072848320007,0</coordinates></Point></Placemark>
<Placemark><name>VEND09</name><description>261409 PORT VEND (Tarragona)
posicio de les: 06/08/2018 03:55:42</description><styleUrl>#w_verdP</styleUrl><Point><coordinates>1.54130458831787,41.2221086025238,0</coordinates></Point></Placemark>
<Placemark><name>VEND10</name><description>261410 PORT VEND (Tarragona)
posicio de les: 06/08/2018 03:56:33</description><styleUrl>#w_verdP</styleUrl><Point><coordinates>1.54067158699036,41.2223553657532,0</coordinates></Point></Placemark>
<Placemark><name>E00RETE</name><description>270014 P.Tec REGIÓ
posicio de les: 06/08/2018 03:56:15</description><styleUrl>#w_verdP</styleUrl><Point><coordinates>0.513074398040771,40.8192837238312,0</coordinates></Point></Placemark>
<Placemark><name>272130</name><description>272130 BRP AMPO (Terres de l'Ebre)
posicio de les: 06/08/2018 03:51:54</description><styleUrl>#w_grocC</styleUrl><Point><coordinates>0.579732656478882,40.6892824172974,0</coordinates></Point></Placemark>
<Placemark><name>GAND56</name><description>272656 PORT.COM GAND (Terres de l'Ebre)
posicio de les: 06/08/2018 03:55:53</description><styleUrl>#w_verdP</styleUrl><Point><coordinates>0.440397262573242,41.0562515258789,0</coordinates></Point></Placemark>
<Placemark><name>MORA56</name><description>272856 PORT.COM MORA (Terres de l'Ebre)
posicio de les: 06/08/2018 03:55:07</description><styleUrl>#w_grocP</styleUrl><Point><coordinates>0.62971830368042,41.0864317417145,0</coordinates></Point></Placemark>
<Placemark><name>E_93</name><description>278031  SERVEIS REGIÓ
posicio de les: 06/08/2018 03:56:28</description><styleUrl>#w_verd</styleUrl><Point><coordinates>0.513310432434082,40.8192729949951,0</coordinates></Point></Placemark>
</Folder>
<Folder>
<name>Descarregues</name>
</Folder>
<Style id="w_verdP_n"><IconStyle><color>ff00ff00</color><scale>1.0</scale><Icon><href>http://maps.google.com/mapfiles/kml/shapes/man.png</href></Icon><hotSpot x="0.5" y="0" xunits="fraction" yunits="fraction"/></IconStyle><LabelStyle><scale>0.7</scale></LabelStyle></Style>
<Style id="w_verdP_s"><IconStyle><color>ff00ff00</color><scale>1.4</scale><Icon><href>http://maps.google.com/mapfiles/kml/shapes/man.png</href></Icon><hotSpot x="0.5" y="0" xunits="fraction" yunits="fraction"/></IconStyle><LabelStyle><scale>0.7</scale></LabelStyle></Style>
<StyleMap id="w_verdP"><Pair><key>normal</key><styleUrl>#w_verdP_n</styleUrl></Pair><Pair><key>highlight</key><styleUrl>#w_verdP_s</styleUrl></Pair></StyleMap>
<Style id="w_verd_n"><IconStyle><color>ff00ff00</color><scale>0.7</scale><Icon><href>http://maps.google.com/mapfiles/kml/shapes/cabs.png</href></Icon><hotSpot x="0.5" y="0" xunits="fraction" yunits="fraction"/></IconStyle><LabelStyle><scale>0.7</scale></LabelStyle></Style>
<Style id="w_verd_s"><IconStyle><color>ff00ff00</color><scale>1.0</scale><Icon><href>http://maps.google.com/mapfiles/kml/shapes/cabs.png</href></Icon><hotSpot x="0.5" y="0" xunits="fraction" yunits="fraction"/></IconStyle><LabelStyle><scale>0.7</scale></LabelStyle></Style>
<StyleMap id="w_verd"><Pair><key>normal</key><styleUrl>#w_verd_n</styleUrl></Pair><Pair><key>highlight</key><styleUrl>#w_verd_s</styleUrl></Pair></StyleMap>
<Style id="w_verdC_n"><IconStyle><color>ff00ff00</color><scale>1.0</scale><Icon><href>http://maps.google.com/mapfiles/kml/shapes/truck.png</href></Icon><hotSpot x="0.5" y="0" xunits="fraction" yunits="fraction"/></IconStyle><LabelStyle><scale>0.7</scale></LabelStyle></Style>
<Style id="w_verdC_s"><IconStyle><color>ff00ff00</color><scale>1.4</scale><Icon><href>http://maps.google.com/mapfiles/kml/shapes/truck.png</href></Icon><hotSpot x="0.5" y="0" xunits="fraction" yunits="fraction"/></IconStyle><LabelStyle><scale>0.7</scale></LabelStyle></Style>
<StyleMap id="w_verdC"><Pair><key>normal</key><styleUrl>#w_verdC_n</styleUrl></Pair><Pair><key>highlight</key><styleUrl>#w_verdC_s</styleUrl></Pair></StyleMap>
<Style id="w_verdH_n"><IconStyle><color>ff0000ff</color><scale>1.2</scale><Icon><href>http://maps.google.com/mapfiles/kml/shapes/heliport.png</href></Icon><hotSpot x="0.5" y="0" xunits="fraction" yunits="fraction"/></IconStyle><LabelStyle><scale>0.7</scale></LabelStyle></Style>
<Style id="w_verdH_s"><IconStyle><color>ff0000ff</color><scale>1.4</scale><Icon><href>http://maps.google.com/mapfiles/kml/shapes/heliport.png</href></Icon><hotSpot x="0.5" y="0" xunits="fraction" yunits="fraction"/></IconStyle><LabelStyle><scale>0.7</scale></LabelStyle></Style>
<StyleMap id="w_verdH"><Pair><key>normal</key><styleUrl>#w_verdH_n</styleUrl></Pair><Pair><key>highlight</key><styleUrl>#w_verdH_s</styleUrl></Pair></StyleMap>
<Style id="w_verdA_n"><IconStyle><color>ff0000ff</color><scale>1.2</scale><Icon><href>http://maps.google.com/mapfiles/kml/shapes/airports.png</href></Icon><hotSpot x="0.5" y="0" xunits="fraction" yunits="fraction"/></IconStyle><LabelStyle><scale>0.7</scale></LabelStyle></Style>
<Style id="w_verdA_s"><IconStyle><color>ff0000ff</color><scale>1.4</scale><Icon><href>http://maps.google.com/mapfiles/kml/shapes/airports.png</href></Icon><hotSpot x="0.5" y="0" xunits="fraction" yunits="fraction"/></IconStyle><LabelStyle><scale>0.7</scale></LabelStyle></Style>
<StyleMap id="w_verdA"><Pair><key>normal</key><styleUrl>#w_verdA_n</styleUrl></Pair><Pair><key>highlight</key><styleUrl>#w_verdA_s</styleUrl></Pair></StyleMap>
<Style id="w_verdB_n"><IconStyle><color>ff00ff00</color><scale>1.0</scale><Icon><href>http://maps.google.com/mapfiles/kml/shapes/sailing.png</href></Icon><hotSpot x="0.5" y="0" xunits="fraction" yunits="fraction"/></IconStyle><LabelStyle><scale>0.7</scale></LabelStyle></Style>
<Style id="w_verdB_s"><IconStyle><color>ff00ff00</color><scale>1.4</scale><Icon><href>http://maps.google.com/mapfiles/kml/shapes/sailing.png</href></Icon><hotSpot x="0.5" y="0" xunits="fraction" yunits="fraction"/></IconStyle><LabelStyle><scale>0.7</scale></LabelStyle></Style>
<StyleMap id="w_verdB"><Pair><key>normal</key><styleUrl>#w_verdBAR_n</styleUrl></Pair><Pair><key>highlight</key><styleUrl>#w_verdBAR_s</styleUrl></Pair></StyleMap>
<Style id="w_grocP_n"><IconStyle><color>ff00ffff</color><scale>1.0</scale><Icon><href>http://maps.google.com/mapfiles/kml/shapes/man.png</href></Icon><hotSpot x="0.5" y="0" xunits="fraction" yunits="fraction"/></IconStyle><LabelStyle><scale>0.7</scale></LabelStyle></Style>
<Style id="w_grocP_s"><IconStyle><color>ff00ffff</color><scale>1.4</scale><Icon><href>http://maps.google.com/mapfiles/kml/shapes/man.png</href></Icon><hotSpot x="0.5" y="0" xunits="fraction" yunits="fraction"/></IconStyle><LabelStyle><scale>0.7</scale></LabelStyle></Style>
<StyleMap id="w_grocP"><Pair><key>normal</key><styleUrl>#w_grocP_n</styleUrl></Pair><Pair><key>highlight</key><styleUrl>#w_grocP_s</styleUrl></Pair></StyleMap>
<Style id="w_groc_n"><IconStyle><color>ff00ffff</color><scale>0.7</scale><Icon><href>http://maps.google.com/mapfiles/kml/shapes/cabs.png</href></Icon><hotSpot x="0.5" y="0" xunits="fraction" yunits="fraction"/></IconStyle><LabelStyle><scale>0.7</scale></LabelStyle></Style>
<Style id="w_groc_s"><IconStyle><color>ff00ffff</color><scale>1.0</scale><Icon><href>http://maps.google.com/mapfiles/kml/shapes/cabs.png</href></Icon><hotSpot x="0.5" y="0" xunits="fraction" yunits="fraction"/></IconStyle><LabelStyle><scale>0.7</scale></LabelStyle></Style>
<StyleMap id="w_groc"><Pair><key>normal</key><styleUrl>#w_groc_n</styleUrl></Pair><Pair><key>highlight</key><styleUrl>#w_groc_s</styleUrl></Pair></StyleMap>
<Style id="w_grocC_n"><IconStyle><color>ff00ffff</color><scale>1.0</scale><Icon><href>http://maps.google.com/mapfiles/kml/shapes/truck.png</href></Icon><hotSpot x="0.5" y="0" xunits="fraction" yunits="fraction"/></IconStyle><LabelStyle><scale>0.7</scale></LabelStyle></Style>
<Style id="w_grocC_s"><IconStyle><color>ff00ffff</color><scale>1.4</scale><Icon><href>http://maps.google.com/mapfiles/kml/shapes/truck.png</href></Icon><hotSpot x="0.5" y="0" xunits="fraction" yunits="fraction"/></IconStyle><LabelStyle><scale>0.7</scale></LabelStyle></Style>
<StyleMap id="w_grocC"><Pair><key>normal</key><styleUrl>#w_grocC_n</styleUrl></Pair><Pair><key>highlight</key><styleUrl>#w_grocC_s</styleUrl></Pair></StyleMap>
<Style id="w_grocH_n"><IconStyle><color>ff0000ff</color><scale>1.2</scale><Icon><href>http://maps.google.com/mapfiles/kml/shapes/heliport.png</href></Icon><hotSpot x="0.5" y="0" xunits="fraction" yunits="fraction"/></IconStyle><LabelStyle><scale>0.7</scale></LabelStyle></Style>
<Style id="w_grocH_s"><IconStyle><color>ff0000ff</color><scale>1.4</scale><Icon><href>http://maps.google.com/mapfiles/kml/shapes/heliport.png</href></Icon><hotSpot x="0.5" y="0" xunits="fraction" yunits="fraction"/></IconStyle><LabelStyle><scale>0.7</scale></LabelStyle></Style>
<StyleMap id="w_grocH"><Pair><key>normal</key><styleUrl>#w_grocH_n</styleUrl></Pair><Pair><key>highlight</key><styleUrl>#w_grocH_s</styleUrl></Pair></StyleMap>
<Style id="w_grocA_n"><IconStyle><color>ff0000ff</color><scale>1.2</scale><Icon><href>http://maps.google.com/mapfiles/kml/shapes/airports.png</href></Icon><hotSpot x="0.5" y="0" xunits="fraction" yunits="fraction"/></IconStyle><LabelStyle><scale>0.7</scale></LabelStyle></Style>
<Style id="w_grocA_s"><IconStyle><color>ff0000ff</color><scale>1.4</scale><Icon><href>http://maps.google.com/mapfiles/kml/shapes/airports.png</href></Icon><hotSpot x="0.5" y="0" xunits="fraction" yunits="fraction"/></IconStyle><LabelStyle><scale>0.7</scale></LabelStyle></Style>
<StyleMap id="w_grocA"><Pair><key>normal</key><styleUrl>#w_grocA_n</styleUrl></Pair><Pair><key>highlight</key><styleUrl>#w_grocA_s</styleUrl></Pair></StyleMap>
<Style id="w_grocB_n"><IconStyle><color>ff00ffff</color><scale>1.0</scale><Icon><href>http://maps.google.com/mapfiles/kml/shapes/sailing.png</href></Icon><hotSpot x="0.5" y="0" xunits="fraction" yunits="fraction"/></IconStyle><LabelStyle><scale>0.7</scale></LabelStyle></Style>
<Style id="w_grocB_s"><IconStyle><color>ff00ffff</color><scale>1.4</scale><Icon><href>http://maps.google.com/mapfiles/kml/shapes/sailing.png</href></Icon><hotSpot x="0.5" y="0" xunits="fraction" yunits="fraction"/></IconStyle><LabelStyle><scale>0.7</scale></LabelStyle></Style>
<StyleMap id="w_grocB"><Pair><key>normal</key><styleUrl>#w_grocBAR_n</styleUrl></Pair><Pair><key>highlight</key><styleUrl>#w_grocBAR_s</styleUrl></Pair></StyleMap>
<Style id="w_vermellP_n"><IconStyle><color>ff0000ff</color><scale>1.0</scale><Icon><href>http://maps.google.com/mapfiles/kml/shapes/man.png</href></Icon><hotSpot x="0.5" y="0" xunits="fraction" yunits="fraction"/></IconStyle><LabelStyle><scale>0.7</scale></LabelStyle></Style>
<Style id="w_vermellP_s"><IconStyle><color>ff0000ff</color><scale>1.4</scale><Icon><href>http://maps.google.com/mapfiles/kml/shapes/man.png</href></Icon><hotSpot x="0.5" y="0" xunits="fraction" yunits="fraction"/></IconStyle><LabelStyle><scale>0.7</scale></LabelStyle></Style>
<StyleMap id="w_vermellP"><Pair><key>normal</key><styleUrl>#w_vermellP_n</styleUrl></Pair><Pair><key>highlight</key><styleUrl>#w_vermellP_s</styleUrl></Pair></StyleMap>
<Style id="w_vermell_n"><IconStyle><color>ff0000ff</color><scale>0.7</scale><Icon><href>http://maps.google.com/mapfiles/kml/shapes/cabs.png</href></Icon><hotSpot x="0.5" y="0" xunits="fraction" yunits="fraction"/></IconStyle><LabelStyle><scale>0.7</scale></LabelStyle></Style>
<Style id="w_vermell_s"><IconStyle><color>ff0000ff</color><scale>1.0</scale><Icon><href>http://maps.google.com/mapfiles/kml/shapes/cabs.png</href></Icon><hotSpot x="0.5" y="0" xunits="fraction" yunits="fraction"/></IconStyle><LabelStyle><scale>0.7</scale></LabelStyle></Style>
<StyleMap id="w_vermell"><Pair><key>normal</key><styleUrl>#w_vermell_n</styleUrl></Pair><Pair><key>highlight</key><styleUrl>#w_vermell_s</styleUrl></Pair></StyleMap>
<Style id="w_vermellC_n"><IconStyle><color>ff0000ff</color><scale>1.0</scale><Icon><href>http://maps.google.com/mapfiles/kml/shapes/truck.png</href></Icon><hotSpot x="0.5" y="0" xunits="fraction" yunits="fraction"/></IconStyle><LabelStyle><scale>0.7</scale></LabelStyle></Style>
<Style id="w_vermellC_s"><IconStyle><color>ff0000ff</color><scale>1.4</scale><Icon><href>http://maps.google.com/mapfiles/kml/shapes/truck.png</href></Icon><hotSpot x="0.5" y="0" xunits="fraction" yunits="fraction"/></IconStyle><LabelStyle><scale>0.7</scale></LabelStyle></Style>
<StyleMap id="w_vermellC"><Pair><key>normal</key><styleUrl>#w_vermellC_n</styleUrl></Pair><Pair><key>highlight</key><styleUrl>#w_vermellC_s</styleUrl></Pair></StyleMap>
<Style id="w_vermellH_n"><IconStyle><color>ff0000ff</color><scale>1.2</scale><Icon><href>http://maps.google.com/mapfiles/kml/shapes/heliport.png</href></Icon><hotSpot x="0.5" y="0" xunits="fraction" yunits="fraction"/></IconStyle><LabelStyle><scale>0.7</scale></LabelStyle></Style>
<Style id="w_vermellH_s"><IconStyle><color>ff0000ff</color><scale>1.4</scale><Icon><href>http://maps.google.com/mapfiles/kml/shapes/heliport.png</href></Icon><hotSpot x="0.5" y="0" xunits="fraction" yunits="fraction"/></IconStyle><LabelStyle><scale>0.7</scale></LabelStyle></Style>
<StyleMap id="w_vermellH"><Pair><key>normal</key><styleUrl>#w_vermellH_n</styleUrl></Pair><Pair><key>highlight</key><styleUrl>#w_vermellH_s</styleUrl></Pair></StyleMap>
<Style id="w_vermellA_n"><IconStyle><color>ff0000ff</color><scale>1.2</scale><Icon><href>http://maps.google.com/mapfiles/kml/shapes/airports.png</href></Icon><hotSpot x="0.5" y="0" xunits="fraction" yunits="fraction"/></IconStyle><LabelStyle><scale>0.7</scale></LabelStyle></Style>
<Style id="w_vermellA_s"><IconStyle><color>ff0000ff</color><scale>1.4</scale><Icon><href>http://maps.google.com/mapfiles/kml/shapes/airports.png</href></Icon><hotSpot x="0.5" y="0" xunits="fraction" yunits="fraction"/></IconStyle><LabelStyle><scale>0.7</scale></LabelStyle></Style>
<StyleMap id="w_vermellA"><Pair><key>normal</key><styleUrl>#w_vermellA_n</styleUrl></Pair><Pair><key>highlight</key><styleUrl>#w_vermellA_s</styleUrl></Pair></StyleMap>
<Style id="w_vermellB_n"><IconStyle><color>ff0000ff</color><scale>1.0</scale><Icon><href>http://maps.google.com/mapfiles/kml/shapes/sailing.png</href></Icon><hotSpot x="0.5" y="0" xunits="fraction" yunits="fraction"/></IconStyle><LabelStyle><scale>0.7</scale></LabelStyle></Style>
<Style id="w_vermellB_s"><IconStyle><color>ff0000ff</color><scale>1.4</scale><Icon><href>http://maps.google.com/mapfiles/kml/shapes/sailing.png</href></Icon><hotSpot x="0.5" y="0" xunits="fraction" yunits="fraction"/></IconStyle><LabelStyle><scale>0.7</scale></LabelStyle></Style>
<StyleMap id="w_vermellB"><Pair><key>normal</key><styleUrl>#w_vermellBAR_n</styleUrl></Pair><Pair><key>highlight</key><styleUrl>#w_vermellBAR_s</styleUrl></Pair></StyleMap>
<Style id="w_descarrega"><IconStyle><color>ff00ffff</color><scale>0.5</scale><Icon><href>http://maps.google.com/mapfiles/kml/shapes/road_shield3.png</href></Icon></IconStyle><LabelStyle><scale>0.7</scale></LabelStyle></Style><Style id="actuacio"><IconStyle><color>ff00ffff</color><scale>0.8</scale><Icon><href>http://maps.google.com/mapfiles/kml/shapes/caution.png</href></Icon></IconStyle><LabelStyle><scale>0.7</scale></LabelStyle></Style></Document></kml>