<?xml version="1.0" encoding="UTF-8"?>
<kml xmlns="http://www.opengis.net/kml/2.2" xmlns:gx="http://www.google.com/kml/ext/2.2" xmlns:kml="http://www.opengis.net/kml/2.2" xmlns:atom="http://www.w3.org/2005/Atom">
<Document>
<name>Terminals</name>
<Snippet maxLines="2">Created 06/08/2018 03:13:31</Snippet>
<Folder>
<name>Terminals</name>
<Placemark><name>A0103</name><description>200103 PORT Dept.
posicio de les: 06/08/2018 03:13:22</description><styleUrl>#w_verdP</styleUrl><Point><coordinates>0.571095943450928,41.8070018291473,0</coordinates></Point></Placemark>
<Placemark><name>02063</name><description>202063 GEM
posicio de les: 06/08/2018 03:11:41</description><styleUrl>#w_groc</styleUrl><Point><coordinates>2.11203575134277,41.5025281906128,0</coordinates></Point></Placemark>
<Placemark><name>GRAEUT3</name><description>203003 GRAE
posicio de les: 06/08/2018 03:12:32</description><styleUrl>#w_verdP</styleUrl><Point><coordinates>1.85129284858704,41.7416846752167,0</coordinates></Point></Placemark>
<Placemark><name>GGRAEO06</name><description>203206 GRAE
posicio de les: 06/08/2018 03:11:38</description><styleUrl>#w_verdP</styleUrl><Point><coordinates>2.93730854988098,42.0583248138428,0</coordinates></Point></Placemark>
<Placemark><name>03272</name><description>203272 GRAE
posicio de les: 06/08/2018 03:12:44</description><styleUrl>#w_groc</styleUrl><Point><coordinates>2.93263077735901,42.0602130889893,0</coordinates></Point></Placemark>
<Placemark><name>GGRAF08</name><description>204208 P.UT
posicio de les: 06/08/2018 03:12:02</description><styleUrl>#w_verdP</styleUrl><Point><coordinates>2.93631076812744,42.0543229579926,0</coordinates></Point></Placemark>
<Placemark><name>GGRAF10</name><description>204210 P.UT
posicio de les: 06/08/2018 03:11:39</description><styleUrl>#w_verdP</styleUrl><Point><coordinates>2.93678283691406,42.0543229579926,0</coordinates></Point></Placemark>
<Placemark><name>04291</name><description>204291 
posicio de les: 06/08/2018 03:11:53</description><styleUrl>#w_groc</styleUrl><Point><coordinates>2.93810248374939,42.0531857013702,0</coordinates></Point></Placemark>
<Placemark><name>LGRAF02</name><description>204302 P.UT
posicio de les: 06/08/2018 03:12:33</description><styleUrl>#w_verdP</styleUrl><Point><coordinates>0.889345407485962,42.1646046638489,0</coordinates></Point></Placemark>
<Placemark><name>BGRAF08</name><description>204408 P.UT
posicio de les: 06/08/2018 03:12:07</description><styleUrl>#w_verdP</styleUrl><Point><coordinates>1.85346007347107,41.7413949966431,0</coordinates></Point></Placemark>
<Placemark><name>VIEL17</name><description>208017 BASE CCA VARAN
posicio de les: 06/08/2018 03:13:14</description><styleUrl>#w_groc</styleUrl><Point><coordinates>0.796658992767334,42.7080202102661,0</coordinates></Point></Placemark>
<Placemark><name>CAF02</name><description>210402 PORT CAF (Centre)
posicio de les: 06/08/2018 03:13:17</description><styleUrl>#w_verdP</styleUrl><Point><coordinates>1.52767896652222,41.7296469211578,0</coordinates></Point></Placemark>
<Placemark><name>CAB56</name><description>210656 PORT.COM CAB (Centre)
posicio de les: 06/08/2018 03:11:58</description><styleUrl>#w_verdP</styleUrl><Point><coordinates>1.68524265289307,41.665563583374,0</coordinates></Point></Placemark>
<Placemark><name>GUA56</name><description>210856 PORT.COM GUA (Centre)
posicio de les: 06/08/2018 03:10:29</description><styleUrl>#w_verdP</styleUrl><Point><coordinates>1.87145233154297,42.2201585769653,0</coordinates></Point></Placemark>
<Placemark><name>PRA07</name><description>211407 PORT PRA (Centre)
posicio de les: 06/08/2018 03:12:36</description><styleUrl>#w_verdP</styleUrl><Point><coordinates>2.03616142272949,42.0080065727234,0</coordinates></Point></Placemark>
<Placemark><name>TOR02</name><description>212002 PORT TOR (Centre)
posicio de les: 06/08/2018 03:13:00</description><styleUrl>#w_verdP</styleUrl><Point><coordinates>2.26679921150208,42.0485186576843,0</coordinates></Point></Placemark>
<Placemark><name>20093</name><description>220093  REGIÓ
posicio de les: 06/08/2018 03:13:10</description><styleUrl>#w_verd</styleUrl><Point><coordinates>2.92928338050842,42.0553636550903,0</coordinates></Point></Placemark>
<Placemark><name>AMER57</name><description>220157 PORT.COM AMER (Girona)
posicio de les: 06/08/2018 03:12:52</description><styleUrl>#w_verdP</styleUrl><Point><coordinates>2.59631395339966,42.0114612579346,0</coordinates></Point></Placemark>
<Placemark><name>20330</name><description>220330 BRP BANY (Girona)
posicio de les: 06/08/2018 03:13:11</description><styleUrl>#w_verdC</styleUrl><Point><coordinates>2.78456211090088,42.116185426712,0</coordinates></Point></Placemark>
<Placemark><name>BANY56</name><description>220356 PORT.COM BANY (Girona)
posicio de les: 06/08/2018 03:12:41</description><styleUrl>#w_verdP</styleUrl><Point><coordinates>2.79266238212585,42.1086430549622,0</coordinates></Point></Placemark>
<Placemark><name>PERA04</name><description>220404 PORT PERA (Girona)
posicio de les: 06/08/2018 03:12:51</description><styleUrl>#w_verdP</styleUrl><Point><coordinates>2.97467708587646,42.0298504829407,0</coordinates></Point></Placemark>
<Placemark><name>20430</name><description>220430 BRP PERA (Girona)
posicio de les: 06/08/2018 03:11:34</description><styleUrl>#w_grocC</styleUrl><Point><coordinates>2.93256640434265,42.0606100559235,0</coordinates></Point></Placemark>
<Placemark><name>220480</name><description>220480 UPCL/USL PERA (Girona)
posicio de les: 06/08/2018 03:13:26</description><styleUrl>#w_verd</styleUrl><Point><coordinates>2.93509840965271,42.0580673217773,0</coordinates></Point></Placemark>
<Placemark><name>CASS56</name><description>220856 PORT.COM CASS (Girona)
posicio de les: 06/08/2018 03:11:31</description><styleUrl>#w_verdP</styleUrl><Point><coordinates>2.88395404815674,41.8797218799591,0</coordinates></Point></Placemark>
<Placemark><name>FIGU56</name><description>221056 PORT.COM FIGU (Girona)
posicio de les: 06/08/2018 03:13:04</description><styleUrl>#w_verdP</styleUrl><Point><coordinates>2.97179102897644,42.2716784477234,0</coordinates></Point></Placemark>
<Placemark><name>HOST05</name><description>221205 PORT HOST (Girona)
posicio de les: 06/08/2018 03:10:39</description><styleUrl>#w_grocP</styleUrl><Point><coordinates>2.62446641921997,41.7481863498688,0</coordinates></Point></Placemark>
<Placemark><name>HOST57</name><description>221257 PORT.COM HOST (Girona)
posicio de les: 06/08/2018 03:13:05</description><styleUrl>#w_verdP</styleUrl><Point><coordinates>2.62415528297424,41.7480683326721,0</coordinates></Point></Placemark>
<Placemark><name>JONQ56</name><description>221356 PORT.COM JONQ (Girona)
posicio de les: 06/08/2018 03:10:48</description><styleUrl>#w_verdP</styleUrl><Point><coordinates>2.87663698196411,42.4119365215302,0</coordinates></Point></Placemark>
<Placemark><name>LLAN57</name><description>221457 PORT.COM LLAN (Girona)
posicio de les: 06/08/2018 03:12:32</description><styleUrl>#w_verdP</styleUrl><Point><coordinates>3.15285086631775,42.357884645462,0</coordinates></Point></Placemark>
<Placemark><name>LLOR56</name><description>221556 PORT.COM LLOR (Girona)
posicio de les: 06/08/2018 03:11:49</description><styleUrl>#w_verdP</styleUrl><Point><coordinates>2.83612489700317,41.699960231781,0</coordinates></Point></Placemark>
<Placemark><name>MAÇA57</name><description>221657 PORT.COM MACA (Girona)
posicio de les: 06/08/2018 03:11:43</description><styleUrl>#w_verdP</styleUrl><Point><coordinates>2.75290131568909,41.7793428897858,0</coordinates></Point></Placemark>
<Placemark><name>OLOT56</name><description>221756 PORT.COM OLOT (Girona)
posicio de les: 06/08/2018 03:12:28</description><styleUrl>#w_verdP</styleUrl><Point><coordinates>2.47476696968079,42.1899676322937,0</coordinates></Point></Placemark>
<Placemark><name>OLOT57</name><description>221757 PORT.COM OLOT (Girona)
posicio de les: 06/08/2018 03:09:53</description><styleUrl>#w_verdP</styleUrl><Point><coordinates>2.47475624084473,42.1902251243591,0</coordinates></Point></Placemark>
<Placemark><name>PALA56</name><description>221856 PORT.COM PALA (Girona)
posicio de les: 06/08/2018 03:11:48</description><styleUrl>#w_verdP</styleUrl><Point><coordinates>3.1561017036438,41.9258236885071,0</coordinates></Point></Placemark>
<Placemark><name>PALA57</name><description>221857 PORT.COM PALA (Girona)
posicio de les: 06/08/2018 03:12:25</description><styleUrl>#w_verdP</styleUrl><Point><coordinates>3.15631628036499,41.9257378578186,0</coordinates></Point></Placemark>
<Placemark><name>RIPO56</name><description>222156 PORT.COM RIPO (Girona)
posicio de les: 06/08/2018 03:13:09</description><styleUrl>#w_verdP</styleUrl><Point><coordinates>2.16758966445923,42.2158670425415,0</coordinates></Point></Placemark>
<Placemark><name>RIPO57</name><description>222157 PORT.COM RIPO (Girona)
posicio de les: 06/08/2018 03:12:33</description><styleUrl>#w_verdP</styleUrl><Point><coordinates>2.16892004013062,42.2145473957062,0</coordinates></Point></Placemark>
<Placemark><name>ROSE01</name><description>222201 PORT ROSE (Girona)
posicio de les: 06/08/2018 03:13:09</description><styleUrl>#w_grocP</styleUrl><Point><coordinates>3.16079020500183,42.2763884067535,0</coordinates></Point></Placemark>
<Placemark><name>ROSE56</name><description>222256 PORT.COM ROSE (Girona)
posicio de les: 06/08/2018 03:09:29</description><styleUrl>#w_verdP</styleUrl><Point><coordinates>3.16145539283752,42.2761738300323,0</coordinates></Point></Placemark>
<Placemark><name>TORR56</name><description>222656 PORT.COM TORR (Girona)
posicio de les: 06/08/2018 03:13:00</description><styleUrl>#w_grocP</styleUrl><Point><coordinates>3.16763520240784,42.0477890968323,0</coordinates></Point></Placemark>
<Placemark><name>VALL56</name><description>222856 PORT.COM VALL (Girona)
posicio de les: 06/08/2018 03:11:10</description><styleUrl>#w_grocP</styleUrl><Point><coordinates>3.03160429000854,41.808750629425,0</coordinates></Point></Placemark>
<Placemark><name>D7REG</name><description>228047  SERVEIS REGIÓ
posicio de les: 06/08/2018 03:12:00</description><styleUrl>#w_verd</styleUrl><Point><coordinates>2.80678153038025,41.9601237773895,0</coordinates></Point></Placemark>
<Placemark><name>30092</name><description>230092  REGIÓ
posicio de les: 06/08/2018 03:08:50</description><styleUrl>#w_verd</styleUrl><Point><coordinates>0.605782270431519,41.6227984428406,0</coordinates></Point></Placemark>
<Placemark><name>LLEI02</name><description>231902 PORT LLEI (Lleida)
posicio de les: 06/08/2018 03:12:52</description><styleUrl>#w_verdP</styleUrl><Point><coordinates>0.605117082595825,41.6242039203644,0</coordinates></Point></Placemark>
<Placemark><name>LLEI05</name><description>231905 PORT LLEI (Lleida)
posicio de les: 06/08/2018 03:10:57</description><styleUrl>#w_verdP</styleUrl><Point><coordinates>0.60524582862854,41.6242790222168,0</coordinates></Point></Placemark>
<Placemark><name>OLIA01</name><description>232201 PORT OLIA (Lleida)
posicio de les: 06/08/2018 03:12:01</description><styleUrl>#w_verdP</styleUrl><Point><coordinates>1.30773782730103,42.074933052063,0</coordinates></Point></Placemark>
<Placemark><name>OLIA56</name><description>232256 PORT.COM OLIA (Lleida)
posicio de les: 06/08/2018 03:07:43</description><styleUrl>#w_verdP</styleUrl><Point><coordinates>1.30814552307129,42.0744287967682,0</coordinates></Point></Placemark>
<Placemark><name>POBL01</name><description>232401 PORT POBL (Lleida)
posicio de les: 06/08/2018 03:13:23</description><styleUrl>#w_verdP</styleUrl><Point><coordinates>0.964511632919312,42.2389340400696,0</coordinates></Point></Placemark>
<Placemark><name>PONT05</name><description>232505 PORT PONT (Lleida)
posicio de les: 06/08/2018 03:13:25</description><styleUrl>#w_verdP</styleUrl><Point><coordinates>0.739613771438599,42.4105525016785,0</coordinates></Point></Placemark>
<Placemark><name>TAR07</name><description>233107 PORT TAR (Lleida)
posicio de les: 06/08/2018 03:11:26</description><styleUrl>#w_grocP</styleUrl><Point><coordinates>1.14974498748779,41.6511869430542,0</coordinates></Point></Placemark>
<Placemark><name>TREM05</name><description>233305 PORT TREM (Lleida)
posicio de les: 06/08/2018 03:11:30</description><styleUrl>#w_verdP</styleUrl><Point><coordinates>0.888755321502686,42.1643149852753,0</coordinates></Point></Placemark>
<Placemark><name>TREM07</name><description>233307 PORT TREM (Lleida)
posicio de les: 06/08/2018 03:11:33</description><styleUrl>#w_verdP</styleUrl><Point><coordinates>0.889463424682617,42.1648728847504,0</coordinates></Point></Placemark>
<Placemark><name>TREM56</name><description>233356 PORT.COM TREM (Lleida)
posicio de les: 06/08/2018 03:11:51</description><styleUrl>#w_verdP</styleUrl><Point><coordinates>0.888733863830566,42.1640682220459,0</coordinates></Point></Placemark>
<Placemark><name>FTAR1</name><description>234513 PORT Parc X
posicio de les: 06/08/2018 03:13:28</description><styleUrl>#w_grocP</styleUrl><Point><coordinates>1.14924073219299,41.6510689258575,0</coordinates></Point></Placemark>
<Placemark><name>I407</name><description>237407 P.GUAITA GUAITA
posicio de les: 06/08/2018 03:13:21</description><styleUrl>#w_verdP</styleUrl><Point><coordinates>0.965455770492554,42.2531390190125,0</coordinates></Point></Placemark>
<Placemark><name>REMN11</name><description>240011 P.Tec REGIÓ
posicio de les: 06/08/2018 03:12:18</description><styleUrl>#w_verdP</styleUrl><Point><coordinates>2.11203575134277,41.5017879009247,0</coordinates></Point></Placemark>
<Placemark><name>REMN14</name><description>240014 P.Tec REGIÓ
posicio de les: 06/08/2018 03:10:42</description><styleUrl>#w_verdP</styleUrl><Point><coordinates>2.02581882476807,41.5679633617401,0</coordinates></Point></Placemark>
<Placemark><name>40091</name><description>240091  REGIÓ
posicio de les: 06/08/2018 03:10:52</description><styleUrl>#w_groc</styleUrl><Point><coordinates>2.11125254631042,41.5022921562195,0</coordinates></Point></Placemark>
<Placemark><name>BAD02</name><description>240202 PORT BAD (Metro. Nord)
posicio de les: 06/08/2018 03:11:01</description><styleUrl>#w_verdP</styleUrl><Point><coordinates>2.23734855651855,41.4653956890106,0</coordinates></Point></Placemark>
<Placemark><name>40290</name><description>240290 UPC BAD (Metro. Nord)
posicio de les: 06/08/2018 03:10:13</description><styleUrl>#w_groc</styleUrl><Point><coordinates>2.02472448348999,41.5688216686249,0</coordinates></Point></Placemark>
<Placemark><name>CER03</name><description>240503 PORT CER (Metro. Nord)
posicio de les: 06/08/2018 03:13:17</description><styleUrl>#w_verdP</styleUrl><Point><coordinates>2.1113920211792,41.5022599697113,0</coordinates></Point></Placemark>
<Placemark><name>GRA13</name><description>240613 PORT GRA (Metro. Nord)
posicio de les: 06/08/2018 03:10:21</description><styleUrl>#w_verdP</styleUrl><Point><coordinates>2.27451324462891,41.5907192230225,0</coordinates></Point></Placemark>
<Placemark><name>MAT01</name><description>240901 PORT MAT (Metro. Nord)
posicio de les: 06/08/2018 03:10:14</description><styleUrl>#w_verdP</styleUrl><Point><coordinates>2.42303252220154,41.5321290493011,0</coordinates></Point></Placemark>
<Placemark><name>MOL03</name><description>241003 PORT MOL (Metro. Nord)
posicio de les: 06/08/2018 03:10:07</description><styleUrl>#w_verdP</styleUrl><Point><coordinates>2.20116019248962,41.5370321273804,0</coordinates></Point></Placemark>
<Placemark><name>SAB06</name><description>241406 PORT SAB (Metro. Nord)
posicio de les: 06/08/2018 03:09:42</description><styleUrl>#w_verdP</styleUrl><Point><coordinates>2.10413932800293,41.5421068668365,0</coordinates></Point></Placemark>
<Placemark><name>CMSAB20</name><description>241420 PORT SAB (Metro. Nord)
posicio de les: 06/08/2018 03:13:21</description><styleUrl>#w_verdP</styleUrl><Point><coordinates>2.10406422615051,41.5423214435577,0</coordinates></Point></Placemark>
<Placemark><name>241440</name><description>241440 BUP SAB (Metro. Nord)
posicio de les: 06/08/2018 03:09:21</description><styleUrl>#w_grocC</styleUrl><Point><coordinates>2.10425734519959,41.5422463417053,0</coordinates></Point></Placemark>
<Placemark><name>SCG09</name><description>241809 PORT SCG (Metro. Nord)
posicio de les: 06/08/2018 03:12:22</description><styleUrl>#w_verdP</styleUrl><Point><coordinates>2.20946431159973,41.4632928371429,0</coordinates></Point></Placemark>
<Placemark><name>241858</name><description>241858 BSAL SCG (Metro. Nord)
posicio de les: 06/08/2018 03:13:12</description><styleUrl>#w_grocB</styleUrl><Point><coordinates>2.2093677520752,41.4632499217987,0</coordinates></Point></Placemark>
<Placemark><name>TER01</name><description>242001 PORT TER (Metro. Nord)
posicio de les: 06/08/2018 03:12:44</description><styleUrl>#w_verdP</styleUrl><Point><coordinates>2.02604413032532,41.5687894821167,0</coordinates></Point></Placemark>
<Placemark><name>TER07</name><description>242007 PORT TER (Metro. Nord)
posicio de les: 06/08/2018 03:09:49</description><styleUrl>#w_verdP</styleUrl><Point><coordinates>2.10140347480774,41.5269148349762,0</coordinates></Point></Placemark>
<Placemark><name>TOD56</name><description>242156 PORT.COM TOD (Metro. Nord)
posicio de les: 06/08/2018 03:12:04</description><styleUrl>#w_verdP</styleUrl><Point><coordinates>2.7166485786438,41.6913557052612,0</coordinates></Point></Placemark>
<Placemark><name>D9REMN</name><description>248049  SERVEIS REGIÓ
posicio de les: 06/08/2018 03:11:34</description><styleUrl>#w_verd</styleUrl><Point><coordinates>2.11145639419556,41.5028607845306,0</coordinates></Point></Placemark>
<Placemark><name>COR05</name><description>250405 PORT COR (Metro. Sud)
posicio de les: 06/08/2018 03:13:06</description><styleUrl>#w_grocP</styleUrl><Point><coordinates>2.06748962402344,41.3722801208496,0</coordinates></Point></Placemark>
<Placemark><name>COR07</name><description>250407 PORT COR (Metro. Sud)
posicio de les: 06/08/2018 03:12:06</description><styleUrl>#w_verdP</styleUrl><Point><coordinates>2.06758618354797,41.3727521896362,0</coordinates></Point></Placemark>
<Placemark><name>COR10</name><description>250410 PORT COR (Metro. Sud)
posicio de les: 06/08/2018 03:10:17</description><styleUrl>#w_verdP</styleUrl><Point><coordinates>2.07042932510376,41.360650062561,0</coordinates></Point></Placemark>
<Placemark><name>50430</name><description>250430 BRP COR (Metro. Sud)
posicio de les: 06/08/2018 03:09:54</description><styleUrl>#w_grocC</styleUrl><Point><coordinates>2.06761837005615,41.3722908496857,0</coordinates></Point></Placemark>
<Placemark><name>GAV01</name><description>250501 PORT GAV (Metro. Sud)
posicio de les: 06/08/2018 03:13:17</description><styleUrl>#w_grocP</styleUrl><Point><coordinates>1.99037075042725,41.3002252578735,0</coordinates></Point></Placemark>
<Placemark><name>GAV56</name><description>250556 PORT.COM GAV (Metro. Sud)
posicio de les: 06/08/2018 03:12:54</description><styleUrl>#w_verdP</styleUrl><Point><coordinates>1.99042439460754,41.3000750541687,0</coordinates></Point></Placemark>
<Placemark><name>HOS02</name><description>250702 PORT HOS (Metro. Sud)
posicio de les: 06/08/2018 03:11:52</description><styleUrl>#w_verdP</styleUrl><Point><coordinates>2.10563063621521,41.3702845573425,0</coordinates></Point></Placemark>
<Placemark><name>LLA03</name><description>250903 PORT LLA (Metro. Sud)
posicio de les: 06/08/2018 03:13:20</description><styleUrl>#w_grocP</styleUrl><Point><coordinates>1.53024315834045,41.4732277393341,0</coordinates></Point></Placemark>
<Placemark><name>MAR57</name><description>251057 PORT.COM MAR (Metro. Sud)
posicio de les: 06/08/2018 03:13:12</description><styleUrl>#w_grocP</styleUrl><Point><coordinates>1.90815567970276,41.498783826828,0</coordinates></Point></Placemark>
<Placemark><name>SFE57</name><description>251557 PORT.COM SFE (Metro. Sud)
posicio de les: 06/08/2018 03:13:08</description><styleUrl>#w_grocP</styleUrl><Point><coordinates>2.04328536987305,41.3886415958405,0</coordinates></Point></Placemark>
<Placemark><name>CMS15</name><description>254515 PORT Parc X
posicio de les: 06/08/2018 03:12:00</description><styleUrl>#w_grocP</styleUrl><Point><coordinates>1.70363187789917,41.3548457622528,0</coordinates></Point></Placemark>
<Placemark><name>I215</name><description>257215 P.GUAITA GUAITA
posicio de les: 06/08/2018 03:12:58</description><styleUrl>#w_grocP</styleUrl><Point><coordinates>1.66408538818359,41.4990198612213,0</coordinates></Point></Placemark>
<Placemark><name>D1REMS</name><description>258041  SERVEIS REGIÓ
posicio de les: 06/08/2018 03:11:49</description><styleUrl>#w_verd</styleUrl><Point><coordinates>2.03339338302612,41.3222944736481,0</coordinates></Point></Placemark>
<Placemark><name>260508</name><description>260508 PORT HOSP (Tarragona)
posicio de les: 06/08/2018 03:13:00</description><styleUrl>#w_grocP</styleUrl><Point><coordinates>0.919772386550903,40.9936809539795,0</coordinates></Point></Placemark>
<Placemark><name>60844</name><description>260844 BNP REUS (Tarragona)
posicio de les: 06/08/2018 03:11:40</description><styleUrl>#w_grocC</styleUrl><Point><coordinates>1.11810564994812,41.1509335041046,0</coordinates></Point></Placemark>
<Placemark><name>61234</name><description>261234 BFP TARR (Tarragona)
posicio de les: 06/08/2018 03:09:03</description><styleUrl>#w_grocC</styleUrl><Point><coordinates>1.22082352638245,41.1138653755188,0</coordinates></Point></Placemark>
<Placemark><name>VALS56</name><description>261356 PORT.COM VALS (Tarragona)
posicio de les: 06/08/2018 03:11:12</description><styleUrl>#w_grocP</styleUrl><Point><coordinates>1.26046657562256,41.3068449497223,0</coordinates></Point></Placemark>
<Placemark><name>61390</name><description>261390 UPC VALS (Tarragona)
posicio de les: 06/08/2018 03:10:02</description><styleUrl>#w_groc</styleUrl><Point><coordinates>1.25921130180359,41.3072848320007,0</coordinates></Point></Placemark>
<Placemark><name>VEND09</name><description>261409 PORT VEND (Tarragona)
posicio de les: 06/08/2018 03:11:41</description><styleUrl>#w_verdP</styleUrl><Point><coordinates>1.54099345207214,41.2222266197205,0</coordinates></Point></Placemark>
<Placemark><name>VEND10</name><description>261410 PORT VEND (Tarragona)
posicio de les: 06/08/2018 03:12:32</description><styleUrl>#w_verdP</styleUrl><Point><coordinates>1.54067158699036,41.2223553657532,0</coordinates></Point></Placemark>
<Placemark><name>E00RETE</name><description>270014 P.Tec REGIÓ
posicio de les: 06/08/2018 03:12:15</description><styleUrl>#w_verdP</styleUrl><Point><coordinates>0.513256788253784,40.819251537323,0</coordinates></Point></Placemark>
<Placemark><name>GAND56</name><description>272656 PORT.COM GAND (Terres de l'Ebre)
posicio de les: 06/08/2018 03:12:57</description><styleUrl>#w_verdP</styleUrl><Point><coordinates>0.439292192459106,41.0585904121399,0</coordinates></Point></Placemark>
<Placemark><name>MORA56</name><description>272856 PORT.COM MORA (Terres de l'Ebre)
posicio de les: 06/08/2018 03:12:57</description><styleUrl>#w_verdP</styleUrl><Point><coordinates>0.629643201828003,41.0862600803375,0</coordinates></Point></Placemark>
<Placemark><name>E_93</name><description>278031  SERVEIS REGIÓ
posicio de les: 06/08/2018 03:12:40</description><styleUrl>#w_verd</styleUrl><Point><coordinates>0.513256788253784,40.8193480968475,0</coordinates></Point></Placemark>
</Folder>
<Folder>
<name>Descarregues</name>
</Folder>
<Style id="w_verdP_n"><IconStyle><color>ff00ff00</color><scale>1.0</scale><Icon><href>http://maps.google.com/mapfiles/kml/shapes/man.png</href></Icon><hotSpot x="0.5" y="0" xunits="fraction" yunits="fraction"/></IconStyle><LabelStyle><scale>0.7</scale></LabelStyle></Style>
<Style id="w_verdP_s"><IconStyle><color>ff00ff00</color><scale>1.4</scale><Icon><href>http://maps.google.com/mapfiles/kml/shapes/man.png</href></Icon><hotSpot x="0.5" y="0" xunits="fraction" yunits="fraction"/></IconStyle><LabelStyle><scale>0.7</scale></LabelStyle></Style>
<StyleMap id="w_verdP"><Pair><key>normal</key><styleUrl>#w_verdP_n</styleUrl></Pair><Pair><key>highlight</key><styleUrl>#w_verdP_s</styleUrl></Pair></StyleMap>
<Style id="w_verd_n"><IconStyle><color>ff00ff00</color><scale>0.7</scale><Icon><href>http://maps.google.com/mapfiles/kml/shapes/cabs.png</href></Icon><hotSpot x="0.5" y="0" xunits="fraction" yunits="fraction"/></IconStyle><LabelStyle><scale>0.7</scale></LabelStyle></Style>
<Style id="w_verd_s"><IconStyle><color>ff00ff00</color><scale>1.0</scale><Icon><href>http://maps.google.com/mapfiles/kml/shapes/cabs.png</href></Icon><hotSpot x="0.5" y="0" xunits="fraction" yunits="fraction"/></IconStyle><LabelStyle><scale>0.7</scale></LabelStyle></Style>
<StyleMap id="w_verd"><Pair><key>normal</key><styleUrl>#w_verd_n</styleUrl></Pair><Pair><key>highlight</key><styleUrl>#w_verd_s</styleUrl></Pair></StyleMap>
<Style id="w_verdC_n"><IconStyle><color>ff00ff00</color><scale>1.0</scale><Icon><href>http://maps.google.com/mapfiles/kml/shapes/truck.png</href></Icon><hotSpot x="0.5" y="0" xunits="fraction" yunits="fraction"/></IconStyle><LabelStyle><scale>0.7</scale></LabelStyle></Style>
<Style id="w_verdC_s"><IconStyle><color>ff00ff00</color><scale>1.4</scale><Icon><href>http://maps.google.com/mapfiles/kml/shapes/truck.png</href></Icon><hotSpot x="0.5" y="0" xunits="fraction" yunits="fraction"/></IconStyle><LabelStyle><scale>0.7</scale></LabelStyle></Style>
<StyleMap id="w_verdC"><Pair><key>normal</key><styleUrl>#w_verdC_n</styleUrl></Pair><Pair><key>highlight</key><styleUrl>#w_verdC_s</styleUrl></Pair></StyleMap>
<Style id="w_verdH_n"><IconStyle><color>ff0000ff</color><scale>1.2</scale><Icon><href>http://maps.google.com/mapfiles/kml/shapes/heliport.png</href></Icon><hotSpot x="0.5" y="0" xunits="fraction" yunits="fraction"/></IconStyle><LabelStyle><scale>0.7</scale></LabelStyle></Style>
<Style id="w_verdH_s"><IconStyle><color>ff0000ff</color><scale>1.4</scale><Icon><href>http://maps.google.com/mapfiles/kml/shapes/heliport.png</href></Icon><hotSpot x="0.5" y="0" xunits="fraction" yunits="fraction"/></IconStyle><LabelStyle><scale>0.7</scale></LabelStyle></Style>
<StyleMap id="w_verdH"><Pair><key>normal</key><styleUrl>#w_verdH_n</styleUrl></Pair><Pair><key>highlight</key><styleUrl>#w_verdH_s</styleUrl></Pair></StyleMap>
<Style id="w_verdA_n"><IconStyle><color>ff0000ff</color><scale>1.2</scale><Icon><href>http://maps.google.com/mapfiles/kml/shapes/airports.png</href></Icon><hotSpot x="0.5" y="0" xunits="fraction" yunits="fraction"/></IconStyle><LabelStyle><scale>0.7</scale></LabelStyle></Style>
<Style id="w_verdA_s"><IconStyle><color>ff0000ff</color><scale>1.4</scale><Icon><href>http://maps.google.com/mapfiles/kml/shapes/airports.png</href></Icon><hotSpot x="0.5" y="0" xunits="fraction" yunits="fraction"/></IconStyle><LabelStyle><scale>0.7</scale></LabelStyle></Style>
<StyleMap id="w_verdA"><Pair><key>normal</key><styleUrl>#w_verdA_n</styleUrl></Pair><Pair><key>highlight</key><styleUrl>#w_verdA_s</styleUrl></Pair></StyleMap>
<Style id="w_verdB_n"><IconStyle><color>ff00ff00</color><scale>1.0</scale><Icon><href>http://maps.google.com/mapfiles/kml/shapes/sailing.png</href></Icon><hotSpot x="0.5" y="0" xunits="fraction" yunits="fraction"/></IconStyle><LabelStyle><scale>0.7</scale></LabelStyle></Style>
<Style id="w_verdB_s"><IconStyle><color>ff00ff00</color><scale>1.4</scale><Icon><href>http://maps.google.com/mapfiles/kml/shapes/sailing.png</href></Icon><hotSpot x="0.5" y="0" xunits="fraction" yunits="fraction"/></IconStyle><LabelStyle><scale>0.7</scale></LabelStyle></Style>
<StyleMap id="w_verdB"><Pair><key>normal</key><styleUrl>#w_verdBAR_n</styleUrl></Pair><Pair><key>highlight</key><styleUrl>#w_verdBAR_s</styleUrl></Pair></StyleMap>
<Style id="w_grocP_n"><IconStyle><color>ff00ffff</color><scale>1.0</scale><Icon><href>http://maps.google.com/mapfiles/kml/shapes/man.png</href></Icon><hotSpot x="0.5" y="0" xunits="fraction" yunits="fraction"/></IconStyle><LabelStyle><scale>0.7</scale></LabelStyle></Style>
<Style id="w_grocP_s"><IconStyle><color>ff00ffff</color><scale>1.4</scale><Icon><href>http://maps.google.com/mapfiles/kml/shapes/man.png</href></Icon><hotSpot x="0.5" y="0" xunits="fraction" yunits="fraction"/></IconStyle><LabelStyle><scale>0.7</scale></LabelStyle></Style>
<StyleMap id="w_grocP"><Pair><key>normal</key><styleUrl>#w_grocP_n</styleUrl></Pair><Pair><key>highlight</key><styleUrl>#w_grocP_s</styleUrl></Pair></StyleMap>
<Style id="w_groc_n"><IconStyle><color>ff00ffff</color><scale>0.7</scale><Icon><href>http://maps.google.com/mapfiles/kml/shapes/cabs.png</href></Icon><hotSpot x="0.5" y="0" xunits="fraction" yunits="fraction"/></IconStyle><LabelStyle><scale>0.7</scale></LabelStyle></Style>
<Style id="w_groc_s"><IconStyle><color>ff00ffff</color><scale>1.0</scale><Icon><href>http://maps.google.com/mapfiles/kml/shapes/cabs.png</href></Icon><hotSpot x="0.5" y="0" xunits="fraction" yunits="fraction"/></IconStyle><LabelStyle><scale>0.7</scale></LabelStyle></Style>
<StyleMap id="w_groc"><Pair><key>normal</key><styleUrl>#w_groc_n</styleUrl></Pair><Pair><key>highlight</key><styleUrl>#w_groc_s</styleUrl></Pair></StyleMap>
<Style id="w_grocC_n"><IconStyle><color>ff00ffff</color><scale>1.0</scale><Icon><href>http://maps.google.com/mapfiles/kml/shapes/truck.png</href></Icon><hotSpot x="0.5" y="0" xunits="fraction" yunits="fraction"/></IconStyle><LabelStyle><scale>0.7</scale></LabelStyle></Style>
<Style id="w_grocC_s"><IconStyle><color>ff00ffff</color><scale>1.4</scale><Icon><href>http://maps.google.com/mapfiles/kml/shapes/truck.png</href></Icon><hotSpot x="0.5" y="0" xunits="fraction" yunits="fraction"/></IconStyle><LabelStyle><scale>0.7</scale></LabelStyle></Style>
<StyleMap id="w_grocC"><Pair><key>normal</key><styleUrl>#w_grocC_n</styleUrl></Pair><Pair><key>highlight</key><styleUrl>#w_grocC_s</styleUrl></Pair></StyleMap>
<Style id="w_grocH_n"><IconStyle><color>ff0000ff</color><scale>1.2</scale><Icon><href>http://maps.google.com/mapfiles/kml/shapes/heliport.png</href></Icon><hotSpot x="0.5" y="0" xunits="fraction" yunits="fraction"/></IconStyle><LabelStyle><scale>0.7</scale></LabelStyle></Style>
<Style id="w_grocH_s"><IconStyle><color>ff0000ff</color><scale>1.4</scale><Icon><href>http://maps.google.com/mapfiles/kml/shapes/heliport.png</href></Icon><hotSpot x="0.5" y="0" xunits="fraction" yunits="fraction"/></IconStyle><LabelStyle><scale>0.7</scale></LabelStyle></Style>
<StyleMap id="w_grocH"><Pair><key>normal</key><styleUrl>#w_grocH_n</styleUrl></Pair><Pair><key>highlight</key><styleUrl>#w_grocH_s</styleUrl></Pair></StyleMap>
<Style id="w_grocA_n"><IconStyle><color>ff0000ff</color><scale>1.2</scale><Icon><href>http://maps.google.com/mapfiles/kml/shapes/airports.png</href></Icon><hotSpot x="0.5" y="0" xunits="fraction" yunits="fraction"/></IconStyle><LabelStyle><scale>0.7</scale></LabelStyle></Style>
<Style id="w_grocA_s"><IconStyle><color>ff0000ff</color><scale>1.4</scale><Icon><href>http://maps.google.com/mapfiles/kml/shapes/airports.png</href></Icon><hotSpot x="0.5" y="0" xunits="fraction" yunits="fraction"/></IconStyle><LabelStyle><scale>0.7</scale></LabelStyle></Style>
<StyleMap id="w_grocA"><Pair><key>normal</key><styleUrl>#w_grocA_n</styleUrl></Pair><Pair><key>highlight</key><styleUrl>#w_grocA_s</styleUrl></Pair></StyleMap>
<Style id="w_grocB_n"><IconStyle><color>ff00ffff</color><scale>1.0</scale><Icon><href>http://maps.google.com/mapfiles/kml/shapes/sailing.png</href></Icon><hotSpot x="0.5" y="0" xunits="fraction" yunits="fraction"/></IconStyle><LabelStyle><scale>0.7</scale></LabelStyle></Style>
<Style id="w_grocB_s"><IconStyle><color>ff00ffff</color><scale>1.4</scale><Icon><href>http://maps.google.com/mapfiles/kml/shapes/sailing.png</href></Icon><hotSpot x="0.5" y="0" xunits="fraction" yunits="fraction"/></IconStyle><LabelStyle><scale>0.7</scale></LabelStyle></Style>
<StyleMap id="w_grocB"><Pair><key>normal</key><styleUrl>#w_grocBAR_n</styleUrl></Pair><Pair><key>highlight</key><styleUrl>#w_grocBAR_s</styleUrl></Pair></StyleMap>
<Style id="w_vermellP_n"><IconStyle><color>ff0000ff</color><scale>1.0</scale><Icon><href>http://maps.google.com/mapfiles/kml/shapes/man.png</href></Icon><hotSpot x="0.5" y="0" xunits="fraction" yunits="fraction"/></IconStyle><LabelStyle><scale>0.7</scale></LabelStyle></Style>
<Style id="w_vermellP_s"><IconStyle><color>ff0000ff</color><scale>1.4</scale><Icon><href>http://maps.google.com/mapfiles/kml/shapes/man.png</href></Icon><hotSpot x="0.5" y="0" xunits="fraction" yunits="fraction"/></IconStyle><LabelStyle><scale>0.7</scale></LabelStyle></Style>
<StyleMap id="w_vermellP"><Pair><key>normal</key><styleUrl>#w_vermellP_n</styleUrl></Pair><Pair><key>highlight</key><styleUrl>#w_vermellP_s</styleUrl></Pair></StyleMap>
<Style id="w_vermell_n"><IconStyle><color>ff0000ff</color><scale>0.7</scale><Icon><href>http://maps.google.com/mapfiles/kml/shapes/cabs.png</href></Icon><hotSpot x="0.5" y="0" xunits="fraction" yunits="fraction"/></IconStyle><LabelStyle><scale>0.7</scale></LabelStyle></Style>
<Style id="w_vermell_s"><IconStyle><color>ff0000ff</color><scale>1.0</scale><Icon><href>http://maps.google.com/mapfiles/kml/shapes/cabs.png</href></Icon><hotSpot x="0.5" y="0" xunits="fraction" yunits="fraction"/></IconStyle><LabelStyle><scale>0.7</scale></LabelStyle></Style>
<StyleMap id="w_vermell"><Pair><key>normal</key><styleUrl>#w_vermell_n</styleUrl></Pair><Pair><key>highlight</key><styleUrl>#w_vermell_s</styleUrl></Pair></StyleMap>
<Style id="w_vermellC_n"><IconStyle><color>ff0000ff</color><scale>1.0</scale><Icon><href>http://maps.google.com/mapfiles/kml/shapes/truck.png</href></Icon><hotSpot x="0.5" y="0" xunits="fraction" yunits="fraction"/></IconStyle><LabelStyle><scale>0.7</scale></LabelStyle></Style>
<Style id="w_vermellC_s"><IconStyle><color>ff0000ff</color><scale>1.4</scale><Icon><href>http://maps.google.com/mapfiles/kml/shapes/truck.png</href></Icon><hotSpot x="0.5" y="0" xunits="fraction" yunits="fraction"/></IconStyle><LabelStyle><scale>0.7</scale></LabelStyle></Style>
<StyleMap id="w_vermellC"><Pair><key>normal</key><styleUrl>#w_vermellC_n</styleUrl></Pair><Pair><key>highlight</key><styleUrl>#w_vermellC_s</styleUrl></Pair></StyleMap>
<Style id="w_vermellH_n"><IconStyle><color>ff0000ff</color><scale>1.2</scale><Icon><href>http://maps.google.com/mapfiles/kml/shapes/heliport.png</href></Icon><hotSpot x="0.5" y="0" xunits="fraction" yunits="fraction"/></IconStyle><LabelStyle><scale>0.7</scale></LabelStyle></Style>
<Style id="w_vermellH_s"><IconStyle><color>ff0000ff</color><scale>1.4</scale><Icon><href>http://maps.google.com/mapfiles/kml/shapes/heliport.png</href></Icon><hotSpot x="0.5" y="0" xunits="fraction" yunits="fraction"/></IconStyle><LabelStyle><scale>0.7</scale></LabelStyle></Style>
<StyleMap id="w_vermellH"><Pair><key>normal</key><styleUrl>#w_vermellH_n</styleUrl></Pair><Pair><key>highlight</key><styleUrl>#w_vermellH_s</styleUrl></Pair></StyleMap>
<Style id="w_vermellA_n"><IconStyle><color>ff0000ff</color><scale>1.2</scale><Icon><href>http://maps.google.com/mapfiles/kml/shapes/airports.png</href></Icon><hotSpot x="0.5" y="0" xunits="fraction" yunits="fraction"/></IconStyle><LabelStyle><scale>0.7</scale></LabelStyle></Style>
<Style id="w_vermellA_s"><IconStyle><color>ff0000ff</color><scale>1.4</scale><Icon><href>http://maps.google.com/mapfiles/kml/shapes/airports.png</href></Icon><hotSpot x="0.5" y="0" xunits="fraction" yunits="fraction"/></IconStyle><LabelStyle><scale>0.7</scale></LabelStyle></Style>
<StyleMap id="w_vermellA"><Pair><key>normal</key><styleUrl>#w_vermellA_n</styleUrl></Pair><Pair><key>highlight</key><styleUrl>#w_vermellA_s</styleUrl></Pair></StyleMap>
<Style id="w_vermellB_n"><IconStyle><color>ff0000ff</color><scale>1.0</scale><Icon><href>http://maps.google.com/mapfiles/kml/shapes/sailing.png</href></Icon><hotSpot x="0.5" y="0" xunits="fraction" yunits="fraction"/></IconStyle><LabelStyle><scale>0.7</scale></LabelStyle></Style>
<Style id="w_vermellB_s"><IconStyle><color>ff0000ff</color><scale>1.4</scale><Icon><href>http://maps.google.com/mapfiles/kml/shapes/sailing.png</href></Icon><hotSpot x="0.5" y="0" xunits="fraction" yunits="fraction"/></IconStyle><LabelStyle><scale>0.7</scale></LabelStyle></Style>
<StyleMap id="w_vermellB"><Pair><key>normal</key><styleUrl>#w_vermellBAR_n</styleUrl></Pair><Pair><key>highlight</key><styleUrl>#w_vermellBAR_s</styleUrl></Pair></StyleMap>
<Style id="w_descarrega"><IconStyle><color>ff00ffff</color><scale>0.5</scale><Icon><href>http://maps.google.com/mapfiles/kml/shapes/road_shield3.png</href></Icon></IconStyle><LabelStyle><scale>0.7</scale></LabelStyle></Style><Style id="actuacio"><IconStyle><color>ff00ffff</color><scale>0.8</scale><Icon><href>http://maps.google.com/mapfiles/kml/shapes/caution.png</href></Icon></IconStyle><LabelStyle><scale>0.7</scale></LabelStyle></Style></Document></kml>