<?xml version="1.0" encoding="UTF-8"?>
<kml xmlns="http://www.opengis.net/kml/2.2" xmlns:gx="http://www.google.com/kml/ext/2.2" xmlns:kml="http://www.opengis.net/kml/2.2" xmlns:atom="http://www.w3.org/2005/Atom">
<Document>
<name>Terminals</name>
<Snippet maxLines="2">Created 06/08/2018 00:42:22</Snippet>
<Folder>
<name>Terminals</name>
<Placemark><name>02063</name><description>202063 GEM
posicio de les: 06/08/2018 00:41:41</description><styleUrl>#w_groc</styleUrl><Point><coordinates>2.11163878440857,41.5025067329407,0</coordinates></Point></Placemark>
<Placemark><name>GRAEUT3</name><description>203003 GRAE
posicio de les: 06/08/2018 00:40:29</description><styleUrl>#w_verdP</styleUrl><Point><coordinates>1.85111045837402,41.7414593696594,0</coordinates></Point></Placemark>
<Placemark><name>GGRAF08</name><description>204208 P.UT
posicio de les: 06/08/2018 00:40:27</description><styleUrl>#w_grocP</styleUrl><Point><coordinates>2.9748272895813,42.0298182964325,0</coordinates></Point></Placemark>
<Placemark><name>GGRAF10</name><description>204210 P.UT
posicio de les: 06/08/2018 00:42:10</description><styleUrl>#w_grocP</styleUrl><Point><coordinates>2.97470927238464,42.0295393466949,0</coordinates></Point></Placemark>
<Placemark><name>LGRAF02</name><description>204302 P.UT
posicio de les: 06/08/2018 00:40:36</description><styleUrl>#w_verdP</styleUrl><Point><coordinates>0.889409780502319,42.1649479866028,0</coordinates></Point></Placemark>
<Placemark><name>BGRAF08</name><description>204408 P.UT
posicio de les: 06/08/2018 00:42:02</description><styleUrl>#w_verdP</styleUrl><Point><coordinates>1.8526017665863,41.7414271831512,0</coordinates></Point></Placemark>
<Placemark><name>VIEL17</name><description>208017 BASE CCA VARAN
posicio de les: 06/08/2018 00:41:21</description><styleUrl>#w_groc</styleUrl><Point><coordinates>0.796723365783691,42.7081382274628,0</coordinates></Point></Placemark>
<Placemark><name>BER57</name><description>210357 PORT.COM BER (Centre)
posicio de les: 06/08/2018 00:42:16</description><styleUrl>#w_verdP</styleUrl><Point><coordinates>1.85771942138672,42.1041584014893,0</coordinates></Point></Placemark>
<Placemark><name>CAF04</name><description>210404 PORT CAF (Centre)
posicio de les: 06/08/2018 00:41:40</description><styleUrl>#w_verdP</styleUrl><Point><coordinates>1.17601990699768,41.6583108901978,0</coordinates></Point></Placemark>
<Placemark><name>10430</name><description>210430 BRP CAF (Centre)
posicio de les: 06/08/2018 00:42:18</description><styleUrl>#w_verdC</styleUrl><Point><coordinates>1.18547201156616,41.6597485542297,0</coordinates></Point></Placemark>
<Placemark><name>CAB56</name><description>210656 PORT.COM CAB (Centre)
posicio de les: 06/08/2018 00:42:02</description><styleUrl>#w_verdP</styleUrl><Point><coordinates>1.68507099151611,41.6656601428986,0</coordinates></Point></Placemark>
<Placemark><name>GUA56</name><description>210856 PORT.COM GUA (Centre)
posicio de les: 06/08/2018 00:38:29</description><styleUrl>#w_verdP</styleUrl><Point><coordinates>1.871098279953,42.2203624248505,0</coordinates></Point></Placemark>
<Placemark><name>MAN01</name><description>211001 PORT MAN (Centre)
posicio de les: 06/08/2018 00:41:06</description><styleUrl>#w_verdP</styleUrl><Point><coordinates>1.82265758514404,41.7252373695374,0</coordinates></Point></Placemark>
<Placemark><name>11040</name><description>211040 BUP MAN (Centre)
posicio de les: 06/08/2018 00:42:12</description><styleUrl>#w_verdC</styleUrl><Point><coordinates>1.82532906532288,41.7253875732422,0</coordinates></Point></Placemark>
<Placemark><name>11060</name><description>211060 AEA/AES/ABA MAN (Centre)
posicio de les: 06/08/2018 00:42:13</description><styleUrl>#w_verdC</styleUrl><Point><coordinates>1.82370901107788,41.7210745811462,0</coordinates></Point></Placemark>
<Placemark><name>PRA07</name><description>211407 PORT PRA (Centre)
posicio de les: 06/08/2018 00:40:49</description><styleUrl>#w_verdP</styleUrl><Point><coordinates>2.03577518463135,42.0077919960022,0</coordinates></Point></Placemark>
<Placemark><name>TOR02</name><description>212002 PORT TOR (Centre)
posicio de les: 06/08/2018 00:41:44</description><styleUrl>#w_verdP</styleUrl><Point><coordinates>2.26593017578125,42.0509541034698,0</coordinates></Point></Placemark>
<Placemark><name>12130</name><description>212130 BRP VIC (Centre)
posicio de les: 06/08/2018 00:42:16</description><styleUrl>#w_verdC</styleUrl><Point><coordinates>2.23497748374939,41.9560253620148,0</coordinates></Point></Placemark>
<Placemark><name>20093</name><description>220093  REGIÓ
posicio de les: 06/08/2018 00:37:30</description><styleUrl>#w_verd</styleUrl><Point><coordinates>2.80670642852783,41.9613039493561,0</coordinates></Point></Placemark>
<Placemark><name>20130</name><description>220130 BRP AMER (Girona)
posicio de les: 06/08/2018 00:40:50</description><styleUrl>#w_grocC</styleUrl><Point><coordinates>2.80628800392151,41.9604992866516,0</coordinates></Point></Placemark>
<Placemark><name>20134</name><description>220134 BFP AMER (Girona)
posicio de les: 06/08/2018 00:42:20</description><styleUrl>#w_verdC</styleUrl><Point><coordinates>3.16100478172302,42.3643755912781,0</coordinates></Point></Placemark>
<Placemark><name>AMER56</name><description>220156 PORT.COM AMER (Girona)
posicio de les: 06/08/2018 00:41:24</description><styleUrl>#w_verdP</styleUrl><Point><coordinates>2.8059983253479,41.9606065750122,0</coordinates></Point></Placemark>
<Placemark><name>AMER57</name><description>220157 PORT.COM AMER (Girona)
posicio de les: 06/08/2018 00:41:48</description><styleUrl>#w_verdP</styleUrl><Point><coordinates>2.59445786476135,42.0137465000153,0</coordinates></Point></Placemark>
<Placemark><name>20330</name><description>220330 BRP BANY (Girona)
posicio de les: 06/08/2018 00:38:11</description><styleUrl>#w_verdC</styleUrl><Point><coordinates>2.78456211090088,42.116185426712,0</coordinates></Point></Placemark>
<Placemark><name>BANY56</name><description>220356 PORT.COM BANY (Girona)
posicio de les: 06/08/2018 00:42:18</description><styleUrl>#w_verdP</styleUrl><Point><coordinates>2.78561353683472,42.1176552772522,0</coordinates></Point></Placemark>
<Placemark><name>PERA03</name><description>220403 PORT PERA (Girona)
posicio de les: 06/08/2018 00:39:26</description><styleUrl>#w_verdP</styleUrl><Point><coordinates>2.97498822212219,42.0299255847931,0</coordinates></Point></Placemark>
<Placemark><name>PERA04</name><description>220404 PORT PERA (Girona)
posicio de les: 06/08/2018 00:41:21</description><styleUrl>#w_verdP</styleUrl><Point><coordinates>2.97536373138428,42.0292711257935,0</coordinates></Point></Placemark>
<Placemark><name>20430</name><description>220430 BRP PERA (Girona)
posicio de les: 06/08/2018 00:42:22</description><styleUrl>#w_verdC</styleUrl><Point><coordinates>2.87188410758972,42.0271575450897,0</coordinates></Point></Placemark>
<Placemark><name>20434</name><description>220434 BFP PERA (Girona)
posicio de les: 06/08/2018 00:41:11</description><styleUrl>#w_grocC</styleUrl><Point><coordinates>2.97502040863037,42.0298504829407,0</coordinates></Point></Placemark>
<Placemark><name>20830</name><description>220830 BRP CASS (Girona)
posicio de les: 06/08/2018 00:42:18</description><styleUrl>#w_verdC</styleUrl><Point><coordinates>2.80450701713562,41.961464881897,0</coordinates></Point></Placemark>
<Placemark><name>CASS56</name><description>220856 PORT.COM CASS (Girona)
posicio de les: 06/08/2018 00:41:34</description><styleUrl>#w_verdP</styleUrl><Point><coordinates>2.80139565467834,41.958224773407,0</coordinates></Point></Placemark>
<Placemark><name>FIGU56</name><description>221056 PORT.COM FIGU (Girona)
posicio de les: 06/08/2018 00:40:43</description><styleUrl>#w_verdP</styleUrl><Point><coordinates>2.97011733055115,42.2731053829193,0</coordinates></Point></Placemark>
<Placemark><name>21130</name><description>221130 BRP GIRO (Girona)
posicio de les: 06/08/2018 00:42:17</description><styleUrl>#w_verdC</styleUrl><Point><coordinates>2.79855251312256,41.9556927680969,0</coordinates></Point></Placemark>
<Placemark><name>21131</name><description>221131 BRP GIRO (Girona)
posicio de les: 06/08/2018 00:42:12</description><styleUrl>#w_verdC</styleUrl><Point><coordinates>2.79856324195862,41.955703496933,0</coordinates></Point></Placemark>
<Placemark><name>21160</name><description>221160 AEA/AES/ABA GIRO (Girona)
posicio de les: 06/08/2018 00:42:12</description><styleUrl>#w_verdC</styleUrl><Point><coordinates>2.79828429222107,41.95552110672,0</coordinates></Point></Placemark>
<Placemark><name>HOST05</name><description>221205 PORT HOST (Girona)
posicio de les: 06/08/2018 00:40:08</description><styleUrl>#w_verdP</styleUrl><Point><coordinates>2.62470245361328,41.7480790615082,0</coordinates></Point></Placemark>
<Placemark><name>221244</name><description>221244 BNP HOST (Girona)
posicio de les: 06/08/2018 00:38:38</description><styleUrl>#w_grocC</styleUrl><Point><coordinates>2.80692100524902,41.9605422019959,0</coordinates></Point></Placemark>
<Placemark><name>HOST57</name><description>221257 PORT.COM HOST (Girona)
posicio de les: 06/08/2018 00:41:29</description><styleUrl>#w_verdP</styleUrl><Point><coordinates>2.62447714805603,41.7481112480164,0</coordinates></Point></Placemark>
<Placemark><name>JONQ56</name><description>221356 PORT.COM JONQ (Girona)
posicio de les: 06/08/2018 00:40:32</description><styleUrl>#w_verdP</styleUrl><Point><coordinates>2.87660479545593,42.4121940135956,0</coordinates></Point></Placemark>
<Placemark><name>LLAN06</name><description>221406 PORT LLAN (Girona)
posicio de les: 06/08/2018 00:40:47</description><styleUrl>#w_verdP</styleUrl><Point><coordinates>3.16397666931152,42.3590326309204,0</coordinates></Point></Placemark>
<Placemark><name>LLAN57</name><description>221457 PORT.COM LLAN (Girona)
posicio de les: 06/08/2018 00:41:52</description><styleUrl>#w_verdP</styleUrl><Point><coordinates>3.16014647483826,42.3621869087219,0</coordinates></Point></Placemark>
<Placemark><name>LLOR56</name><description>221556 PORT.COM LLOR (Girona)
posicio de les: 06/08/2018 00:40:05</description><styleUrl>#w_verdP</styleUrl><Point><coordinates>2.83596396446228,41.7000460624695,0</coordinates></Point></Placemark>
<Placemark><name>MAÇA57</name><description>221657 PORT.COM MACA (Girona)
posicio de les: 06/08/2018 00:39:43</description><styleUrl>#w_verdP</styleUrl><Point><coordinates>2.75290131568909,41.7793428897858,0</coordinates></Point></Placemark>
<Placemark><name>OLOT56</name><description>221756 PORT.COM OLOT (Girona)
posicio de les: 06/08/2018 00:38:22</description><styleUrl>#w_verdP</styleUrl><Point><coordinates>2.47559309005737,42.1898925304413,0</coordinates></Point></Placemark>
<Placemark><name>OLOT57</name><description>221757 PORT.COM OLOT (Girona)
posicio de les: 06/08/2018 00:41:53</description><styleUrl>#w_verdP</styleUrl><Point><coordinates>2.47475624084473,42.1902251243591,0</coordinates></Point></Placemark>
<Placemark><name>PALA06</name><description>221806 PORT PALA (Girona)
posicio de les: 06/08/2018 00:41:13</description><styleUrl>#w_verdP</styleUrl><Point><coordinates>3.15561890602112,41.9256091117859,0</coordinates></Point></Placemark>
<Placemark><name>PALA56</name><description>221856 PORT.COM PALA (Girona)
posicio de les: 06/08/2018 00:41:18</description><styleUrl>#w_verdP</styleUrl><Point><coordinates>3.15552234649658,41.9254803657532,0</coordinates></Point></Placemark>
<Placemark><name>PALA57</name><description>221857 PORT.COM PALA (Girona)
posicio de les: 06/08/2018 00:41:07</description><styleUrl>#w_verdP</styleUrl><Point><coordinates>3.1561017036438,41.9256734848022,0</coordinates></Point></Placemark>
<Placemark><name>RIPO56</name><description>222156 PORT.COM RIPO (Girona)
posicio de les: 06/08/2018 00:37:33</description><styleUrl>#w_verdP</styleUrl><Point><coordinates>2.16904878616333,42.2148048877716,0</coordinates></Point></Placemark>
<Placemark><name>RIPO57</name><description>222157 PORT.COM RIPO (Girona)
posicio de les: 06/08/2018 00:41:58</description><styleUrl>#w_grocP</styleUrl><Point><coordinates>2.16831922531128,42.214686870575,0</coordinates></Point></Placemark>
<Placemark><name>ROSE01</name><description>222201 PORT ROSE (Girona)
posicio de les: 06/08/2018 00:41:07</description><styleUrl>#w_grocP</styleUrl><Point><coordinates>3.16086530685425,42.276463508606,0</coordinates></Point></Placemark>
<Placemark><name>ROSE56</name><description>222256 PORT.COM ROSE (Girona)
posicio de les: 06/08/2018 00:41:38</description><styleUrl>#w_grocP</styleUrl><Point><coordinates>3.16088676452637,42.2764849662781,0</coordinates></Point></Placemark>
<Placemark><name>TORR56</name><description>222656 PORT.COM TORR (Girona)
posicio de les: 06/08/2018 00:41:00</description><styleUrl>#w_verdP</styleUrl><Point><coordinates>3.16739916801453,42.0479929447174,0</coordinates></Point></Placemark>
<Placemark><name>VALL56</name><description>222856 PORT.COM VALL (Girona)
posicio de les: 06/08/2018 00:36:35</description><styleUrl>#w_grocP</styleUrl><Point><coordinates>3.03163647651672,41.8087935447693,0</coordinates></Point></Placemark>
<Placemark><name>D7REG</name><description>228047  SERVEIS REGIÓ
posicio de les: 06/08/2018 00:42:07</description><styleUrl>#w_verd</styleUrl><Point><coordinates>2.80640602111816,41.9600057601929,0</coordinates></Point></Placemark>
<Placemark><name>C30RELL</name><description>230018 P.Tec REGIÓ
posicio de les: 06/08/2018 00:40:08</description><styleUrl>#w_verdP</styleUrl><Point><coordinates>0.604580640792847,41.6237962245941,0</coordinates></Point></Placemark>
<Placemark><name>FTREMP1</name><description>230073  REGIÓ
posicio de les: 06/08/2018 00:41:05</description><styleUrl>#w_verd</styleUrl><Point><coordinates>0.630501508712769,41.6164255142212,0</coordinates></Point></Placemark>
<Placemark><name>30083</name><description>230083  REGIÓ
posicio de les: 06/08/2018 00:41:00</description><styleUrl>#w_groc</styleUrl><Point><coordinates>0.630651712417603,41.6162109375,0</coordinates></Point></Placemark>
<Placemark><name>30091</name><description>230091  REGIÓ
posicio de les: 06/08/2018 00:42:05</description><styleUrl>#w_groc</styleUrl><Point><coordinates>0.631499290466309,41.6164791584015,0</coordinates></Point></Placemark>
<Placemark><name>30092</name><description>230092  REGIÓ
posicio de les: 06/08/2018 00:37:57</description><styleUrl>#w_groc</styleUrl><Point><coordinates>0.63145637512207,41.6165435314178,0</coordinates></Point></Placemark>
<Placemark><name>30095</name><description>230095  REGIÓ
posicio de les: 06/08/2018 00:41:19</description><styleUrl>#w_groc</styleUrl><Point><coordinates>0.605009794235229,41.6234529018402,0</coordinates></Point></Placemark>
<Placemark><name>30098</name><description>230098  REGIÓ
posicio de les: 06/08/2018 00:40:55</description><styleUrl>#w_groc</styleUrl><Point><coordinates>0.6307053565979,41.6162216663361,0</coordinates></Point></Placemark>
<Placemark><name>ALMA03</name><description>230303 PORT ALMA (Lleida)
posicio de les: 06/08/2018 00:38:29</description><styleUrl>#w_verdP</styleUrl><Point><coordinates>0.433176755905151,41.7311811447144,0</coordinates></Point></Placemark>
<Placemark><name>30330</name><description>230330 BRP ALMA (Lleida)
posicio de les: 06/08/2018 00:38:39</description><styleUrl>#w_verdC</styleUrl><Point><coordinates>0.433745384216309,41.7315459251404,0</coordinates></Point></Placemark>
<Placemark><name>BORG01</name><description>230701 PORT BORG (Lleida)
posicio de les: 06/08/2018 00:36:23</description><styleUrl>#w_verdP</styleUrl><Point><coordinates>0.845282077789307,41.506884098053,0</coordinates></Point></Placemark>
<Placemark><name>LLEI04</name><description>231904 PORT LLEI (Lleida)
posicio de les: 06/08/2018 00:41:27</description><styleUrl>#w_verdP</styleUrl><Point><coordinates>0.630297660827637,41.616393327713,0</coordinates></Point></Placemark>
<Placemark><name>LLEI05</name><description>231905 PORT LLEI (Lleida)
posicio de les: 06/08/2018 00:41:48</description><styleUrl>#w_grocP</styleUrl><Point><coordinates>0.631381273269653,41.6164684295654,0</coordinates></Point></Placemark>
<Placemark><name>LLEI13</name><description>231913 PORT LLEI (Lleida)
posicio de les: 06/08/2018 00:41:45</description><styleUrl>#w_verdP</styleUrl><Point><coordinates>0.604709386825562,41.6245687007904,0</coordinates></Point></Placemark>
<Placemark><name>31940</name><description>231940 BUP LLEI (Lleida)
posicio de les: 06/08/2018 00:41:56</description><styleUrl>#w_grocC</styleUrl><Point><coordinates>0.630555152893066,41.6162967681885,0</coordinates></Point></Placemark>
<Placemark><name>31948</name><description>231948 BUL LLEI (Lleida)
posicio de les: 06/08/2018 00:41:37</description><styleUrl>#w_grocC</styleUrl><Point><coordinates>0.63145637512207,41.6168546676636,0</coordinates></Point></Placemark>
<Placemark><name>31960</name><description>231960 AEA/AES/ABA LLEI (Lleida)
posicio de les: 06/08/2018 00:41:57</description><styleUrl>#w_grocC</styleUrl><Point><coordinates>0.630286931991577,41.6164040565491,0</coordinates></Point></Placemark>
<Placemark><name>32031</name><description>232031 BRP MOLL (Lleida)
posicio de les: 06/08/2018 00:42:01</description><styleUrl>#w_grocC</styleUrl><Point><coordinates>0.631617307662964,41.6165328025818,0</coordinates></Point></Placemark>
<Placemark><name>MOLL56</name><description>232056 PORT.COM MOLL (Lleida)
posicio de les: 06/08/2018 00:39:06</description><styleUrl>#w_grocP</styleUrl><Point><coordinates>0.630501508712769,41.6162323951721,0</coordinates></Point></Placemark>
<Placemark><name>32090</name><description>232090 UPC MOLL (Lleida)
posicio de les: 06/08/2018 00:42:06</description><styleUrl>#w_groc</styleUrl><Point><coordinates>0.630995035171509,41.616393327713,0</coordinates></Point></Placemark>
<Placemark><name>OLIA01</name><description>232201 PORT OLIA (Lleida)
posicio de les: 06/08/2018 00:41:17</description><styleUrl>#w_grocP</styleUrl><Point><coordinates>0.630909204483032,41.6163289546967,0</coordinates></Point></Placemark>
<Placemark><name>OLIA56</name><description>232256 PORT.COM OLIA (Lleida)
posicio de les: 06/08/2018 00:41:03</description><styleUrl>#w_verdP</styleUrl><Point><coordinates>0.630866289138794,41.6163182258606,0</coordinates></Point></Placemark>
<Placemark><name>32290</name><description>232290 UPC OLIA (Lleida)
posicio de les: 06/08/2018 00:42:07</description><styleUrl>#w_groc</styleUrl><Point><coordinates>0.630683898925781,41.6164255142212,0</coordinates></Point></Placemark>
<Placemark><name>POBL01</name><description>232401 PORT POBL (Lleida)
posicio de les: 06/08/2018 00:41:05</description><styleUrl>#w_grocP</styleUrl><Point><coordinates>0.964576005935669,42.2387516498566,0</coordinates></Point></Placemark>
<Placemark><name>PONT05</name><description>232505 PORT PONT (Lleida)
posicio de les: 06/08/2018 00:38:48</description><styleUrl>#w_verdP</styleUrl><Point><coordinates>0.739699602127075,42.4107563495636,0</coordinates></Point></Placemark>
<Placemark><name>33131</name><description>233131 BRP TAR (Lleida)
posicio de les: 06/08/2018 00:41:25</description><styleUrl>#w_grocC</styleUrl><Point><coordinates>0.631821155548096,41.6165006160736,0</coordinates></Point></Placemark>
<Placemark><name>TREM05</name><description>233305 PORT TREM (Lleida)
posicio de les: 06/08/2018 00:42:06</description><styleUrl>#w_verdP</styleUrl><Point><coordinates>0.889077186584473,42.1642506122589,0</coordinates></Point></Placemark>
<Placemark><name>TREM07</name><description>233307 PORT TREM (Lleida)
posicio de les: 06/08/2018 00:40:45</description><styleUrl>#w_verdP</styleUrl><Point><coordinates>0.889774560928345,42.1649372577667,0</coordinates></Point></Placemark>
<Placemark><name>TREM56</name><description>233356 PORT.COM TREM (Lleida)
posicio de les: 06/08/2018 00:41:18</description><styleUrl>#w_verdP</styleUrl><Point><coordinates>0.888926982879639,42.167683839798,0</coordinates></Point></Placemark>
<Placemark><name>FMOLL2</name><description>234508 PORT Parc X
posicio de les: 06/08/2018 00:42:07</description><styleUrl>#w_verdP</styleUrl><Point><coordinates>0.905674695968628,41.6224229335785,0</coordinates></Point></Placemark>
<Placemark><name>FTAR1</name><description>234513 PORT Parc X
posicio de les: 06/08/2018 00:42:07</description><styleUrl>#w_grocP</styleUrl><Point><coordinates>1.14950895309448,41.6513156890869,0</coordinates></Point></Placemark>
<Placemark><name>FTREM59</name><description>234559 BSAL Parc X
posicio de les: 06/08/2018 00:40:51</description><styleUrl>#w_grocB</styleUrl><Point><coordinates>0.630565881729126,41.6164684295654,0</coordinates></Point></Placemark>
<Placemark><name>I407</name><description>237407 P.GUAITA GUAITA
posicio de les: 06/08/2018 00:40:33</description><styleUrl>#w_verdP</styleUrl><Point><coordinates>0.966678857803345,42.2528386116028,0</coordinates></Point></Placemark>
<Placemark><name>REMN11</name><description>240011 P.Tec REGIÓ
posicio de les: 06/08/2018 00:36:39</description><styleUrl>#w_verdP</styleUrl><Point><coordinates>2.11215376853943,41.501852273941,0</coordinates></Point></Placemark>
<Placemark><name>E0REMN</name><description>240012 P.Tec REGIÓ
posicio de les: 06/08/2018 00:41:07</description><styleUrl>#w_grocP</styleUrl><Point><coordinates>2.27488875389099,41.5904188156128,0</coordinates></Point></Placemark>
<Placemark><name>REMN14</name><description>240014 P.Tec REGIÓ
posicio de les: 06/08/2018 00:39:20</description><styleUrl>#w_verdP</styleUrl><Point><coordinates>2.0255720615387,41.5681886672974,0</coordinates></Point></Placemark>
<Placemark><name>40091</name><description>240091  REGIÓ
posicio de les: 06/08/2018 00:40:52</description><styleUrl>#w_groc</styleUrl><Point><coordinates>2.11118817329407,41.5019917488098,0</coordinates></Point></Placemark>
<Placemark><name>BAD02</name><description>240202 PORT BAD (Metro. Nord)
posicio de les: 06/08/2018 00:41:38</description><styleUrl>#w_verdP</styleUrl><Point><coordinates>2.23812103271484,41.4650416374207,0</coordinates></Point></Placemark>
<Placemark><name>40290</name><description>240290 UPC BAD (Metro. Nord)
posicio de les: 06/08/2018 00:40:13</description><styleUrl>#w_groc</styleUrl><Point><coordinates>2.0258617401123,41.5679955482483,0</coordinates></Point></Placemark>
<Placemark><name>CER03</name><description>240503 PORT CER (Metro. Nord)
posicio de les: 06/08/2018 00:40:02</description><styleUrl>#w_verdP</styleUrl><Point><coordinates>2.11145639419556,41.501852273941,0</coordinates></Point></Placemark>
<Placemark><name>240556</name><description>240556 PORT.COM CER (Metro. Nord)
posicio de les: 06/08/2018 00:38:52</description><styleUrl>#w_verdP</styleUrl><Point><coordinates>2.11129546165466,41.5026783943176,0</coordinates></Point></Placemark>
<Placemark><name>GRA01</name><description>240601 PORT GRA (Metro. Nord)
posicio de les: 06/08/2018 00:41:37</description><styleUrl>#w_verdP</styleUrl><Point><coordinates>2.27464199066162,41.5908801555634,0</coordinates></Point></Placemark>
<Placemark><name>GRA13</name><description>240613 PORT GRA (Metro. Nord)
posicio de les: 06/08/2018 00:41:31</description><styleUrl>#w_verdP</styleUrl><Point><coordinates>2.27492094039917,41.590461730957,0</coordinates></Point></Placemark>
<Placemark><name>40640</name><description>240640 BUP GRA (Metro. Nord)
posicio de les: 06/08/2018 00:42:15</description><styleUrl>#w_verdC</styleUrl><Point><coordinates>2.30924248695374,41.6105353832245,0</coordinates></Point></Placemark>
<Placemark><name>MOL03</name><description>241003 PORT MOL (Metro. Nord)
posicio de les: 06/08/2018 00:39:55</description><styleUrl>#w_verdP</styleUrl><Point><coordinates>2.20148205757141,41.5370321273804,0</coordinates></Point></Placemark>
<Placemark><name>SAB06</name><description>241406 PORT SAB (Metro. Nord)
posicio de les: 06/08/2018 00:41:42</description><styleUrl>#w_verdP</styleUrl><Point><coordinates>2.10413932800293,41.5421068668365,0</coordinates></Point></Placemark>
<Placemark><name>CMSAB20</name><description>241420 PORT SAB (Metro. Nord)
posicio de les: 06/08/2018 00:41:20</description><styleUrl>#w_grocP</styleUrl><Point><coordinates>2.1039354801178,41.5426433086395,0</coordinates></Point></Placemark>
<Placemark><name>241440</name><description>241440 BUP SAB (Metro. Nord)
posicio de les: 06/08/2018 00:41:39</description><styleUrl>#w_verdC</styleUrl><Point><coordinates>2.10418224334717,41.5420424938202,0</coordinates></Point></Placemark>
<Placemark><name>SCG09</name><description>241809 PORT SCG (Metro. Nord)
posicio de les: 06/08/2018 00:40:18</description><styleUrl>#w_verdP</styleUrl><Point><coordinates>2.20924973487854,41.4634001255035,0</coordinates></Point></Placemark>
<Placemark><name>241858</name><description>241858 BSAL SCG (Metro. Nord)
posicio de les: 06/08/2018 00:38:34</description><styleUrl>#w_grocB</styleUrl><Point><coordinates>2.20918536186218,41.4633679389954,0</coordinates></Point></Placemark>
<Placemark><name>TER01</name><description>242001 PORT TER (Metro. Nord)
posicio de les: 06/08/2018 00:41:38</description><styleUrl>#w_verdP</styleUrl><Point><coordinates>2.02588319778442,41.5687251091003,0</coordinates></Point></Placemark>
<Placemark><name>TER07</name><description>242007 PORT TER (Metro. Nord)
posicio de les: 06/08/2018 00:40:04</description><styleUrl>#w_verdP</styleUrl><Point><coordinates>2.02625870704651,41.5681886672974,0</coordinates></Point></Placemark>
<Placemark><name>TOD56</name><description>242156 PORT.COM TOD (Metro. Nord)
posicio de les: 06/08/2018 00:38:57</description><styleUrl>#w_verdP</styleUrl><Point><coordinates>2.71629452705383,41.6913664340973,0</coordinates></Point></Placemark>
<Placemark><name>D9REMN</name><description>248049  SERVEIS REGIÓ
posicio de les: 06/08/2018 00:38:25</description><styleUrl>#w_verd</styleUrl><Point><coordinates>2.11226105690002,41.5021955966949,0</coordinates></Point></Placemark>
<Placemark><name>50092</name><description>250092  REGIÓ
posicio de les: 06/08/2018 00:41:15</description><styleUrl>#w_verd</styleUrl><Point><coordinates>1.70457601547241,41.3546741008759,0</coordinates></Point></Placemark>
<Placemark><name>COR05</name><description>250405 PORT COR (Metro. Sud)
posicio de les: 06/08/2018 00:38:25</description><styleUrl>#w_verdP</styleUrl><Point><coordinates>2.0700216293335,41.3602316379547,0</coordinates></Point></Placemark>
<Placemark><name>COR10</name><description>250410 PORT COR (Metro. Sud)
posicio de les: 06/08/2018 00:38:56</description><styleUrl>#w_verdP</styleUrl><Point><coordinates>2.07068681716919,41.361358165741,0</coordinates></Point></Placemark>
<Placemark><name>GAV01</name><description>250501 PORT GAV (Metro. Sud)
posicio de les: 06/08/2018 00:41:13</description><styleUrl>#w_verdP</styleUrl><Point><coordinates>1.99074625968933,41.3003647327423,0</coordinates></Point></Placemark>
<Placemark><name>GAV56</name><description>250556 PORT.COM GAV (Metro. Sud)
posicio de les: 06/08/2018 00:39:17</description><styleUrl>#w_verdP</styleUrl><Point><coordinates>1.99055314064026,41.3000428676605,0</coordinates></Point></Placemark>
<Placemark><name>50560</name><description>250560 AEA/AES/ABA GAV (Metro. Sud)
posicio de les: 06/08/2018 00:37:29</description><styleUrl>#w_verdC</styleUrl><Point><coordinates>2.10570573806763,41.3694584369659,0</coordinates></Point></Placemark>
<Placemark><name>HOS02</name><description>250702 PORT HOS (Metro. Sud)
posicio de les: 06/08/2018 00:40:21</description><styleUrl>#w_verdP</styleUrl><Point><coordinates>2.105952501297,41.3702309131622,0</coordinates></Point></Placemark>
<Placemark><name>250740</name><description>250740 BUP HOS (Metro. Sud)
posicio de les: 06/08/2018 00:37:23</description><styleUrl>#w_verdC</styleUrl><Point><coordinates>2.105952501297,41.3695335388184,0</coordinates></Point></Placemark>
<Placemark><name>LLA03</name><description>250903 PORT LLA (Metro. Sud)
posicio de les: 06/08/2018 00:41:20</description><styleUrl>#w_grocP</styleUrl><Point><coordinates>1.53038263320923,41.4734637737274,0</coordinates></Point></Placemark>
<Placemark><name>MAR57</name><description>251057 PORT.COM MAR (Metro. Sud)
posicio de les: 06/08/2018 00:41:05</description><styleUrl>#w_verdP</styleUrl><Point><coordinates>1.90806984901428,41.4988267421722,0</coordinates></Point></Placemark>
<Placemark><name>SFE57</name><description>251557 PORT.COM SFE (Metro. Sud)
posicio de les: 06/08/2018 00:41:15</description><styleUrl>#w_grocP</styleUrl><Point><coordinates>2.04313516616821,41.3887274265289,0</coordinates></Point></Placemark>
<Placemark><name>CMS15</name><description>254515 PORT Parc X
posicio de les: 06/08/2018 00:37:03</description><styleUrl>#w_verdP</styleUrl><Point><coordinates>1.7042863368988,41.3542127609253,0</coordinates></Point></Placemark>
<Placemark><name>I215</name><description>257215 P.GUAITA GUAITA
posicio de les: 06/08/2018 00:40:58</description><styleUrl>#w_grocP</styleUrl><Point><coordinates>1.66406393051147,41.4991164207459,0</coordinates></Point></Placemark>
<Placemark><name>D1REMS</name><description>258041  SERVEIS REGIÓ
posicio de les: 06/08/2018 00:42:21</description><styleUrl>#w_verd</styleUrl><Point><coordinates>2.03389763832092,41.3222408294678,0</coordinates></Point></Placemark>
<Placemark><name>RET11</name><description>260011 P.Tec REGIÓ
posicio de les: 06/08/2018 00:40:45</description><styleUrl>#w_verdP</styleUrl><Point><coordinates>1.185622215271,41.1347222328186,0</coordinates></Point></Placemark>
<Placemark><name>FALS06</name><description>260406 PORT FALS (Tarragona)
posicio de les: 06/08/2018 00:41:52</description><styleUrl>#w_verdP</styleUrl><Point><coordinates>0.823212862014771,41.1473393440247,0</coordinates></Point></Placemark>
<Placemark><name>260508</name><description>260508 PORT HOSP (Tarragona)
posicio de les: 06/08/2018 00:41:00</description><styleUrl>#w_verdP</styleUrl><Point><coordinates>0.920008420944214,40.9935736656189,0</coordinates></Point></Placemark>
<Placemark><name>260530</name><description>260530 BRP HOSP (Tarragona)
posicio de les: 06/08/2018 00:41:00</description><styleUrl>#w_verdC</styleUrl><Point><coordinates>0.922905206680298,40.993595123291,0</coordinates></Point></Placemark>
<Placemark><name>MONT02</name><description>260602 PORT MONT (Tarragona)
posicio de les: 06/08/2018 00:41:46</description><styleUrl>#w_verdP</styleUrl><Point><coordinates>1.01710438728333,41.4174056053162,0</coordinates></Point></Placemark>
<Placemark><name>60630</name><description>260630 BRP MONT (Tarragona)
posicio de les: 06/08/2018 00:42:16</description><styleUrl>#w_verdC</styleUrl><Point><coordinates>1.02697491645813,41.4124381542206,0</coordinates></Point></Placemark>
<Placemark><name>60844</name><description>260844 BNP REUS (Tarragona)
posicio de les: 06/08/2018 00:41:40</description><styleUrl>#w_grocC</styleUrl><Point><coordinates>1.11810564994812,41.1509335041046,0</coordinates></Point></Placemark>
<Placemark><name>60890</name><description>260890 UPC REUS (Tarragona)
posicio de les: 06/08/2018 00:39:59</description><styleUrl>#w_verd</styleUrl><Point><coordinates>1.11796617507935,41.1506330966949,0</coordinates></Point></Placemark>
<Placemark><name>61234</name><description>261234 BFP TARR (Tarragona)
posicio de les: 06/08/2018 00:41:19</description><styleUrl>#w_grocC</styleUrl><Point><coordinates>1.22090935707092,41.1140370368958,0</coordinates></Point></Placemark>
<Placemark><name>VALS56</name><description>261356 PORT.COM VALS (Tarragona)
posicio de les: 06/08/2018 00:39:35</description><styleUrl>#w_verdP</styleUrl><Point><coordinates>1.26099228858948,41.3056433200836,0</coordinates></Point></Placemark>
<Placemark><name>61390</name><description>261390 UPC VALS (Tarragona)
posicio de les: 06/08/2018 00:40:02</description><styleUrl>#w_groc</styleUrl><Point><coordinates>1.25921130180359,41.3072848320007,0</coordinates></Point></Placemark>
<Placemark><name>VEND03</name><description>261403 PORT VEND (Tarragona)
posicio de les: 06/08/2018 00:41:26</description><styleUrl>#w_verdP</styleUrl><Point><coordinates>1.45469069480896,41.1829376220703,0</coordinates></Point></Placemark>
<Placemark><name>VEND05</name><description>261405 PORT VEND (Tarragona)
posicio de les: 06/08/2018 00:41:39</description><styleUrl>#w_verdP</styleUrl><Point><coordinates>1.45284533500671,41.1830770969391,0</coordinates></Point></Placemark>
<Placemark><name>VEND10</name><description>261410 PORT VEND (Tarragona)
posicio de les: 06/08/2018 00:40:32</description><styleUrl>#w_verdP</styleUrl><Point><coordinates>1.54067158699036,41.2223553657532,0</coordinates></Point></Placemark>
<Placemark><name>61434</name><description>261434 BFP VEND (Tarragona)
posicio de les: 06/08/2018 00:42:13</description><styleUrl>#w_verdC</styleUrl><Point><coordinates>1.449294090271,41.1843967437744,0</coordinates></Point></Placemark>
<Placemark><name>E00RETE</name><description>270014 P.Tec REGIÓ
posicio de les: 06/08/2018 00:41:22</description><styleUrl>#w_verdP</styleUrl><Point><coordinates>0.513256788253784,40.8192837238312,0</coordinates></Point></Placemark>
<Placemark><name>GAND56</name><description>272656 PORT.COM GAND (Terres de l'Ebre)
posicio de les: 06/08/2018 00:39:22</description><styleUrl>#w_verdP</styleUrl><Point><coordinates>0.439174175262451,41.0585796833038,0</coordinates></Point></Placemark>
<Placemark><name>MORA56</name><description>272856 PORT.COM MORA (Terres de l'Ebre)
posicio de les: 06/08/2018 00:40:57</description><styleUrl>#w_verdP</styleUrl><Point><coordinates>0.629611015319824,41.0858523845673,0</coordinates></Point></Placemark>
<Placemark><name>E_93</name><description>278031  SERVEIS REGIÓ
posicio de les: 06/08/2018 00:41:24</description><styleUrl>#w_verd</styleUrl><Point><coordinates>0.513203144073486,40.8193051815033,0</coordinates></Point></Placemark>
</Folder>
<Folder>
<name>Descarregues</name>
</Folder>
<Style id="w_verdP_n"><IconStyle><color>ff00ff00</color><scale>1.0</scale><Icon><href>http://maps.google.com/mapfiles/kml/shapes/man.png</href></Icon><hotSpot x="0.5" y="0" xunits="fraction" yunits="fraction"/></IconStyle><LabelStyle><scale>0.7</scale></LabelStyle></Style>
<Style id="w_verdP_s"><IconStyle><color>ff00ff00</color><scale>1.4</scale><Icon><href>http://maps.google.com/mapfiles/kml/shapes/man.png</href></Icon><hotSpot x="0.5" y="0" xunits="fraction" yunits="fraction"/></IconStyle><LabelStyle><scale>0.7</scale></LabelStyle></Style>
<StyleMap id="w_verdP"><Pair><key>normal</key><styleUrl>#w_verdP_n</styleUrl></Pair><Pair><key>highlight</key><styleUrl>#w_verdP_s</styleUrl></Pair></StyleMap>
<Style id="w_verd_n"><IconStyle><color>ff00ff00</color><scale>0.7</scale><Icon><href>http://maps.google.com/mapfiles/kml/shapes/cabs.png</href></Icon><hotSpot x="0.5" y="0" xunits="fraction" yunits="fraction"/></IconStyle><LabelStyle><scale>0.7</scale></LabelStyle></Style>
<Style id="w_verd_s"><IconStyle><color>ff00ff00</color><scale>1.0</scale><Icon><href>http://maps.google.com/mapfiles/kml/shapes/cabs.png</href></Icon><hotSpot x="0.5" y="0" xunits="fraction" yunits="fraction"/></IconStyle><LabelStyle><scale>0.7</scale></LabelStyle></Style>
<StyleMap id="w_verd"><Pair><key>normal</key><styleUrl>#w_verd_n</styleUrl></Pair><Pair><key>highlight</key><styleUrl>#w_verd_s</styleUrl></Pair></StyleMap>
<Style id="w_verdC_n"><IconStyle><color>ff00ff00</color><scale>1.0</scale><Icon><href>http://maps.google.com/mapfiles/kml/shapes/truck.png</href></Icon><hotSpot x="0.5" y="0" xunits="fraction" yunits="fraction"/></IconStyle><LabelStyle><scale>0.7</scale></LabelStyle></Style>
<Style id="w_verdC_s"><IconStyle><color>ff00ff00</color><scale>1.4</scale><Icon><href>http://maps.google.com/mapfiles/kml/shapes/truck.png</href></Icon><hotSpot x="0.5" y="0" xunits="fraction" yunits="fraction"/></IconStyle><LabelStyle><scale>0.7</scale></LabelStyle></Style>
<StyleMap id="w_verdC"><Pair><key>normal</key><styleUrl>#w_verdC_n</styleUrl></Pair><Pair><key>highlight</key><styleUrl>#w_verdC_s</styleUrl></Pair></StyleMap>
<Style id="w_verdH_n"><IconStyle><color>ff0000ff</color><scale>1.2</scale><Icon><href>http://maps.google.com/mapfiles/kml/shapes/heliport.png</href></Icon><hotSpot x="0.5" y="0" xunits="fraction" yunits="fraction"/></IconStyle><LabelStyle><scale>0.7</scale></LabelStyle></Style>
<Style id="w_verdH_s"><IconStyle><color>ff0000ff</color><scale>1.4</scale><Icon><href>http://maps.google.com/mapfiles/kml/shapes/heliport.png</href></Icon><hotSpot x="0.5" y="0" xunits="fraction" yunits="fraction"/></IconStyle><LabelStyle><scale>0.7</scale></LabelStyle></Style>
<StyleMap id="w_verdH"><Pair><key>normal</key><styleUrl>#w_verdH_n</styleUrl></Pair><Pair><key>highlight</key><styleUrl>#w_verdH_s</styleUrl></Pair></StyleMap>
<Style id="w_verdA_n"><IconStyle><color>ff0000ff</color><scale>1.2</scale><Icon><href>http://maps.google.com/mapfiles/kml/shapes/airports.png</href></Icon><hotSpot x="0.5" y="0" xunits="fraction" yunits="fraction"/></IconStyle><LabelStyle><scale>0.7</scale></LabelStyle></Style>
<Style id="w_verdA_s"><IconStyle><color>ff0000ff</color><scale>1.4</scale><Icon><href>http://maps.google.com/mapfiles/kml/shapes/airports.png</href></Icon><hotSpot x="0.5" y="0" xunits="fraction" yunits="fraction"/></IconStyle><LabelStyle><scale>0.7</scale></LabelStyle></Style>
<StyleMap id="w_verdA"><Pair><key>normal</key><styleUrl>#w_verdA_n</styleUrl></Pair><Pair><key>highlight</key><styleUrl>#w_verdA_s</styleUrl></Pair></StyleMap>
<Style id="w_verdB_n"><IconStyle><color>ff00ff00</color><scale>1.0</scale><Icon><href>http://maps.google.com/mapfiles/kml/shapes/sailing.png</href></Icon><hotSpot x="0.5" y="0" xunits="fraction" yunits="fraction"/></IconStyle><LabelStyle><scale>0.7</scale></LabelStyle></Style>
<Style id="w_verdB_s"><IconStyle><color>ff00ff00</color><scale>1.4</scale><Icon><href>http://maps.google.com/mapfiles/kml/shapes/sailing.png</href></Icon><hotSpot x="0.5" y="0" xunits="fraction" yunits="fraction"/></IconStyle><LabelStyle><scale>0.7</scale></LabelStyle></Style>
<StyleMap id="w_verdB"><Pair><key>normal</key><styleUrl>#w_verdBAR_n</styleUrl></Pair><Pair><key>highlight</key><styleUrl>#w_verdBAR_s</styleUrl></Pair></StyleMap>
<Style id="w_grocP_n"><IconStyle><color>ff00ffff</color><scale>1.0</scale><Icon><href>http://maps.google.com/mapfiles/kml/shapes/man.png</href></Icon><hotSpot x="0.5" y="0" xunits="fraction" yunits="fraction"/></IconStyle><LabelStyle><scale>0.7</scale></LabelStyle></Style>
<Style id="w_grocP_s"><IconStyle><color>ff00ffff</color><scale>1.4</scale><Icon><href>http://maps.google.com/mapfiles/kml/shapes/man.png</href></Icon><hotSpot x="0.5" y="0" xunits="fraction" yunits="fraction"/></IconStyle><LabelStyle><scale>0.7</scale></LabelStyle></Style>
<StyleMap id="w_grocP"><Pair><key>normal</key><styleUrl>#w_grocP_n</styleUrl></Pair><Pair><key>highlight</key><styleUrl>#w_grocP_s</styleUrl></Pair></StyleMap>
<Style id="w_groc_n"><IconStyle><color>ff00ffff</color><scale>0.7</scale><Icon><href>http://maps.google.com/mapfiles/kml/shapes/cabs.png</href></Icon><hotSpot x="0.5" y="0" xunits="fraction" yunits="fraction"/></IconStyle><LabelStyle><scale>0.7</scale></LabelStyle></Style>
<Style id="w_groc_s"><IconStyle><color>ff00ffff</color><scale>1.0</scale><Icon><href>http://maps.google.com/mapfiles/kml/shapes/cabs.png</href></Icon><hotSpot x="0.5" y="0" xunits="fraction" yunits="fraction"/></IconStyle><LabelStyle><scale>0.7</scale></LabelStyle></Style>
<StyleMap id="w_groc"><Pair><key>normal</key><styleUrl>#w_groc_n</styleUrl></Pair><Pair><key>highlight</key><styleUrl>#w_groc_s</styleUrl></Pair></StyleMap>
<Style id="w_grocC_n"><IconStyle><color>ff00ffff</color><scale>1.0</scale><Icon><href>http://maps.google.com/mapfiles/kml/shapes/truck.png</href></Icon><hotSpot x="0.5" y="0" xunits="fraction" yunits="fraction"/></IconStyle><LabelStyle><scale>0.7</scale></LabelStyle></Style>
<Style id="w_grocC_s"><IconStyle><color>ff00ffff</color><scale>1.4</scale><Icon><href>http://maps.google.com/mapfiles/kml/shapes/truck.png</href></Icon><hotSpot x="0.5" y="0" xunits="fraction" yunits="fraction"/></IconStyle><LabelStyle><scale>0.7</scale></LabelStyle></Style>
<StyleMap id="w_grocC"><Pair><key>normal</key><styleUrl>#w_grocC_n</styleUrl></Pair><Pair><key>highlight</key><styleUrl>#w_grocC_s</styleUrl></Pair></StyleMap>
<Style id="w_grocH_n"><IconStyle><color>ff0000ff</color><scale>1.2</scale><Icon><href>http://maps.google.com/mapfiles/kml/shapes/heliport.png</href></Icon><hotSpot x="0.5" y="0" xunits="fraction" yunits="fraction"/></IconStyle><LabelStyle><scale>0.7</scale></LabelStyle></Style>
<Style id="w_grocH_s"><IconStyle><color>ff0000ff</color><scale>1.4</scale><Icon><href>http://maps.google.com/mapfiles/kml/shapes/heliport.png</href></Icon><hotSpot x="0.5" y="0" xunits="fraction" yunits="fraction"/></IconStyle><LabelStyle><scale>0.7</scale></LabelStyle></Style>
<StyleMap id="w_grocH"><Pair><key>normal</key><styleUrl>#w_grocH_n</styleUrl></Pair><Pair><key>highlight</key><styleUrl>#w_grocH_s</styleUrl></Pair></StyleMap>
<Style id="w_grocA_n"><IconStyle><color>ff0000ff</color><scale>1.2</scale><Icon><href>http://maps.google.com/mapfiles/kml/shapes/airports.png</href></Icon><hotSpot x="0.5" y="0" xunits="fraction" yunits="fraction"/></IconStyle><LabelStyle><scale>0.7</scale></LabelStyle></Style>
<Style id="w_grocA_s"><IconStyle><color>ff0000ff</color><scale>1.4</scale><Icon><href>http://maps.google.com/mapfiles/kml/shapes/airports.png</href></Icon><hotSpot x="0.5" y="0" xunits="fraction" yunits="fraction"/></IconStyle><LabelStyle><scale>0.7</scale></LabelStyle></Style>
<StyleMap id="w_grocA"><Pair><key>normal</key><styleUrl>#w_grocA_n</styleUrl></Pair><Pair><key>highlight</key><styleUrl>#w_grocA_s</styleUrl></Pair></StyleMap>
<Style id="w_grocB_n"><IconStyle><color>ff00ffff</color><scale>1.0</scale><Icon><href>http://maps.google.com/mapfiles/kml/shapes/sailing.png</href></Icon><hotSpot x="0.5" y="0" xunits="fraction" yunits="fraction"/></IconStyle><LabelStyle><scale>0.7</scale></LabelStyle></Style>
<Style id="w_grocB_s"><IconStyle><color>ff00ffff</color><scale>1.4</scale><Icon><href>http://maps.google.com/mapfiles/kml/shapes/sailing.png</href></Icon><hotSpot x="0.5" y="0" xunits="fraction" yunits="fraction"/></IconStyle><LabelStyle><scale>0.7</scale></LabelStyle></Style>
<StyleMap id="w_grocB"><Pair><key>normal</key><styleUrl>#w_grocBAR_n</styleUrl></Pair><Pair><key>highlight</key><styleUrl>#w_grocBAR_s</styleUrl></Pair></StyleMap>
<Style id="w_vermellP_n"><IconStyle><color>ff0000ff</color><scale>1.0</scale><Icon><href>http://maps.google.com/mapfiles/kml/shapes/man.png</href></Icon><hotSpot x="0.5" y="0" xunits="fraction" yunits="fraction"/></IconStyle><LabelStyle><scale>0.7</scale></LabelStyle></Style>
<Style id="w_vermellP_s"><IconStyle><color>ff0000ff</color><scale>1.4</scale><Icon><href>http://maps.google.com/mapfiles/kml/shapes/man.png</href></Icon><hotSpot x="0.5" y="0" xunits="fraction" yunits="fraction"/></IconStyle><LabelStyle><scale>0.7</scale></LabelStyle></Style>
<StyleMap id="w_vermellP"><Pair><key>normal</key><styleUrl>#w_vermellP_n</styleUrl></Pair><Pair><key>highlight</key><styleUrl>#w_vermellP_s</styleUrl></Pair></StyleMap>
<Style id="w_vermell_n"><IconStyle><color>ff0000ff</color><scale>0.7</scale><Icon><href>http://maps.google.com/mapfiles/kml/shapes/cabs.png</href></Icon><hotSpot x="0.5" y="0" xunits="fraction" yunits="fraction"/></IconStyle><LabelStyle><scale>0.7</scale></LabelStyle></Style>
<Style id="w_vermell_s"><IconStyle><color>ff0000ff</color><scale>1.0</scale><Icon><href>http://maps.google.com/mapfiles/kml/shapes/cabs.png</href></Icon><hotSpot x="0.5" y="0" xunits="fraction" yunits="fraction"/></IconStyle><LabelStyle><scale>0.7</scale></LabelStyle></Style>
<StyleMap id="w_vermell"><Pair><key>normal</key><styleUrl>#w_vermell_n</styleUrl></Pair><Pair><key>highlight</key><styleUrl>#w_vermell_s</styleUrl></Pair></StyleMap>
<Style id="w_vermellC_n"><IconStyle><color>ff0000ff</color><scale>1.0</scale><Icon><href>http://maps.google.com/mapfiles/kml/shapes/truck.png</href></Icon><hotSpot x="0.5" y="0" xunits="fraction" yunits="fraction"/></IconStyle><LabelStyle><scale>0.7</scale></LabelStyle></Style>
<Style id="w_vermellC_s"><IconStyle><color>ff0000ff</color><scale>1.4</scale><Icon><href>http://maps.google.com/mapfiles/kml/shapes/truck.png</href></Icon><hotSpot x="0.5" y="0" xunits="fraction" yunits="fraction"/></IconStyle><LabelStyle><scale>0.7</scale></LabelStyle></Style>
<StyleMap id="w_vermellC"><Pair><key>normal</key><styleUrl>#w_vermellC_n</styleUrl></Pair><Pair><key>highlight</key><styleUrl>#w_vermellC_s</styleUrl></Pair></StyleMap>
<Style id="w_vermellH_n"><IconStyle><color>ff0000ff</color><scale>1.2</scale><Icon><href>http://maps.google.com/mapfiles/kml/shapes/heliport.png</href></Icon><hotSpot x="0.5" y="0" xunits="fraction" yunits="fraction"/></IconStyle><LabelStyle><scale>0.7</scale></LabelStyle></Style>
<Style id="w_vermellH_s"><IconStyle><color>ff0000ff</color><scale>1.4</scale><Icon><href>http://maps.google.com/mapfiles/kml/shapes/heliport.png</href></Icon><hotSpot x="0.5" y="0" xunits="fraction" yunits="fraction"/></IconStyle><LabelStyle><scale>0.7</scale></LabelStyle></Style>
<StyleMap id="w_vermellH"><Pair><key>normal</key><styleUrl>#w_vermellH_n</styleUrl></Pair><Pair><key>highlight</key><styleUrl>#w_vermellH_s</styleUrl></Pair></StyleMap>
<Style id="w_vermellA_n"><IconStyle><color>ff0000ff</color><scale>1.2</scale><Icon><href>http://maps.google.com/mapfiles/kml/shapes/airports.png</href></Icon><hotSpot x="0.5" y="0" xunits="fraction" yunits="fraction"/></IconStyle><LabelStyle><scale>0.7</scale></LabelStyle></Style>
<Style id="w_vermellA_s"><IconStyle><color>ff0000ff</color><scale>1.4</scale><Icon><href>http://maps.google.com/mapfiles/kml/shapes/airports.png</href></Icon><hotSpot x="0.5" y="0" xunits="fraction" yunits="fraction"/></IconStyle><LabelStyle><scale>0.7</scale></LabelStyle></Style>
<StyleMap id="w_vermellA"><Pair><key>normal</key><styleUrl>#w_vermellA_n</styleUrl></Pair><Pair><key>highlight</key><styleUrl>#w_vermellA_s</styleUrl></Pair></StyleMap>
<Style id="w_vermellB_n"><IconStyle><color>ff0000ff</color><scale>1.0</scale><Icon><href>http://maps.google.com/mapfiles/kml/shapes/sailing.png</href></Icon><hotSpot x="0.5" y="0" xunits="fraction" yunits="fraction"/></IconStyle><LabelStyle><scale>0.7</scale></LabelStyle></Style>
<Style id="w_vermellB_s"><IconStyle><color>ff0000ff</color><scale>1.4</scale><Icon><href>http://maps.google.com/mapfiles/kml/shapes/sailing.png</href></Icon><hotSpot x="0.5" y="0" xunits="fraction" yunits="fraction"/></IconStyle><LabelStyle><scale>0.7</scale></LabelStyle></Style>
<StyleMap id="w_vermellB"><Pair><key>normal</key><styleUrl>#w_vermellBAR_n</styleUrl></Pair><Pair><key>highlight</key><styleUrl>#w_vermellBAR_s</styleUrl></Pair></StyleMap>
<Style id="w_descarrega"><IconStyle><color>ff00ffff</color><scale>0.5</scale><Icon><href>http://maps.google.com/mapfiles/kml/shapes/road_shield3.png</href></Icon></IconStyle><LabelStyle><scale>0.7</scale></LabelStyle></Style><Style id="actuacio"><IconStyle><color>ff00ffff</color><scale>0.8</scale><Icon><href>http://maps.google.com/mapfiles/kml/shapes/caution.png</href></Icon></IconStyle><LabelStyle><scale>0.7</scale></LabelStyle></Style></Document></kml>