<?xml version="1.0" encoding="UTF-8"?>
<kml xmlns="http://www.opengis.net/kml/2.2" xmlns:gx="http://www.google.com/kml/ext/2.2" xmlns:kml="http://www.opengis.net/kml/2.2" xmlns:atom="http://www.w3.org/2005/Atom">
<Document>
<name>Terminals</name>
<Snippet maxLines="2">Created 05/08/2018 04:48:12</Snippet>
<Folder>
<name>Terminals</name>
<Placemark><name>GGRAF12</name><description>204212 P.REC
posicio de les: 05/08/2018 04:47:04</description><styleUrl>#w_verdP</styleUrl><Point><coordinates>2.97493457794189,42.029732465744,0</coordinates></Point></Placemark>
<Placemark><name>OP05087</name><description>205287 OP.AAV
posicio de les: 05/08/2018 04:47:28</description><styleUrl>#w_verdP</styleUrl><Point><coordinates>1.1581563949585,41.1480367183685,0</coordinates></Point></Placemark>
<Placemark><name>VIEL12</name><description>208012 P.PT VARAN
posicio de les: 05/08/2018 04:47:34</description><styleUrl>#w_grocP</styleUrl><Point><coordinates>0.801186561584473,42.6994585990906,0</coordinates></Point></Placemark>
<Placemark><name>VIEL17</name><description>208017 BASE CCA VARAN
posicio de les: 05/08/2018 04:47:55</description><styleUrl>#w_groc</styleUrl><Point><coordinates>0.79649806022644,42.7081060409546,0</coordinates></Point></Placemark>
<Placemark><name>E0REC</name><description>210012 P.Tec REGIÓ
posicio de les: 05/08/2018 04:47:52</description><styleUrl>#w_grocP</styleUrl><Point><coordinates>1.85121774673462,41.7415452003479,0</coordinates></Point></Placemark>
<Placemark><name>CAF56</name><description>210456 PORT.COM CAF (Centre)
posicio de les: 05/08/2018 04:46:55</description><styleUrl>#w_verdP</styleUrl><Point><coordinates>1.52746438980103,41.7309772968292,0</coordinates></Point></Placemark>
<Placemark><name>CAB56</name><description>210656 PORT.COM CAB (Centre)
posicio de les: 05/08/2018 04:47:30</description><styleUrl>#w_grocP</styleUrl><Point><coordinates>1.68530702590942,41.665745973587,0</coordinates></Point></Placemark>
<Placemark><name>GUA56</name><description>210856 PORT.COM GUA (Centre)
posicio de les: 05/08/2018 04:46:35</description><styleUrl>#w_verdP</styleUrl><Point><coordinates>1.86839461326599,42.2190964221954,0</coordinates></Point></Placemark>
<Placemark><name>PRA07</name><description>211407 PORT PRA (Centre)
posicio de les: 05/08/2018 04:44:01</description><styleUrl>#w_verdP</styleUrl><Point><coordinates>2.03593611717224,42.0078563690186,0</coordinates></Point></Placemark>
<Placemark><name>PUIG01</name><description>211501 PORT PUIG (Centre)
posicio de les: 05/08/2018 04:46:53</description><styleUrl>#w_verdP</styleUrl><Point><coordinates>1.92232847213745,42.4205195903778,0</coordinates></Point></Placemark>
<Placemark><name>12031</name><description>212031 BRP TOR (Centre)
posicio de les: 05/08/2018 04:44:47</description><styleUrl>#w_verdC</styleUrl><Point><coordinates>2.26792573928833,42.0483362674713,0</coordinates></Point></Placemark>
<Placemark><name>20134</name><description>220134 BFP AMER (Girona)
posicio de les: 05/08/2018 04:45:07</description><styleUrl>#w_grocC</styleUrl><Point><coordinates>3.15322637557983,42.3575627803802,0</coordinates></Point></Placemark>
<Placemark><name>20330</name><description>220330 BRP BANY (Girona)
posicio de les: 05/08/2018 04:46:18</description><styleUrl>#w_grocC</styleUrl><Point><coordinates>2.78545260429382,42.1179342269897,0</coordinates></Point></Placemark>
<Placemark><name>CASS56</name><description>220856 PORT.COM CASS (Girona)
posicio de les: 05/08/2018 04:46:46</description><styleUrl>#w_grocP</styleUrl><Point><coordinates>2.88415789604187,41.8795716762543,0</coordinates></Point></Placemark>
<Placemark><name>21131</name><description>221131 BRP GIRO (Girona)
posicio de les: 05/08/2018 04:47:59</description><styleUrl>#w_verdC</styleUrl><Point><coordinates>2.80765056610107,41.9674623012543,0</coordinates></Point></Placemark>
<Placemark><name>GIRO56</name><description>221156 PORT.COM GIRO (Girona)
posicio de les: 05/08/2018 04:47:58</description><styleUrl>#w_verdP</styleUrl><Point><coordinates>2.80779004096985,41.9675374031067,0</coordinates></Point></Placemark>
<Placemark><name>HOST05</name><description>221205 PORT HOST (Girona)
posicio de les: 05/08/2018 04:46:26</description><styleUrl>#w_verdP</styleUrl><Point><coordinates>2.62440204620361,41.7481219768524,0</coordinates></Point></Placemark>
<Placemark><name>HOST57</name><description>221257 PORT.COM HOST (Girona)
posicio de les: 05/08/2018 04:46:37</description><styleUrl>#w_verdP</styleUrl><Point><coordinates>2.62456297874451,41.7481112480164,0</coordinates></Point></Placemark>
<Placemark><name>JONQ56</name><description>221356 PORT.COM JONQ (Girona)
posicio de les: 05/08/2018 04:47:24</description><styleUrl>#w_verdP</styleUrl><Point><coordinates>2.87647604942322,42.4119365215302,0</coordinates></Point></Placemark>
<Placemark><name>LLAN57</name><description>221457 PORT.COM LLAN (Girona)
posicio de les: 05/08/2018 04:47:23</description><styleUrl>#w_verdP</styleUrl><Point><coordinates>3.15332293510437,42.3567688465118,0</coordinates></Point></Placemark>
<Placemark><name>LLOR56</name><description>221556 PORT.COM LLOR (Girona)
posicio de les: 05/08/2018 04:46:15</description><styleUrl>#w_verdP</styleUrl><Point><coordinates>2.83615708351135,41.6993916034698,0</coordinates></Point></Placemark>
<Placemark><name>21630</name><description>221630 BRP MACA (Girona)
posicio de les: 05/08/2018 04:43:45</description><styleUrl>#w_grocC</styleUrl><Point><coordinates>2.75292277336121,41.7794179916382,0</coordinates></Point></Placemark>
<Placemark><name>MAÇA57</name><description>221657 PORT.COM MACA (Girona)
posicio de les: 05/08/2018 04:47:13</description><styleUrl>#w_verdP</styleUrl><Point><coordinates>2.75284767150879,41.7795467376709,0</coordinates></Point></Placemark>
<Placemark><name>OLOT56</name><description>221756 PORT.COM OLOT (Girona)
posicio de les: 05/08/2018 04:48:00</description><styleUrl>#w_grocP</styleUrl><Point><coordinates>2.47518539428711,42.1903967857361,0</coordinates></Point></Placemark>
<Placemark><name>PALA56</name><description>221856 PORT.COM PALA (Girona)
posicio de les: 05/08/2018 04:46:24</description><styleUrl>#w_grocP</styleUrl><Point><coordinates>3.15626263618469,41.9254696369171,0</coordinates></Point></Placemark>
<Placemark><name>PALA57</name><description>221857 PORT.COM PALA (Girona)
posicio de les: 05/08/2018 04:46:31</description><styleUrl>#w_verdP</styleUrl><Point><coordinates>3.15625190734863,41.9259202480316,0</coordinates></Point></Placemark>
<Placemark><name>RIPO03</name><description>222103 PORT RIPO (Girona)
posicio de les: 05/08/2018 04:47:10</description><styleUrl>#w_verdP</styleUrl><Point><coordinates>2.16786861419678,42.2145581245422,0</coordinates></Point></Placemark>
<Placemark><name>22130</name><description>222130 BRP RIPO (Girona)
posicio de les: 05/08/2018 04:48:05</description><styleUrl>#w_grocC</styleUrl><Point><coordinates>2.16904878616333,42.2148907184601,0</coordinates></Point></Placemark>
<Placemark><name>ROSE56</name><description>222256 PORT.COM ROSE (Girona)
posicio de les: 05/08/2018 04:46:55</description><styleUrl>#w_grocP</styleUrl><Point><coordinates>3.16086530685425,42.2763884067535,0</coordinates></Point></Placemark>
<Placemark><name>TORR56</name><description>222656 PORT.COM TORR (Girona)
posicio de les: 05/08/2018 04:47:59</description><styleUrl>#w_verdP</styleUrl><Point><coordinates>3.16754937171936,42.0476388931274,0</coordinates></Point></Placemark>
<Placemark><name>VALL57</name><description>222857 PORT.COM VALL (Girona)
posicio de les: 05/08/2018 04:47:05</description><styleUrl>#w_grocP</styleUrl><Point><coordinates>3.03175449371338,41.808750629425,0</coordinates></Point></Placemark>
<Placemark><name>I308</name><description>227308 P.GUAITA GUAITA
posicio de les: 05/08/2018 04:47:51</description><styleUrl>#w_verdP</styleUrl><Point><coordinates>3.1559944152832,41.9257378578186,0</coordinates></Point></Placemark>
<Placemark><name>D0REL</name><description>230010 P.CG REGIÓ
posicio de les: 05/08/2018 04:48:03</description><styleUrl>#w_verdP</styleUrl><Point><coordinates>0.604827404022217,41.623774766922,0</coordinates></Point></Placemark>
<Placemark><name>ALMA02</name><description>230302 PORT ALMA (Lleida)
posicio de les: 05/08/2018 04:47:16</description><styleUrl>#w_grocP</styleUrl><Point><coordinates>0.433884859085083,41.7319214344025,0</coordinates></Point></Placemark>
<Placemark><name>ALMA07</name><description>230307 PORT ALMA (Lleida)
posicio de les: 05/08/2018 04:48:03</description><styleUrl>#w_verdP</styleUrl><Point><coordinates>0.442789793014526,41.7294323444366,0</coordinates></Point></Placemark>
<Placemark><name>BORG05</name><description>230705 PORT BORG (Lleida)
posicio de les: 05/08/2018 04:47:18</description><styleUrl>#w_grocP</styleUrl><Point><coordinates>0.845260620117188,41.5079569816589,0</coordinates></Point></Placemark>
<Placemark><name>BORG06</name><description>230706 PORT BORG (Lleida)
posicio de les: 05/08/2018 04:47:56</description><styleUrl>#w_grocP</styleUrl><Point><coordinates>0.844885110855103,41.5071952342987,0</coordinates></Point></Placemark>
<Placemark><name>BORG56</name><description>230756 PORT.COM BORG (Lleida)
posicio de les: 05/08/2018 04:47:58</description><styleUrl>#w_verdP</styleUrl><Point><coordinates>0.84496021270752,41.5069055557251,0</coordinates></Point></Placemark>
<Placemark><name>POBL01</name><description>232401 PORT POBL (Lleida)
posicio de les: 05/08/2018 04:46:14</description><styleUrl>#w_grocP</styleUrl><Point><coordinates>0.964436531066895,42.2389340400696,0</coordinates></Point></Placemark>
<Placemark><name>PONT56</name><description>232556 PORT.COM PONT (Lleida)
posicio de les: 05/08/2018 04:46:33</description><styleUrl>#w_grocP</styleUrl><Point><coordinates>0.739721059799194,42.4105525016785,0</coordinates></Point></Placemark>
<Placemark><name>SEU09</name><description>232909 PORT SEU (Lleida)
posicio de les: 05/08/2018 04:47:56</description><styleUrl>#w_verdP</styleUrl><Point><coordinates>1.4717710018158,42.3603737354279,0</coordinates></Point></Placemark>
<Placemark><name>40081</name><description>240081  REGIÓ
posicio de les: 05/08/2018 04:46:53</description><styleUrl>#w_groc</styleUrl><Point><coordinates>2.11263656616211,41.5023994445801,0</coordinates></Point></Placemark>
<Placemark><name>40290</name><description>240290 UPC BAD (Metro. Nord)
posicio de les: 05/08/2018 04:47:44</description><styleUrl>#w_groc</styleUrl><Point><coordinates>2.0350456237793,41.4736032485962,0</coordinates></Point></Placemark>
<Placemark><name>CER03</name><description>240503 PORT CER (Metro. Nord)
posicio de les: 05/08/2018 04:47:42</description><styleUrl>#w_verdP</styleUrl><Point><coordinates>2.11164951324463,41.5017020702362,0</coordinates></Point></Placemark>
<Placemark><name>GRA05</name><description>240605 PORT GRA (Metro. Nord)
posicio de les: 05/08/2018 04:47:45</description><styleUrl>#w_verdP</styleUrl><Point><coordinates>2.27499604225159,41.59064412117,0</coordinates></Point></Placemark>
<Placemark><name>GRA07</name><description>240607 PORT GRA (Metro. Nord)
posicio de les: 05/08/2018 04:46:08</description><styleUrl>#w_verdP</styleUrl><Point><coordinates>2.2746205329895,41.5908586978912,0</coordinates></Point></Placemark>
<Placemark><name>MOL03</name><description>241003 PORT MOL (Metro. Nord)
posicio de les: 05/08/2018 04:44:16</description><styleUrl>#w_verdP</styleUrl><Point><coordinates>2.20191121101379,41.5366351604462,0</coordinates></Point></Placemark>
<Placemark><name>241040</name><description>241040 BUP MOL (Metro. Nord)
posicio de les: 05/08/2018 04:48:09</description><styleUrl>#w_verdC</styleUrl><Point><coordinates>2.24353909492493,41.5685105323792,0</coordinates></Point></Placemark>
<Placemark><name>241048</name><description>241048 BUL MOL (Metro. Nord)
posicio de les: 05/08/2018 04:48:11</description><styleUrl>#w_verdC</styleUrl><Point><coordinates>2.23662972450256,41.5620303153992,0</coordinates></Point></Placemark>
<Placemark><name>MFI01</name><description>241101 PORT MFI (Metro. Nord)
posicio de les: 05/08/2018 04:45:21</description><styleUrl>#w_grocP</styleUrl><Point><coordinates>2.27182030677795,41.7161178588867,0</coordinates></Point></Placemark>
<Placemark><name>SAB01</name><description>241401 PORT SAB (Metro. Nord)
posicio de les: 05/08/2018 04:47:37</description><styleUrl>#w_verdP</styleUrl><Point><coordinates>2.10477232933044,41.5422248840332,0</coordinates></Point></Placemark>
<Placemark><name>SAB06</name><description>241406 PORT SAB (Metro. Nord)
posicio de les: 05/08/2018 04:45:07</description><styleUrl>#w_verdP</styleUrl><Point><coordinates>2.10495471954346,41.5419888496399,0</coordinates></Point></Placemark>
<Placemark><name>SCE08</name><description>241608 PORT SCE (Metro. Nord)
posicio de les: 05/08/2018 04:47:43</description><styleUrl>#w_verdP</styleUrl><Point><coordinates>2.5073504447937,41.6949605941772,0</coordinates></Point></Placemark>
<Placemark><name>SCG07</name><description>241807 PORT SCG (Metro. Nord)
posicio de les: 05/08/2018 04:44:44</description><styleUrl>#w_verdP</styleUrl><Point><coordinates>2.20952868461609,41.4630353450775,0</coordinates></Point></Placemark>
<Placemark><name>TER56</name><description>242056 PORT.COM TER (Metro. Nord)
posicio de les: 05/08/2018 04:48:07</description><styleUrl>#w_verdP</styleUrl><Point><coordinates>2.02618360519409,41.5680384635925,0</coordinates></Point></Placemark>
<Placemark><name>GE00REMS</name><description>250015 P.Tec REGIÓ
posicio de les: 05/08/2018 04:45:00</description><styleUrl>#w_grocP</styleUrl><Point><coordinates>2.10625290870667,41.3701128959656,0</coordinates></Point></Placemark>
<Placemark><name>50093</name><description>250093  REGIÓ
posicio de les: 05/08/2018 04:46:14</description><styleUrl>#w_verd</styleUrl><Point><coordinates>2.10581302642822,41.3700699806213,0</coordinates></Point></Placemark>
<Placemark><name>COR07</name><description>250407 PORT COR (Metro. Sud)
posicio de les: 05/08/2018 04:45:05</description><styleUrl>#w_verdP</styleUrl><Point><coordinates>1.9736123085022,41.336145401001,0</coordinates></Point></Placemark>
<Placemark><name>50490</name><description>250490 UPC COR (Metro. Sud)
posicio de les: 05/08/2018 04:47:41</description><styleUrl>#w_groc</styleUrl><Point><coordinates>2.07046151161194,41.3616371154785,0</coordinates></Point></Placemark>
<Placemark><name>HOS06</name><description>250706 PORT HOS (Metro. Sud)
posicio de les: 05/08/2018 04:46:35</description><styleUrl>#w_verdP</styleUrl><Point><coordinates>2.10578083992004,41.3699734210968,0</coordinates></Point></Placemark>
<Placemark><name>50790</name><description>250790 UPC HOS (Metro. Sud)
posicio de les: 05/08/2018 04:43:42</description><styleUrl>#w_groc</styleUrl><Point><coordinates>2.10522294044495,41.3697910308838,0</coordinates></Point></Placemark>
<Placemark><name>MAR57</name><description>251057 PORT.COM MAR (Metro. Sud)
posicio de les: 05/08/2018 04:46:38</description><styleUrl>#w_grocP</styleUrl><Point><coordinates>1.90782308578491,41.498601436615,0</coordinates></Point></Placemark>
<Placemark><name>SBOI57</name><description>251357 PORT.COM SBOI (Metro. Sud)
posicio de les: 05/08/2018 04:46:01</description><styleUrl>#w_verdP</styleUrl><Point><coordinates>2.03480958938599,41.3227236270905,0</coordinates></Point></Placemark>
<Placemark><name>FALS06</name><description>260406 PORT FALS (Tarragona)
posicio de les: 05/08/2018 04:44:07</description><styleUrl>#w_verdP</styleUrl><Point><coordinates>0.823652744293213,41.147221326828,0</coordinates></Point></Placemark>
<Placemark><name>260508</name><description>260508 PORT HOSP (Tarragona)
posicio de les: 05/08/2018 04:46:52</description><styleUrl>#w_grocP</styleUrl><Point><coordinates>0.919826030731201,40.9935736656189,0</coordinates></Point></Placemark>
<Placemark><name>REUS06</name><description>260806 PORT REUS (Tarragona)
posicio de les: 05/08/2018 04:43:10</description><styleUrl>#w_grocP</styleUrl><Point><coordinates>1.11854553222656,41.1509013175964,0</coordinates></Point></Placemark>
<Placemark><name>REUS56</name><description>260856 PORT.COM REUS (Tarragona)
posicio de les: 05/08/2018 04:47:13</description><styleUrl>#w_verdP</styleUrl><Point><coordinates>1.14078640937805,41.1733675003052,0</coordinates></Point></Placemark>
<Placemark><name>E00RETE</name><description>270014 P.Tec REGIÓ
posicio de les: 05/08/2018 04:44:54</description><styleUrl>#w_verdP</styleUrl><Point><coordinates>0.513460636138916,40.8190584182739,0</coordinates></Point></Placemark>
<Placemark><name>AMET06</name><description>272006 PORT AMET (Terres de l'Ebre)
posicio de les: 05/08/2018 04:46:03</description><styleUrl>#w_verdP</styleUrl><Point><coordinates>0.797646045684814,40.8902871608734,0</coordinates></Point></Placemark>
<Placemark><name>GAND56</name><description>272656 PORT.COM GAND (Terres de l'Ebre)
posicio de les: 05/08/2018 04:47:17</description><styleUrl>#w_grocP</styleUrl><Point><coordinates>0.439249277114868,41.0584938526154,0</coordinates></Point></Placemark>
<Placemark><name>E_93</name><description>278031  SERVEIS REGIÓ
posicio de les: 05/08/2018 04:46:34</description><styleUrl>#w_verd</styleUrl><Point><coordinates>0.513331890106201,40.8191549777985,0</coordinates></Point></Placemark>
</Folder>
<Folder>
<name>Descarregues</name>
</Folder>
<Style id="w_verdP_n"><IconStyle><color>ff00ff00</color><scale>1.0</scale><Icon><href>http://maps.google.com/mapfiles/kml/shapes/man.png</href></Icon><hotSpot x="0.5" y="0" xunits="fraction" yunits="fraction"/></IconStyle><LabelStyle><scale>0.7</scale></LabelStyle></Style>
<Style id="w_verdP_s"><IconStyle><color>ff00ff00</color><scale>1.4</scale><Icon><href>http://maps.google.com/mapfiles/kml/shapes/man.png</href></Icon><hotSpot x="0.5" y="0" xunits="fraction" yunits="fraction"/></IconStyle><LabelStyle><scale>0.7</scale></LabelStyle></Style>
<StyleMap id="w_verdP"><Pair><key>normal</key><styleUrl>#w_verdP_n</styleUrl></Pair><Pair><key>highlight</key><styleUrl>#w_verdP_s</styleUrl></Pair></StyleMap>
<Style id="w_verd_n"><IconStyle><color>ff00ff00</color><scale>0.7</scale><Icon><href>http://maps.google.com/mapfiles/kml/shapes/cabs.png</href></Icon><hotSpot x="0.5" y="0" xunits="fraction" yunits="fraction"/></IconStyle><LabelStyle><scale>0.7</scale></LabelStyle></Style>
<Style id="w_verd_s"><IconStyle><color>ff00ff00</color><scale>1.0</scale><Icon><href>http://maps.google.com/mapfiles/kml/shapes/cabs.png</href></Icon><hotSpot x="0.5" y="0" xunits="fraction" yunits="fraction"/></IconStyle><LabelStyle><scale>0.7</scale></LabelStyle></Style>
<StyleMap id="w_verd"><Pair><key>normal</key><styleUrl>#w_verd_n</styleUrl></Pair><Pair><key>highlight</key><styleUrl>#w_verd_s</styleUrl></Pair></StyleMap>
<Style id="w_verdC_n"><IconStyle><color>ff00ff00</color><scale>1.0</scale><Icon><href>http://maps.google.com/mapfiles/kml/shapes/truck.png</href></Icon><hotSpot x="0.5" y="0" xunits="fraction" yunits="fraction"/></IconStyle><LabelStyle><scale>0.7</scale></LabelStyle></Style>
<Style id="w_verdC_s"><IconStyle><color>ff00ff00</color><scale>1.4</scale><Icon><href>http://maps.google.com/mapfiles/kml/shapes/truck.png</href></Icon><hotSpot x="0.5" y="0" xunits="fraction" yunits="fraction"/></IconStyle><LabelStyle><scale>0.7</scale></LabelStyle></Style>
<StyleMap id="w_verdC"><Pair><key>normal</key><styleUrl>#w_verdC_n</styleUrl></Pair><Pair><key>highlight</key><styleUrl>#w_verdC_s</styleUrl></Pair></StyleMap>
<Style id="w_verdH_n"><IconStyle><color>ff0000ff</color><scale>1.2</scale><Icon><href>http://maps.google.com/mapfiles/kml/shapes/heliport.png</href></Icon><hotSpot x="0.5" y="0" xunits="fraction" yunits="fraction"/></IconStyle><LabelStyle><scale>0.7</scale></LabelStyle></Style>
<Style id="w_verdH_s"><IconStyle><color>ff0000ff</color><scale>1.4</scale><Icon><href>http://maps.google.com/mapfiles/kml/shapes/heliport.png</href></Icon><hotSpot x="0.5" y="0" xunits="fraction" yunits="fraction"/></IconStyle><LabelStyle><scale>0.7</scale></LabelStyle></Style>
<StyleMap id="w_verdH"><Pair><key>normal</key><styleUrl>#w_verdH_n</styleUrl></Pair><Pair><key>highlight</key><styleUrl>#w_verdH_s</styleUrl></Pair></StyleMap>
<Style id="w_verdA_n"><IconStyle><color>ff0000ff</color><scale>1.2</scale><Icon><href>http://maps.google.com/mapfiles/kml/shapes/airports.png</href></Icon><hotSpot x="0.5" y="0" xunits="fraction" yunits="fraction"/></IconStyle><LabelStyle><scale>0.7</scale></LabelStyle></Style>
<Style id="w_verdA_s"><IconStyle><color>ff0000ff</color><scale>1.4</scale><Icon><href>http://maps.google.com/mapfiles/kml/shapes/airports.png</href></Icon><hotSpot x="0.5" y="0" xunits="fraction" yunits="fraction"/></IconStyle><LabelStyle><scale>0.7</scale></LabelStyle></Style>
<StyleMap id="w_verdA"><Pair><key>normal</key><styleUrl>#w_verdA_n</styleUrl></Pair><Pair><key>highlight</key><styleUrl>#w_verdA_s</styleUrl></Pair></StyleMap>
<Style id="w_verdB_n"><IconStyle><color>ff00ff00</color><scale>1.0</scale><Icon><href>http://maps.google.com/mapfiles/kml/shapes/sailing.png</href></Icon><hotSpot x="0.5" y="0" xunits="fraction" yunits="fraction"/></IconStyle><LabelStyle><scale>0.7</scale></LabelStyle></Style>
<Style id="w_verdB_s"><IconStyle><color>ff00ff00</color><scale>1.4</scale><Icon><href>http://maps.google.com/mapfiles/kml/shapes/sailing.png</href></Icon><hotSpot x="0.5" y="0" xunits="fraction" yunits="fraction"/></IconStyle><LabelStyle><scale>0.7</scale></LabelStyle></Style>
<StyleMap id="w_verdB"><Pair><key>normal</key><styleUrl>#w_verdBAR_n</styleUrl></Pair><Pair><key>highlight</key><styleUrl>#w_verdBAR_s</styleUrl></Pair></StyleMap>
<Style id="w_grocP_n"><IconStyle><color>ff00ffff</color><scale>1.0</scale><Icon><href>http://maps.google.com/mapfiles/kml/shapes/man.png</href></Icon><hotSpot x="0.5" y="0" xunits="fraction" yunits="fraction"/></IconStyle><LabelStyle><scale>0.7</scale></LabelStyle></Style>
<Style id="w_grocP_s"><IconStyle><color>ff00ffff</color><scale>1.4</scale><Icon><href>http://maps.google.com/mapfiles/kml/shapes/man.png</href></Icon><hotSpot x="0.5" y="0" xunits="fraction" yunits="fraction"/></IconStyle><LabelStyle><scale>0.7</scale></LabelStyle></Style>
<StyleMap id="w_grocP"><Pair><key>normal</key><styleUrl>#w_grocP_n</styleUrl></Pair><Pair><key>highlight</key><styleUrl>#w_grocP_s</styleUrl></Pair></StyleMap>
<Style id="w_groc_n"><IconStyle><color>ff00ffff</color><scale>0.7</scale><Icon><href>http://maps.google.com/mapfiles/kml/shapes/cabs.png</href></Icon><hotSpot x="0.5" y="0" xunits="fraction" yunits="fraction"/></IconStyle><LabelStyle><scale>0.7</scale></LabelStyle></Style>
<Style id="w_groc_s"><IconStyle><color>ff00ffff</color><scale>1.0</scale><Icon><href>http://maps.google.com/mapfiles/kml/shapes/cabs.png</href></Icon><hotSpot x="0.5" y="0" xunits="fraction" yunits="fraction"/></IconStyle><LabelStyle><scale>0.7</scale></LabelStyle></Style>
<StyleMap id="w_groc"><Pair><key>normal</key><styleUrl>#w_groc_n</styleUrl></Pair><Pair><key>highlight</key><styleUrl>#w_groc_s</styleUrl></Pair></StyleMap>
<Style id="w_grocC_n"><IconStyle><color>ff00ffff</color><scale>1.0</scale><Icon><href>http://maps.google.com/mapfiles/kml/shapes/truck.png</href></Icon><hotSpot x="0.5" y="0" xunits="fraction" yunits="fraction"/></IconStyle><LabelStyle><scale>0.7</scale></LabelStyle></Style>
<Style id="w_grocC_s"><IconStyle><color>ff00ffff</color><scale>1.4</scale><Icon><href>http://maps.google.com/mapfiles/kml/shapes/truck.png</href></Icon><hotSpot x="0.5" y="0" xunits="fraction" yunits="fraction"/></IconStyle><LabelStyle><scale>0.7</scale></LabelStyle></Style>
<StyleMap id="w_grocC"><Pair><key>normal</key><styleUrl>#w_grocC_n</styleUrl></Pair><Pair><key>highlight</key><styleUrl>#w_grocC_s</styleUrl></Pair></StyleMap>
<Style id="w_grocH_n"><IconStyle><color>ff0000ff</color><scale>1.2</scale><Icon><href>http://maps.google.com/mapfiles/kml/shapes/heliport.png</href></Icon><hotSpot x="0.5" y="0" xunits="fraction" yunits="fraction"/></IconStyle><LabelStyle><scale>0.7</scale></LabelStyle></Style>
<Style id="w_grocH_s"><IconStyle><color>ff0000ff</color><scale>1.4</scale><Icon><href>http://maps.google.com/mapfiles/kml/shapes/heliport.png</href></Icon><hotSpot x="0.5" y="0" xunits="fraction" yunits="fraction"/></IconStyle><LabelStyle><scale>0.7</scale></LabelStyle></Style>
<StyleMap id="w_grocH"><Pair><key>normal</key><styleUrl>#w_grocH_n</styleUrl></Pair><Pair><key>highlight</key><styleUrl>#w_grocH_s</styleUrl></Pair></StyleMap>
<Style id="w_grocA_n"><IconStyle><color>ff0000ff</color><scale>1.2</scale><Icon><href>http://maps.google.com/mapfiles/kml/shapes/airports.png</href></Icon><hotSpot x="0.5" y="0" xunits="fraction" yunits="fraction"/></IconStyle><LabelStyle><scale>0.7</scale></LabelStyle></Style>
<Style id="w_grocA_s"><IconStyle><color>ff0000ff</color><scale>1.4</scale><Icon><href>http://maps.google.com/mapfiles/kml/shapes/airports.png</href></Icon><hotSpot x="0.5" y="0" xunits="fraction" yunits="fraction"/></IconStyle><LabelStyle><scale>0.7</scale></LabelStyle></Style>
<StyleMap id="w_grocA"><Pair><key>normal</key><styleUrl>#w_grocA_n</styleUrl></Pair><Pair><key>highlight</key><styleUrl>#w_grocA_s</styleUrl></Pair></StyleMap>
<Style id="w_grocB_n"><IconStyle><color>ff00ffff</color><scale>1.0</scale><Icon><href>http://maps.google.com/mapfiles/kml/shapes/sailing.png</href></Icon><hotSpot x="0.5" y="0" xunits="fraction" yunits="fraction"/></IconStyle><LabelStyle><scale>0.7</scale></LabelStyle></Style>
<Style id="w_grocB_s"><IconStyle><color>ff00ffff</color><scale>1.4</scale><Icon><href>http://maps.google.com/mapfiles/kml/shapes/sailing.png</href></Icon><hotSpot x="0.5" y="0" xunits="fraction" yunits="fraction"/></IconStyle><LabelStyle><scale>0.7</scale></LabelStyle></Style>
<StyleMap id="w_grocB"><Pair><key>normal</key><styleUrl>#w_grocBAR_n</styleUrl></Pair><Pair><key>highlight</key><styleUrl>#w_grocBAR_s</styleUrl></Pair></StyleMap>
<Style id="w_vermellP_n"><IconStyle><color>ff0000ff</color><scale>1.0</scale><Icon><href>http://maps.google.com/mapfiles/kml/shapes/man.png</href></Icon><hotSpot x="0.5" y="0" xunits="fraction" yunits="fraction"/></IconStyle><LabelStyle><scale>0.7</scale></LabelStyle></Style>
<Style id="w_vermellP_s"><IconStyle><color>ff0000ff</color><scale>1.4</scale><Icon><href>http://maps.google.com/mapfiles/kml/shapes/man.png</href></Icon><hotSpot x="0.5" y="0" xunits="fraction" yunits="fraction"/></IconStyle><LabelStyle><scale>0.7</scale></LabelStyle></Style>
<StyleMap id="w_vermellP"><Pair><key>normal</key><styleUrl>#w_vermellP_n</styleUrl></Pair><Pair><key>highlight</key><styleUrl>#w_vermellP_s</styleUrl></Pair></StyleMap>
<Style id="w_vermell_n"><IconStyle><color>ff0000ff</color><scale>0.7</scale><Icon><href>http://maps.google.com/mapfiles/kml/shapes/cabs.png</href></Icon><hotSpot x="0.5" y="0" xunits="fraction" yunits="fraction"/></IconStyle><LabelStyle><scale>0.7</scale></LabelStyle></Style>
<Style id="w_vermell_s"><IconStyle><color>ff0000ff</color><scale>1.0</scale><Icon><href>http://maps.google.com/mapfiles/kml/shapes/cabs.png</href></Icon><hotSpot x="0.5" y="0" xunits="fraction" yunits="fraction"/></IconStyle><LabelStyle><scale>0.7</scale></LabelStyle></Style>
<StyleMap id="w_vermell"><Pair><key>normal</key><styleUrl>#w_vermell_n</styleUrl></Pair><Pair><key>highlight</key><styleUrl>#w_vermell_s</styleUrl></Pair></StyleMap>
<Style id="w_vermellC_n"><IconStyle><color>ff0000ff</color><scale>1.0</scale><Icon><href>http://maps.google.com/mapfiles/kml/shapes/truck.png</href></Icon><hotSpot x="0.5" y="0" xunits="fraction" yunits="fraction"/></IconStyle><LabelStyle><scale>0.7</scale></LabelStyle></Style>
<Style id="w_vermellC_s"><IconStyle><color>ff0000ff</color><scale>1.4</scale><Icon><href>http://maps.google.com/mapfiles/kml/shapes/truck.png</href></Icon><hotSpot x="0.5" y="0" xunits="fraction" yunits="fraction"/></IconStyle><LabelStyle><scale>0.7</scale></LabelStyle></Style>
<StyleMap id="w_vermellC"><Pair><key>normal</key><styleUrl>#w_vermellC_n</styleUrl></Pair><Pair><key>highlight</key><styleUrl>#w_vermellC_s</styleUrl></Pair></StyleMap>
<Style id="w_vermellH_n"><IconStyle><color>ff0000ff</color><scale>1.2</scale><Icon><href>http://maps.google.com/mapfiles/kml/shapes/heliport.png</href></Icon><hotSpot x="0.5" y="0" xunits="fraction" yunits="fraction"/></IconStyle><LabelStyle><scale>0.7</scale></LabelStyle></Style>
<Style id="w_vermellH_s"><IconStyle><color>ff0000ff</color><scale>1.4</scale><Icon><href>http://maps.google.com/mapfiles/kml/shapes/heliport.png</href></Icon><hotSpot x="0.5" y="0" xunits="fraction" yunits="fraction"/></IconStyle><LabelStyle><scale>0.7</scale></LabelStyle></Style>
<StyleMap id="w_vermellH"><Pair><key>normal</key><styleUrl>#w_vermellH_n</styleUrl></Pair><Pair><key>highlight</key><styleUrl>#w_vermellH_s</styleUrl></Pair></StyleMap>
<Style id="w_vermellA_n"><IconStyle><color>ff0000ff</color><scale>1.2</scale><Icon><href>http://maps.google.com/mapfiles/kml/shapes/airports.png</href></Icon><hotSpot x="0.5" y="0" xunits="fraction" yunits="fraction"/></IconStyle><LabelStyle><scale>0.7</scale></LabelStyle></Style>
<Style id="w_vermellA_s"><IconStyle><color>ff0000ff</color><scale>1.4</scale><Icon><href>http://maps.google.com/mapfiles/kml/shapes/airports.png</href></Icon><hotSpot x="0.5" y="0" xunits="fraction" yunits="fraction"/></IconStyle><LabelStyle><scale>0.7</scale></LabelStyle></Style>
<StyleMap id="w_vermellA"><Pair><key>normal</key><styleUrl>#w_vermellA_n</styleUrl></Pair><Pair><key>highlight</key><styleUrl>#w_vermellA_s</styleUrl></Pair></StyleMap>
<Style id="w_vermellB_n"><IconStyle><color>ff0000ff</color><scale>1.0</scale><Icon><href>http://maps.google.com/mapfiles/kml/shapes/sailing.png</href></Icon><hotSpot x="0.5" y="0" xunits="fraction" yunits="fraction"/></IconStyle><LabelStyle><scale>0.7</scale></LabelStyle></Style>
<Style id="w_vermellB_s"><IconStyle><color>ff0000ff</color><scale>1.4</scale><Icon><href>http://maps.google.com/mapfiles/kml/shapes/sailing.png</href></Icon><hotSpot x="0.5" y="0" xunits="fraction" yunits="fraction"/></IconStyle><LabelStyle><scale>0.7</scale></LabelStyle></Style>
<StyleMap id="w_vermellB"><Pair><key>normal</key><styleUrl>#w_vermellBAR_n</styleUrl></Pair><Pair><key>highlight</key><styleUrl>#w_vermellBAR_s</styleUrl></Pair></StyleMap>
<Style id="w_descarrega"><IconStyle><color>ff00ffff</color><scale>0.5</scale><Icon><href>http://maps.google.com/mapfiles/kml/shapes/road_shield3.png</href></Icon></IconStyle><LabelStyle><scale>0.7</scale></LabelStyle></Style><Style id="actuacio"><IconStyle><color>ff00ffff</color><scale>0.8</scale><Icon><href>http://maps.google.com/mapfiles/kml/shapes/caution.png</href></Icon></IconStyle><LabelStyle><scale>0.7</scale></LabelStyle></Style></Document></kml>