<?xml version="1.0" encoding="UTF-8"?>
<kml xmlns="http://www.opengis.net/kml/2.2" xmlns:gx="http://www.google.com/kml/ext/2.2" xmlns:kml="http://www.opengis.net/kml/2.2" xmlns:atom="http://www.w3.org/2005/Atom">
<Document>
<name>Terminals</name>
<Snippet maxLines="2">Created 05/08/2018 02:55:59</Snippet>
<Folder>
<name>Terminals</name>
<Placemark><name>GGRAF12</name><description>204212 P.REC
posicio de les: 05/08/2018 02:55:00</description><styleUrl>#w_verdP</styleUrl><Point><coordinates>2.97502040863037,42.0295929908752,0</coordinates></Point></Placemark>
<Placemark><name>OP05087</name><description>205287 OP.AAV
posicio de les: 05/08/2018 02:54:50</description><styleUrl>#w_verdP</styleUrl><Point><coordinates>1.15871429443359,41.1476719379425,0</coordinates></Point></Placemark>
<Placemark><name>VIEL12</name><description>208012 P.PT VARAN
posicio de les: 05/08/2018 02:55:35</description><styleUrl>#w_verdP</styleUrl><Point><coordinates>0.80125093460083,42.6996517181396,0</coordinates></Point></Placemark>
<Placemark><name>VIEL17</name><description>208017 BASE CCA VARAN
posicio de les: 05/08/2018 02:55:54</description><styleUrl>#w_groc</styleUrl><Point><coordinates>0.796637535095215,42.7081060409546,0</coordinates></Point></Placemark>
<Placemark><name>E0REC</name><description>210012 P.Tec REGIÓ
posicio de les: 05/08/2018 02:55:52</description><styleUrl>#w_verdP</styleUrl><Point><coordinates>1.85127139091492,41.7416846752167,0</coordinates></Point></Placemark>
<Placemark><name>BER57</name><description>210357 PORT.COM BER (Centre)
posicio de les: 05/08/2018 02:53:43</description><styleUrl>#w_verdP</styleUrl><Point><coordinates>1.85771942138672,42.1036005020142,0</coordinates></Point></Placemark>
<Placemark><name>10430</name><description>210430 BRP CAF (Centre)
posicio de les: 05/08/2018 02:54:32</description><styleUrl>#w_grocC</styleUrl><Point><coordinates>1.53194904327393,41.7348182201386,0</coordinates></Point></Placemark>
<Placemark><name>CAF56</name><description>210456 PORT.COM CAF (Centre)
posicio de les: 05/08/2018 02:55:31</description><styleUrl>#w_grocP</styleUrl><Point><coordinates>1.53192758560181,41.7348504066467,0</coordinates></Point></Placemark>
<Placemark><name>GUA56</name><description>210856 PORT.COM GUA (Centre)
posicio de les: 05/08/2018 02:52:53</description><styleUrl>#w_verdP</styleUrl><Point><coordinates>1.87006831169128,42.2202014923096,0</coordinates></Point></Placemark>
<Placemark><name>PRA07</name><description>211407 PORT PRA (Centre)
posicio de les: 05/08/2018 02:55:10</description><styleUrl>#w_verdP</styleUrl><Point><coordinates>2.03603267669678,42.0079958438873,0</coordinates></Point></Placemark>
<Placemark><name>20134</name><description>220134 BFP AMER (Girona)
posicio de les: 05/08/2018 02:55:07</description><styleUrl>#w_grocC</styleUrl><Point><coordinates>3.15378427505493,42.3577666282654,0</coordinates></Point></Placemark>
<Placemark><name>20330</name><description>220330 BRP BANY (Girona)
posicio de les: 05/08/2018 02:51:18</description><styleUrl>#w_grocC</styleUrl><Point><coordinates>2.78545260429382,42.1179342269897,0</coordinates></Point></Placemark>
<Placemark><name>CASS56</name><description>220856 PORT.COM CASS (Girona)
posicio de les: 05/08/2018 02:54:37</description><styleUrl>#w_grocP</styleUrl><Point><coordinates>2.88417935371399,41.8796038627625,0</coordinates></Point></Placemark>
<Placemark><name>GIRO56</name><description>221156 PORT.COM GIRO (Girona)
posicio de les: 05/08/2018 02:55:46</description><styleUrl>#w_verdP</styleUrl><Point><coordinates>2.80622363090515,41.9607031345367,0</coordinates></Point></Placemark>
<Placemark><name>HOST05</name><description>221205 PORT HOST (Girona)
posicio de les: 05/08/2018 02:53:29</description><styleUrl>#w_verdP</styleUrl><Point><coordinates>2.62435913085938,41.7483365535736,0</coordinates></Point></Placemark>
<Placemark><name>HOST57</name><description>221257 PORT.COM HOST (Girona)
posicio de les: 05/08/2018 02:54:35</description><styleUrl>#w_verdP</styleUrl><Point><coordinates>2.62464880943298,41.7481863498688,0</coordinates></Point></Placemark>
<Placemark><name>JONQ56</name><description>221356 PORT.COM JONQ (Girona)
posicio de les: 05/08/2018 02:55:24</description><styleUrl>#w_verdP</styleUrl><Point><coordinates>2.8764545917511,42.4119365215302,0</coordinates></Point></Placemark>
<Placemark><name>LLAN57</name><description>221457 PORT.COM LLAN (Girona)
posicio de les: 05/08/2018 02:54:21</description><styleUrl>#w_verdP</styleUrl><Point><coordinates>3.15228223800659,42.3574018478394,0</coordinates></Point></Placemark>
<Placemark><name>LLOR56</name><description>221556 PORT.COM LLOR (Girona)
posicio de les: 05/08/2018 02:55:08</description><styleUrl>#w_verdP</styleUrl><Point><coordinates>2.83637166023254,41.6991126537323,0</coordinates></Point></Placemark>
<Placemark><name>21630</name><description>221630 BRP MACA (Girona)
posicio de les: 05/08/2018 02:53:45</description><styleUrl>#w_grocC</styleUrl><Point><coordinates>2.75304079055786,41.77938580513,0</coordinates></Point></Placemark>
<Placemark><name>MAÇA57</name><description>221657 PORT.COM MACA (Girona)
posicio de les: 05/08/2018 02:55:13</description><styleUrl>#w_grocP</styleUrl><Point><coordinates>2.75277256965637,41.7793965339661,0</coordinates></Point></Placemark>
<Placemark><name>OLOT56</name><description>221756 PORT.COM OLOT (Girona)
posicio de les: 05/08/2018 02:52:09</description><styleUrl>#w_verdP</styleUrl><Point><coordinates>2.4749493598938,42.1895921230316,0</coordinates></Point></Placemark>
<Placemark><name>PALA56</name><description>221856 PORT.COM PALA (Girona)
posicio de les: 05/08/2018 02:54:22</description><styleUrl>#w_verdP</styleUrl><Point><coordinates>3.15618753433228,41.9261026382446,0</coordinates></Point></Placemark>
<Placemark><name>PALA57</name><description>221857 PORT.COM PALA (Girona)
posicio de les: 05/08/2018 02:52:44</description><styleUrl>#w_grocP</styleUrl><Point><coordinates>3.15581202507019,41.9256734848022,0</coordinates></Point></Placemark>
<Placemark><name>22130</name><description>222130 BRP RIPO (Girona)
posicio de les: 05/08/2018 02:52:32</description><styleUrl>#w_grocC</styleUrl><Point><coordinates>2.16971397399902,42.2151589393616,0</coordinates></Point></Placemark>
<Placemark><name>ROSE56</name><description>222256 PORT.COM ROSE (Girona)
posicio de les: 05/08/2018 02:54:47</description><styleUrl>#w_verdP</styleUrl><Point><coordinates>3.16086530685425,42.2761631011963,0</coordinates></Point></Placemark>
<Placemark><name>TORR56</name><description>222656 PORT.COM TORR (Girona)
posicio de les: 05/08/2018 02:53:59</description><styleUrl>#w_verdP</styleUrl><Point><coordinates>3.16746354103088,42.0479929447174,0</coordinates></Point></Placemark>
<Placemark><name>VALL57</name><description>222857 PORT.COM VALL (Girona)
posicio de les: 05/08/2018 02:55:12</description><styleUrl>#w_grocP</styleUrl><Point><coordinates>3.03171157836914,41.8086862564087,0</coordinates></Point></Placemark>
<Placemark><name>I308</name><description>227308 P.GUAITA GUAITA
posicio de les: 05/08/2018 02:54:37</description><styleUrl>#w_verdP</styleUrl><Point><coordinates>3.1559944152832,41.925630569458,0</coordinates></Point></Placemark>
<Placemark><name>D0REL</name><description>230010 P.CG REGIÓ
posicio de les: 05/08/2018 02:54:28</description><styleUrl>#w_verdP</styleUrl><Point><coordinates>0.604881048202515,41.6237533092499,0</coordinates></Point></Placemark>
<Placemark><name>ALMA02</name><description>230302 PORT ALMA (Lleida)
posicio de les: 05/08/2018 02:54:29</description><styleUrl>#w_grocP</styleUrl><Point><coordinates>0.433884859085083,41.7317819595337,0</coordinates></Point></Placemark>
<Placemark><name>ALMA07</name><description>230307 PORT ALMA (Lleida)
posicio de les: 05/08/2018 02:54:03</description><styleUrl>#w_grocP</styleUrl><Point><coordinates>0.442832708358765,41.7294538021088,0</coordinates></Point></Placemark>
<Placemark><name>BORG05</name><description>230705 PORT BORG (Lleida)
posicio de les: 05/08/2018 02:54:38</description><styleUrl>#w_verdP</styleUrl><Point><coordinates>0.845131874084473,41.5070879459381,0</coordinates></Point></Placemark>
<Placemark><name>BORG06</name><description>230706 PORT BORG (Lleida)
posicio de les: 05/08/2018 02:55:56</description><styleUrl>#w_grocP</styleUrl><Point><coordinates>0.8449387550354,41.5075707435608,0</coordinates></Point></Placemark>
<Placemark><name>BORG56</name><description>230756 PORT.COM BORG (Lleida)
posicio de les: 05/08/2018 02:53:58</description><styleUrl>#w_verdP</styleUrl><Point><coordinates>0.844509601593018,41.507420539856,0</coordinates></Point></Placemark>
<Placemark><name>POBL01</name><description>232401 PORT POBL (Lleida)
posicio de les: 05/08/2018 02:54:16</description><styleUrl>#w_verdP</styleUrl><Point><coordinates>0.964479446411133,42.2390842437744,0</coordinates></Point></Placemark>
<Placemark><name>PONT56</name><description>232556 PORT.COM PONT (Lleida)
posicio de les: 05/08/2018 02:54:43</description><styleUrl>#w_grocP</styleUrl><Point><coordinates>0.739656686782837,42.4104559421539,0</coordinates></Point></Placemark>
<Placemark><name>SEU09</name><description>232909 PORT SEU (Lleida)
posicio de les: 05/08/2018 02:53:15</description><styleUrl>#w_verdP</styleUrl><Point><coordinates>1.47186756134033,42.3603415489197,0</coordinates></Point></Placemark>
<Placemark><name>40081</name><description>240081  REGIÓ
posicio de les: 05/08/2018 02:51:53</description><styleUrl>#w_groc</styleUrl><Point><coordinates>2.11263656616211,41.5023994445801,0</coordinates></Point></Placemark>
<Placemark><name>40290</name><description>240290 UPC BAD (Metro. Nord)
posicio de les: 05/08/2018 02:52:43</description><styleUrl>#w_groc</styleUrl><Point><coordinates>2.03440189361572,41.4731097221375,0</coordinates></Point></Placemark>
<Placemark><name>CER03</name><description>240503 PORT CER (Metro. Nord)
posicio de les: 05/08/2018 02:54:22</description><styleUrl>#w_verdP</styleUrl><Point><coordinates>2.09598541259766,41.5112507343292,0</coordinates></Point></Placemark>
<Placemark><name>GRA05</name><description>240605 PORT GRA (Metro. Nord)
posicio de les: 05/08/2018 02:54:34</description><styleUrl>#w_verdP</styleUrl><Point><coordinates>2.29428648948669,41.6267144680023,0</coordinates></Point></Placemark>
<Placemark><name>GRA07</name><description>240607 PORT GRA (Metro. Nord)
posicio de les: 05/08/2018 02:53:07</description><styleUrl>#w_verdP</styleUrl><Point><coordinates>2.2746205329895,41.5907192230225,0</coordinates></Point></Placemark>
<Placemark><name>40640</name><description>240640 BUP GRA (Metro. Nord)
posicio de les: 05/08/2018 02:53:59</description><styleUrl>#w_grocC</styleUrl><Point><coordinates>2.29439377784729,41.6266071796417,0</coordinates></Point></Placemark>
<Placemark><name>40650</name><description>240650 FSV/FRQ/FER/FRM/FRA/FSA GRA (Metro. Nord)
posicio de les: 05/08/2018 02:52:10</description><styleUrl>#w_grocC</styleUrl><Point><coordinates>2.29444742202759,41.6269183158875,0</coordinates></Point></Placemark>
<Placemark><name>MOL03</name><description>241003 PORT MOL (Metro. Nord)
posicio de les: 05/08/2018 02:53:29</description><styleUrl>#w_verdP</styleUrl><Point><coordinates>2.20133185386658,41.536967754364,0</coordinates></Point></Placemark>
<Placemark><name>MFI01</name><description>241101 PORT MFI (Metro. Nord)
posicio de les: 05/08/2018 02:54:28</description><styleUrl>#w_verdP</styleUrl><Point><coordinates>2.27139115333557,41.7160642147064,0</coordinates></Point></Placemark>
<Placemark><name>SAB01</name><description>241401 PORT SAB (Metro. Nord)
posicio de les: 05/08/2018 02:55:24</description><styleUrl>#w_verdP</styleUrl><Point><coordinates>2.10378527641296,41.5423536300659,0</coordinates></Point></Placemark>
<Placemark><name>SAB06</name><description>241406 PORT SAB (Metro. Nord)
posicio de les: 05/08/2018 02:55:22</description><styleUrl>#w_verdP</styleUrl><Point><coordinates>2.10372090339661,41.5423429012299,0</coordinates></Point></Placemark>
<Placemark><name>SAB56</name><description>241456 PORT.COM SAB (Metro. Nord)
posicio de les: 05/08/2018 02:55:54</description><styleUrl>#w_verdP</styleUrl><Point><coordinates>2.1044397354126,41.5423965454102,0</coordinates></Point></Placemark>
<Placemark><name>SCE08</name><description>241608 PORT SCE (Metro. Nord)
posicio de les: 05/08/2018 02:50:25</description><styleUrl>#w_verdP</styleUrl><Point><coordinates>2.50687837600708,41.6949605941772,0</coordinates></Point></Placemark>
<Placemark><name>SCG07</name><description>241807 PORT SCG (Metro. Nord)
posicio de les: 05/08/2018 02:54:46</description><styleUrl>#w_verdP</styleUrl><Point><coordinates>2.20945358276367,41.4631426334381,0</coordinates></Point></Placemark>
<Placemark><name>TER56</name><description>242056 PORT.COM TER (Metro. Nord)
posicio de les: 05/08/2018 02:55:56</description><styleUrl>#w_verdP</styleUrl><Point><coordinates>2.02624797821045,41.5681779384613,0</coordinates></Point></Placemark>
<Placemark><name>50093</name><description>250093  REGIÓ
posicio de les: 05/08/2018 02:51:00</description><styleUrl>#w_verd</styleUrl><Point><coordinates>2.10593104362488,41.3705205917358,0</coordinates></Point></Placemark>
<Placemark><name>COR07</name><description>250407 PORT COR (Metro. Sud)
posicio de les: 05/08/2018 02:53:04</description><styleUrl>#w_verdP</styleUrl><Point><coordinates>1.9736123085022,41.336145401001,0</coordinates></Point></Placemark>
<Placemark><name>50490</name><description>250490 UPC COR (Metro. Sud)
posicio de les: 05/08/2018 02:52:41</description><styleUrl>#w_groc</styleUrl><Point><coordinates>2.07046151161194,41.3616371154785,0</coordinates></Point></Placemark>
<Placemark><name>GAV56</name><description>250556 PORT.COM GAV (Metro. Sud)
posicio de les: 05/08/2018 02:54:45</description><styleUrl>#w_verdP</styleUrl><Point><coordinates>1.99004888534546,41.3001501560211,0</coordinates></Point></Placemark>
<Placemark><name>HOS06</name><description>250706 PORT HOS (Metro. Sud)
posicio de les: 05/08/2018 02:54:43</description><styleUrl>#w_verdP</styleUrl><Point><coordinates>2.10578083992004,41.3701021671295,0</coordinates></Point></Placemark>
<Placemark><name>50790</name><description>250790 UPC HOS (Metro. Sud)
posicio de les: 05/08/2018 02:52:13</description><styleUrl>#w_groc</styleUrl><Point><coordinates>2.10594177246094,41.3699197769165,0</coordinates></Point></Placemark>
<Placemark><name>MAR57</name><description>251057 PORT.COM MAR (Metro. Sud)
posicio de les: 05/08/2018 02:55:34</description><styleUrl>#w_verdP</styleUrl><Point><coordinates>1.9077479839325,41.4986979961395,0</coordinates></Point></Placemark>
<Placemark><name>SBOI57</name><description>251357 PORT.COM SBOI (Metro. Sud)
posicio de les: 05/08/2018 02:54:16</description><styleUrl>#w_verdP</styleUrl><Point><coordinates>2.03453063964844,41.323002576828,0</coordinates></Point></Placemark>
<Placemark><name>GE600</name><description>260017 P.Tec REGIÓ
posicio de les: 05/08/2018 02:55:40</description><styleUrl>#w_verdP</styleUrl><Point><coordinates>1.18498921394348,41.1343574523926,0</coordinates></Point></Placemark>
<Placemark><name>FALS06</name><description>260406 PORT FALS (Tarragona)
posicio de les: 05/08/2018 02:55:07</description><styleUrl>#w_verdP</styleUrl><Point><coordinates>0.82348108291626,41.147403717041,0</coordinates></Point></Placemark>
<Placemark><name>260508</name><description>260508 PORT HOSP (Tarragona)
posicio de les: 05/08/2018 02:54:50</description><styleUrl>#w_grocP</styleUrl><Point><coordinates>0.919783115386963,40.993595123291,0</coordinates></Point></Placemark>
<Placemark><name>REUS06</name><description>260806 PORT REUS (Tarragona)
posicio de les: 05/08/2018 02:55:10</description><styleUrl>#w_grocP</styleUrl><Point><coordinates>1.11854553222656,41.1509013175964,0</coordinates></Point></Placemark>
<Placemark><name>REUS12</name><description>260812 PORT REUS (Tarragona)
posicio de les: 05/08/2018 02:52:27</description><styleUrl>#w_verdP</styleUrl><Point><coordinates>1.11735463142395,41.1509442329407,0</coordinates></Point></Placemark>
<Placemark><name>REUS56</name><description>260856 PORT.COM REUS (Tarragona)
posicio de les: 05/08/2018 02:55:13</description><styleUrl>#w_verdP</styleUrl><Point><coordinates>1.14078640937805,41.1733675003052,0</coordinates></Point></Placemark>
<Placemark><name>E00RETE</name><description>270014 P.Tec REGIÓ
posicio de les: 05/08/2018 02:52:56</description><styleUrl>#w_verdP</styleUrl><Point><coordinates>0.513321161270142,40.8191871643066,0</coordinates></Point></Placemark>
<Placemark><name>AMET06</name><description>272006 PORT AMET (Terres de l'Ebre)
posicio de les: 05/08/2018 02:55:59</description><styleUrl>#w_verdP</styleUrl><Point><coordinates>0.797796249389648,40.8902657032013,0</coordinates></Point></Placemark>
<Placemark><name>GAND56</name><description>272656 PORT.COM GAND (Terres de l'Ebre)
posicio de les: 05/08/2018 02:55:17</description><styleUrl>#w_grocP</styleUrl><Point><coordinates>0.439313650131226,41.0586225986481,0</coordinates></Point></Placemark>
<Placemark><name>E_93</name><description>278031  SERVEIS REGIÓ
posicio de les: 05/08/2018 02:51:47</description><styleUrl>#w_verd</styleUrl><Point><coordinates>0.513417720794678,40.8191549777985,0</coordinates></Point></Placemark>
</Folder>
<Folder>
<name>Descarregues</name>
</Folder>
<Style id="w_verdP_n"><IconStyle><color>ff00ff00</color><scale>1.0</scale><Icon><href>http://maps.google.com/mapfiles/kml/shapes/man.png</href></Icon><hotSpot x="0.5" y="0" xunits="fraction" yunits="fraction"/></IconStyle><LabelStyle><scale>0.7</scale></LabelStyle></Style>
<Style id="w_verdP_s"><IconStyle><color>ff00ff00</color><scale>1.4</scale><Icon><href>http://maps.google.com/mapfiles/kml/shapes/man.png</href></Icon><hotSpot x="0.5" y="0" xunits="fraction" yunits="fraction"/></IconStyle><LabelStyle><scale>0.7</scale></LabelStyle></Style>
<StyleMap id="w_verdP"><Pair><key>normal</key><styleUrl>#w_verdP_n</styleUrl></Pair><Pair><key>highlight</key><styleUrl>#w_verdP_s</styleUrl></Pair></StyleMap>
<Style id="w_verd_n"><IconStyle><color>ff00ff00</color><scale>0.7</scale><Icon><href>http://maps.google.com/mapfiles/kml/shapes/cabs.png</href></Icon><hotSpot x="0.5" y="0" xunits="fraction" yunits="fraction"/></IconStyle><LabelStyle><scale>0.7</scale></LabelStyle></Style>
<Style id="w_verd_s"><IconStyle><color>ff00ff00</color><scale>1.0</scale><Icon><href>http://maps.google.com/mapfiles/kml/shapes/cabs.png</href></Icon><hotSpot x="0.5" y="0" xunits="fraction" yunits="fraction"/></IconStyle><LabelStyle><scale>0.7</scale></LabelStyle></Style>
<StyleMap id="w_verd"><Pair><key>normal</key><styleUrl>#w_verd_n</styleUrl></Pair><Pair><key>highlight</key><styleUrl>#w_verd_s</styleUrl></Pair></StyleMap>
<Style id="w_verdC_n"><IconStyle><color>ff00ff00</color><scale>1.0</scale><Icon><href>http://maps.google.com/mapfiles/kml/shapes/truck.png</href></Icon><hotSpot x="0.5" y="0" xunits="fraction" yunits="fraction"/></IconStyle><LabelStyle><scale>0.7</scale></LabelStyle></Style>
<Style id="w_verdC_s"><IconStyle><color>ff00ff00</color><scale>1.4</scale><Icon><href>http://maps.google.com/mapfiles/kml/shapes/truck.png</href></Icon><hotSpot x="0.5" y="0" xunits="fraction" yunits="fraction"/></IconStyle><LabelStyle><scale>0.7</scale></LabelStyle></Style>
<StyleMap id="w_verdC"><Pair><key>normal</key><styleUrl>#w_verdC_n</styleUrl></Pair><Pair><key>highlight</key><styleUrl>#w_verdC_s</styleUrl></Pair></StyleMap>
<Style id="w_verdH_n"><IconStyle><color>ff0000ff</color><scale>1.2</scale><Icon><href>http://maps.google.com/mapfiles/kml/shapes/heliport.png</href></Icon><hotSpot x="0.5" y="0" xunits="fraction" yunits="fraction"/></IconStyle><LabelStyle><scale>0.7</scale></LabelStyle></Style>
<Style id="w_verdH_s"><IconStyle><color>ff0000ff</color><scale>1.4</scale><Icon><href>http://maps.google.com/mapfiles/kml/shapes/heliport.png</href></Icon><hotSpot x="0.5" y="0" xunits="fraction" yunits="fraction"/></IconStyle><LabelStyle><scale>0.7</scale></LabelStyle></Style>
<StyleMap id="w_verdH"><Pair><key>normal</key><styleUrl>#w_verdH_n</styleUrl></Pair><Pair><key>highlight</key><styleUrl>#w_verdH_s</styleUrl></Pair></StyleMap>
<Style id="w_verdA_n"><IconStyle><color>ff0000ff</color><scale>1.2</scale><Icon><href>http://maps.google.com/mapfiles/kml/shapes/airports.png</href></Icon><hotSpot x="0.5" y="0" xunits="fraction" yunits="fraction"/></IconStyle><LabelStyle><scale>0.7</scale></LabelStyle></Style>
<Style id="w_verdA_s"><IconStyle><color>ff0000ff</color><scale>1.4</scale><Icon><href>http://maps.google.com/mapfiles/kml/shapes/airports.png</href></Icon><hotSpot x="0.5" y="0" xunits="fraction" yunits="fraction"/></IconStyle><LabelStyle><scale>0.7</scale></LabelStyle></Style>
<StyleMap id="w_verdA"><Pair><key>normal</key><styleUrl>#w_verdA_n</styleUrl></Pair><Pair><key>highlight</key><styleUrl>#w_verdA_s</styleUrl></Pair></StyleMap>
<Style id="w_verdB_n"><IconStyle><color>ff00ff00</color><scale>1.0</scale><Icon><href>http://maps.google.com/mapfiles/kml/shapes/sailing.png</href></Icon><hotSpot x="0.5" y="0" xunits="fraction" yunits="fraction"/></IconStyle><LabelStyle><scale>0.7</scale></LabelStyle></Style>
<Style id="w_verdB_s"><IconStyle><color>ff00ff00</color><scale>1.4</scale><Icon><href>http://maps.google.com/mapfiles/kml/shapes/sailing.png</href></Icon><hotSpot x="0.5" y="0" xunits="fraction" yunits="fraction"/></IconStyle><LabelStyle><scale>0.7</scale></LabelStyle></Style>
<StyleMap id="w_verdB"><Pair><key>normal</key><styleUrl>#w_verdBAR_n</styleUrl></Pair><Pair><key>highlight</key><styleUrl>#w_verdBAR_s</styleUrl></Pair></StyleMap>
<Style id="w_grocP_n"><IconStyle><color>ff00ffff</color><scale>1.0</scale><Icon><href>http://maps.google.com/mapfiles/kml/shapes/man.png</href></Icon><hotSpot x="0.5" y="0" xunits="fraction" yunits="fraction"/></IconStyle><LabelStyle><scale>0.7</scale></LabelStyle></Style>
<Style id="w_grocP_s"><IconStyle><color>ff00ffff</color><scale>1.4</scale><Icon><href>http://maps.google.com/mapfiles/kml/shapes/man.png</href></Icon><hotSpot x="0.5" y="0" xunits="fraction" yunits="fraction"/></IconStyle><LabelStyle><scale>0.7</scale></LabelStyle></Style>
<StyleMap id="w_grocP"><Pair><key>normal</key><styleUrl>#w_grocP_n</styleUrl></Pair><Pair><key>highlight</key><styleUrl>#w_grocP_s</styleUrl></Pair></StyleMap>
<Style id="w_groc_n"><IconStyle><color>ff00ffff</color><scale>0.7</scale><Icon><href>http://maps.google.com/mapfiles/kml/shapes/cabs.png</href></Icon><hotSpot x="0.5" y="0" xunits="fraction" yunits="fraction"/></IconStyle><LabelStyle><scale>0.7</scale></LabelStyle></Style>
<Style id="w_groc_s"><IconStyle><color>ff00ffff</color><scale>1.0</scale><Icon><href>http://maps.google.com/mapfiles/kml/shapes/cabs.png</href></Icon><hotSpot x="0.5" y="0" xunits="fraction" yunits="fraction"/></IconStyle><LabelStyle><scale>0.7</scale></LabelStyle></Style>
<StyleMap id="w_groc"><Pair><key>normal</key><styleUrl>#w_groc_n</styleUrl></Pair><Pair><key>highlight</key><styleUrl>#w_groc_s</styleUrl></Pair></StyleMap>
<Style id="w_grocC_n"><IconStyle><color>ff00ffff</color><scale>1.0</scale><Icon><href>http://maps.google.com/mapfiles/kml/shapes/truck.png</href></Icon><hotSpot x="0.5" y="0" xunits="fraction" yunits="fraction"/></IconStyle><LabelStyle><scale>0.7</scale></LabelStyle></Style>
<Style id="w_grocC_s"><IconStyle><color>ff00ffff</color><scale>1.4</scale><Icon><href>http://maps.google.com/mapfiles/kml/shapes/truck.png</href></Icon><hotSpot x="0.5" y="0" xunits="fraction" yunits="fraction"/></IconStyle><LabelStyle><scale>0.7</scale></LabelStyle></Style>
<StyleMap id="w_grocC"><Pair><key>normal</key><styleUrl>#w_grocC_n</styleUrl></Pair><Pair><key>highlight</key><styleUrl>#w_grocC_s</styleUrl></Pair></StyleMap>
<Style id="w_grocH_n"><IconStyle><color>ff0000ff</color><scale>1.2</scale><Icon><href>http://maps.google.com/mapfiles/kml/shapes/heliport.png</href></Icon><hotSpot x="0.5" y="0" xunits="fraction" yunits="fraction"/></IconStyle><LabelStyle><scale>0.7</scale></LabelStyle></Style>
<Style id="w_grocH_s"><IconStyle><color>ff0000ff</color><scale>1.4</scale><Icon><href>http://maps.google.com/mapfiles/kml/shapes/heliport.png</href></Icon><hotSpot x="0.5" y="0" xunits="fraction" yunits="fraction"/></IconStyle><LabelStyle><scale>0.7</scale></LabelStyle></Style>
<StyleMap id="w_grocH"><Pair><key>normal</key><styleUrl>#w_grocH_n</styleUrl></Pair><Pair><key>highlight</key><styleUrl>#w_grocH_s</styleUrl></Pair></StyleMap>
<Style id="w_grocA_n"><IconStyle><color>ff0000ff</color><scale>1.2</scale><Icon><href>http://maps.google.com/mapfiles/kml/shapes/airports.png</href></Icon><hotSpot x="0.5" y="0" xunits="fraction" yunits="fraction"/></IconStyle><LabelStyle><scale>0.7</scale></LabelStyle></Style>
<Style id="w_grocA_s"><IconStyle><color>ff0000ff</color><scale>1.4</scale><Icon><href>http://maps.google.com/mapfiles/kml/shapes/airports.png</href></Icon><hotSpot x="0.5" y="0" xunits="fraction" yunits="fraction"/></IconStyle><LabelStyle><scale>0.7</scale></LabelStyle></Style>
<StyleMap id="w_grocA"><Pair><key>normal</key><styleUrl>#w_grocA_n</styleUrl></Pair><Pair><key>highlight</key><styleUrl>#w_grocA_s</styleUrl></Pair></StyleMap>
<Style id="w_grocB_n"><IconStyle><color>ff00ffff</color><scale>1.0</scale><Icon><href>http://maps.google.com/mapfiles/kml/shapes/sailing.png</href></Icon><hotSpot x="0.5" y="0" xunits="fraction" yunits="fraction"/></IconStyle><LabelStyle><scale>0.7</scale></LabelStyle></Style>
<Style id="w_grocB_s"><IconStyle><color>ff00ffff</color><scale>1.4</scale><Icon><href>http://maps.google.com/mapfiles/kml/shapes/sailing.png</href></Icon><hotSpot x="0.5" y="0" xunits="fraction" yunits="fraction"/></IconStyle><LabelStyle><scale>0.7</scale></LabelStyle></Style>
<StyleMap id="w_grocB"><Pair><key>normal</key><styleUrl>#w_grocBAR_n</styleUrl></Pair><Pair><key>highlight</key><styleUrl>#w_grocBAR_s</styleUrl></Pair></StyleMap>
<Style id="w_vermellP_n"><IconStyle><color>ff0000ff</color><scale>1.0</scale><Icon><href>http://maps.google.com/mapfiles/kml/shapes/man.png</href></Icon><hotSpot x="0.5" y="0" xunits="fraction" yunits="fraction"/></IconStyle><LabelStyle><scale>0.7</scale></LabelStyle></Style>
<Style id="w_vermellP_s"><IconStyle><color>ff0000ff</color><scale>1.4</scale><Icon><href>http://maps.google.com/mapfiles/kml/shapes/man.png</href></Icon><hotSpot x="0.5" y="0" xunits="fraction" yunits="fraction"/></IconStyle><LabelStyle><scale>0.7</scale></LabelStyle></Style>
<StyleMap id="w_vermellP"><Pair><key>normal</key><styleUrl>#w_vermellP_n</styleUrl></Pair><Pair><key>highlight</key><styleUrl>#w_vermellP_s</styleUrl></Pair></StyleMap>
<Style id="w_vermell_n"><IconStyle><color>ff0000ff</color><scale>0.7</scale><Icon><href>http://maps.google.com/mapfiles/kml/shapes/cabs.png</href></Icon><hotSpot x="0.5" y="0" xunits="fraction" yunits="fraction"/></IconStyle><LabelStyle><scale>0.7</scale></LabelStyle></Style>
<Style id="w_vermell_s"><IconStyle><color>ff0000ff</color><scale>1.0</scale><Icon><href>http://maps.google.com/mapfiles/kml/shapes/cabs.png</href></Icon><hotSpot x="0.5" y="0" xunits="fraction" yunits="fraction"/></IconStyle><LabelStyle><scale>0.7</scale></LabelStyle></Style>
<StyleMap id="w_vermell"><Pair><key>normal</key><styleUrl>#w_vermell_n</styleUrl></Pair><Pair><key>highlight</key><styleUrl>#w_vermell_s</styleUrl></Pair></StyleMap>
<Style id="w_vermellC_n"><IconStyle><color>ff0000ff</color><scale>1.0</scale><Icon><href>http://maps.google.com/mapfiles/kml/shapes/truck.png</href></Icon><hotSpot x="0.5" y="0" xunits="fraction" yunits="fraction"/></IconStyle><LabelStyle><scale>0.7</scale></LabelStyle></Style>
<Style id="w_vermellC_s"><IconStyle><color>ff0000ff</color><scale>1.4</scale><Icon><href>http://maps.google.com/mapfiles/kml/shapes/truck.png</href></Icon><hotSpot x="0.5" y="0" xunits="fraction" yunits="fraction"/></IconStyle><LabelStyle><scale>0.7</scale></LabelStyle></Style>
<StyleMap id="w_vermellC"><Pair><key>normal</key><styleUrl>#w_vermellC_n</styleUrl></Pair><Pair><key>highlight</key><styleUrl>#w_vermellC_s</styleUrl></Pair></StyleMap>
<Style id="w_vermellH_n"><IconStyle><color>ff0000ff</color><scale>1.2</scale><Icon><href>http://maps.google.com/mapfiles/kml/shapes/heliport.png</href></Icon><hotSpot x="0.5" y="0" xunits="fraction" yunits="fraction"/></IconStyle><LabelStyle><scale>0.7</scale></LabelStyle></Style>
<Style id="w_vermellH_s"><IconStyle><color>ff0000ff</color><scale>1.4</scale><Icon><href>http://maps.google.com/mapfiles/kml/shapes/heliport.png</href></Icon><hotSpot x="0.5" y="0" xunits="fraction" yunits="fraction"/></IconStyle><LabelStyle><scale>0.7</scale></LabelStyle></Style>
<StyleMap id="w_vermellH"><Pair><key>normal</key><styleUrl>#w_vermellH_n</styleUrl></Pair><Pair><key>highlight</key><styleUrl>#w_vermellH_s</styleUrl></Pair></StyleMap>
<Style id="w_vermellA_n"><IconStyle><color>ff0000ff</color><scale>1.2</scale><Icon><href>http://maps.google.com/mapfiles/kml/shapes/airports.png</href></Icon><hotSpot x="0.5" y="0" xunits="fraction" yunits="fraction"/></IconStyle><LabelStyle><scale>0.7</scale></LabelStyle></Style>
<Style id="w_vermellA_s"><IconStyle><color>ff0000ff</color><scale>1.4</scale><Icon><href>http://maps.google.com/mapfiles/kml/shapes/airports.png</href></Icon><hotSpot x="0.5" y="0" xunits="fraction" yunits="fraction"/></IconStyle><LabelStyle><scale>0.7</scale></LabelStyle></Style>
<StyleMap id="w_vermellA"><Pair><key>normal</key><styleUrl>#w_vermellA_n</styleUrl></Pair><Pair><key>highlight</key><styleUrl>#w_vermellA_s</styleUrl></Pair></StyleMap>
<Style id="w_vermellB_n"><IconStyle><color>ff0000ff</color><scale>1.0</scale><Icon><href>http://maps.google.com/mapfiles/kml/shapes/sailing.png</href></Icon><hotSpot x="0.5" y="0" xunits="fraction" yunits="fraction"/></IconStyle><LabelStyle><scale>0.7</scale></LabelStyle></Style>
<Style id="w_vermellB_s"><IconStyle><color>ff0000ff</color><scale>1.4</scale><Icon><href>http://maps.google.com/mapfiles/kml/shapes/sailing.png</href></Icon><hotSpot x="0.5" y="0" xunits="fraction" yunits="fraction"/></IconStyle><LabelStyle><scale>0.7</scale></LabelStyle></Style>
<StyleMap id="w_vermellB"><Pair><key>normal</key><styleUrl>#w_vermellBAR_n</styleUrl></Pair><Pair><key>highlight</key><styleUrl>#w_vermellBAR_s</styleUrl></Pair></StyleMap>
<Style id="w_descarrega"><IconStyle><color>ff00ffff</color><scale>0.5</scale><Icon><href>http://maps.google.com/mapfiles/kml/shapes/road_shield3.png</href></Icon></IconStyle><LabelStyle><scale>0.7</scale></LabelStyle></Style><Style id="actuacio"><IconStyle><color>ff00ffff</color><scale>0.8</scale><Icon><href>http://maps.google.com/mapfiles/kml/shapes/caution.png</href></Icon></IconStyle><LabelStyle><scale>0.7</scale></LabelStyle></Style></Document></kml>